var ibaraki={"type":"FeatureCollection","name":"ibaraki","features":[
{"type":"Feature","geometry":{"type":"Point","coordinates":[140.39397,36.39889]},"properties":{"Name":"水戸済生会総合病院","Jusho":"茨城県水戸市双葉台3丁目3番10号","kouzui":"029-254-5151","gake":"https://www.mito-saiseikai.jp/","takashio":"×","jishin":"〇","tsunami":"全診療科","kaji":"","naisui":"","kazan":""}}
,{"type":"Feature","geometry":{"type":"Point","coordinates":[140.47142,36.3733]},"properties":{"Name":"総合病院水戸協同病院","Jusho":"茨城県水戸市宮町3丁目2番7号","kouzui":"029-231-2371","gake":"","takashio":"×","jishin":"〇","tsunami":"内科眼科整形外科皮膚科耳鼻咽喉科脳神経外科泌尿器科","kaji":"","naisui":"","kazan":""}}
,{"type":"Feature","geometry":{"type":"Point","coordinates":[140.42139,36.36096]},"properties":{"Name":"（医）大橋会大橋病院","Jusho":"茨城県水戸市見川町2131-1560","kouzui":"029-240-3300","gake":"http:///www.ohhashikai.or.jp","takashio":"〇","jishin":"〇","tsunami":"眼科胃腸科肛門科内科","kaji":"（医）大橋会大橋病院","naisui":"","kazan":""}}
,{"type":"Feature","geometry":{"type":"Point","coordinates":[140.46597,36.33332]},"properties":{"Name":"住吉クリニック病院","Jusho":"茨城県水戸市住吉町193-97","kouzui":"029-247-2251","gake":"https://www.sumiyoshi-clinic.or.jp/","takashio":"×","jishin":"〇","tsunami":"内科","kaji":"","naisui":"","kazan":""}}
,{"type":"Feature","geometry":{"type":"Point","coordinates":[140.49518,36.35966]},"properties":{"Name":"医療法人清真会丹野病院","Jusho":"茨城県水戸市酒門町4887","kouzui":"029-226-6555","gake":"https://www.tanno-h.com","takashio":"〇","jishin":"〇","tsunami":"内科","kaji":"","naisui":"","kazan":""}}
,{"type":"Feature","geometry":{"type":"Point","coordinates":[140.46626,36.3811]},"properties":{"Name":"志村病院","Jusho":"茨城県水戸市五軒町1丁目5番11号","kouzui":"029-221-2181","gake":"http://www.shimura-hospital.com","takashio":"×","jishin":"〇","tsunami":"神経内科整形外科皮膚科","kaji":"","naisui":"","kazan":""}}
,{"type":"Feature","geometry":{"type":"Point","coordinates":[140.44432,36.33562]},"properties":{"Name":"岩崎病院","Jusho":"茨城県水戸市笠原町1664-2","kouzui":"029-241-8700","gake":"https://iwasaki-hosp.com","takashio":"〇","jishin":"〇","tsunami":"内科産婦人科小児科","kaji":"水戸医療センター","naisui":"","kazan":""}}
,{"type":"Feature","geometry":{"type":"Point","coordinates":[140.53915,36.33311]},"properties":{"Name":"医療法人碧水会汐ヶ崎病院","Jusho":"茨城県水戸市大串町715番地","kouzui":"029-269-2226","gake":"http://www.shiogasaki.net/","takashio":"×","jishin":"〇","tsunami":"精神科","kaji":"なし","naisui":"","kazan":""}}
,{"type":"Feature","geometry":{"type":"Point","coordinates":[140.47528,36.34008]},"properties":{"Name":"愛正会記念茨城福祉医療センター","Jusho":"茨城県水戸市元吉田町1872-1","kouzui":"029-353-7171","gake":"http://www.aiseikai-kinen-hp.com/","takashio":"×","jishin":"〇","tsunami":"小児科小児神経科精神科小児外科外科整形外科","kaji":"茨城県立こども病院（茨城県水戸市双葉台3丁目3-1）土浦協同病院（茨城県土浦市おおつ野4丁目1-1）","naisui":"","kazan":""}}
,{"type":"Feature","geometry":{"type":"Point","coordinates":[140.45227,36.32941]},"properties":{"Name":"なのはな耳鼻咽喉科","Jusho":"茨城県水戸市東野町693-9","kouzui":"029-248-7087","gake":"http://nanohana-jibika.com/","takashio":"×","jishin":"〇","tsunami":"耳鼻咽喉科","kaji":"","naisui":"","kazan":""}}
,{"type":"Feature","geometry":{"type":"Point","coordinates":[140.4622,36.38426]},"properties":{"Name":"河内クリニック","Jusho":"茨城県水戸市金町3-1-17","kouzui":"029-222-3000","gake":"http://www.doctork.gr.jp","takashio":"〇","jishin":"〇","tsunami":"内科","kaji":"志村病院（茨城県水戸市泉町1-7-38）ブレインハートセンター（茨城県水戸市青柳町4028）","naisui":"","kazan":""}}
,{"type":"Feature","geometry":{"type":"Point","coordinates":[140.46918,36.36089]},"properties":{"Name":"医療法人清順会クリニック健康の杜","Jusho":"茨城県水戸市千波町1250","kouzui":"029-305-6655","gake":"http://kenkou-mori.or.jp/","takashio":"〇","jishin":"〇","tsunami":"内科外科","kaji":"","naisui":"","kazan":""}}
,{"type":"Feature","geometry":{"type":"Point","coordinates":[140.45212,36.33723]},"properties":{"Name":"阿部内科医院","Jusho":"茨城県水戸市笠原町1967-1","kouzui":"029-241-8340","gake":"http://www.ne.jp/asahi/abe/clinic/","takashio":"×","jishin":"〇","tsunami":"内科","kaji":"阿部内科医院（茨城県水戸市笠原町1967-1）","naisui":"","kazan":""}}
,{"type":"Feature","geometry":{"type":"Point","coordinates":[140.38939,36.38708]},"properties":{"Name":"高木内科整形外科医院","Jusho":"茨城県水戸市大塚町1504-1","kouzui":"029-251-8038","gake":"https://takaginaika.com/","takashio":"〇","jishin":"〇","tsunami":"内科整形外科","kaji":"水戸済生会総合病院（茨城県水戸市双葉台3丁目3-10）茨城県立中央病院（茨城県笠間市鯉淵6528）","naisui":"","kazan":""}}
,{"type":"Feature","geometry":{"type":"Point","coordinates":[140.48019,36.36902]},"properties":{"Name":"医療法人社団有朋会こころのクリニック水戸","Jusho":"茨城県水戸市桜川2-5-15","kouzui":"029-231-0150","gake":"https://yuhokai-kokoro.com/","takashio":"×","jishin":"〇","tsunami":"精神科心療内科","kaji":"","naisui":"","kazan":""}}
,{"type":"Feature","geometry":{"type":"Point","coordinates":[140.47726,36.38867]},"properties":{"Name":"石島整形外科医院","Jusho":"茨城県水戸市青柳町505","kouzui":"029-221-4821","gake":"https://ishijima-orth.com/wp/","takashio":"×","jishin":"〇","tsunami":"内科整形外科","kaji":"水戸済生会総合病院（茨城県水戸市双葉台3丁目3-10）","naisui":"","kazan":""}}
,{"type":"Feature","geometry":{"type":"Point","coordinates":[140.45982,36.33638]},"properties":{"Name":"こじま内科クリニック","Jusho":"水戸市米沢町98-11","kouzui":"029-297-3311","gake":"","takashio":"〇","jishin":"〇","tsunami":"内科","kaji":"水戸協同病院（茨城県水戸市宮町3-2-7）","naisui":"","kazan":""}}
,{"type":"Feature","geometry":{"type":"Point","coordinates":[140.43307,36.33004]},"properties":{"Name":"たかやす内科医院","Jusho":"茨城県水戸市平須町1814-181","kouzui":"029-241-1221","gake":"","takashio":"〇","jishin":"〇","tsunami":"内科小児科","kaji":"帰国者接触者相談に連絡","naisui":"","kazan":""}}
,{"type":"Feature","geometry":{"type":"Point","coordinates":[140.494,36.36511]},"properties":{"Name":"医療法人青木医院","Jusho":"茨城県水戸市本町3-4-7","kouzui":"029-221-8603","gake":"http://www.aoki-mc.com/","takashio":"〇","jishin":"〇","tsunami":"産婦人科小児科","kaji":"当院","naisui":"","kazan":""}}
,{"type":"Feature","geometry":{"type":"Point","coordinates":[140.47597,36.36073]},"properties":{"Name":"葉梨外科内科","Jusho":"茨城県水戸市元吉田町376-8","kouzui":"029-247-2232","gake":"","takashio":"×","jishin":"〇","tsunami":"内科","kaji":"水戸協同病院（茨城県水戸市宮町3-2-7）水戸赤十字病院（茨城県水戸市三の丸3-12-48）","naisui":"","kazan":""}}
,{"type":"Feature","geometry":{"type":"Point","coordinates":[140.45682,36.36567]},"properties":{"Name":"小関外科胃腸科医院","Jusho":"茨城県水戸市千波町347-1","kouzui":"029-241-2662","gake":"","takashio":"〇","jishin":"〇","tsunami":"内科","kaji":"水戸協同病院病院（茨城県水戸市宮町2-3-7）水戸赤十字病院病院（茨城県水戸市三の丸3-12-48）","naisui":"","kazan":""}}
,{"type":"Feature","geometry":{"type":"Point","coordinates":[140.43834,36.31665]},"properties":{"Name":"金敷内科医院","Jusho":"茨城県水戸市平須町1-27","kouzui":"029-305-7211","gake":"https://www.kanashiki-naika.com/","takashio":"〇","jishin":"〇","tsunami":"内科消化器科循環器科呼吸器科小児科皮膚科","kaji":"水戸医療センター（茨城県東茨城郡茨城町桜の郷280）茨城県立中央病院（茨城県笠間市鯉淵6528）水戸協同病院（茨城県水戸市宮町3-2-7）","naisui":"","kazan":""}}
,{"type":"Feature","geometry":{"type":"Point","coordinates":[140.44408,36.34068]},"properties":{"Name":"みと肛門クリニック","Jusho":"茨城県水戸市笠原町978-27IPICビル2階","kouzui":"029-291-3411","gake":"http://www.mitokomon.net/","takashio":"△","jishin":"〇","tsunami":"肛門科","kaji":"川﨑胃腸科肛門科病院（茨城県日立市桜川町3-3-19）","naisui":"","kazan":""}}
,{"type":"Feature","geometry":{"type":"Point","coordinates":[140.64368,36.59132]},"properties":{"Name":"株式会社日立製作所日立総合病院","Jusho":"茨城県日立市城南町二丁目1番1号","kouzui":"0294-23-1111","gake":"http://www.hitachi.co.jp/hospital/hitachi/","takashio":"×","jishin":"〇","tsunami":"消化器内科呼吸器内科血液内科循環器内科緩和ケア科神経内科心臓欠陥外科腎臓内科外科呼吸器外科乳腺外科泌尿器科整形外科形成外科脳神経外科小児科産婦人科皮膚科耳鼻咽喉科眼科","kaji":"","naisui":"","kazan":""}}
,{"type":"Feature","geometry":{"type":"Point","coordinates":[140.65466,36.599]},"properties":{"Name":"医療法人社団日鉱記念病院","Jusho":"茨城県日立市神峰町2-12-8","kouzui":"0294-24-1212","gake":"http://www.nikko-memorial-hos.or.jp/","takashio":"×","jishin":"〇","tsunami":"内科呼吸器内科循環器内科腎臓内科糖尿病内科消化器内科","kaji":"医療法人社団日鉱記念病院日立市神峰町2-12-8","naisui":"","kazan":""}}
,{"type":"Feature","geometry":{"type":"Point","coordinates":[140.6221,36.51511]},"properties":{"Name":"日立おおみか病院","Jusho":"茨城県日立市大みか町2-22-30","kouzui":"0294-52-4455","gake":"http://jinaikai.org/","takashio":"〇","jishin":"〇","tsunami":"内科外科整形外科","kaji":"日立総合病院","naisui":"","kazan":""}}
,{"type":"Feature","geometry":{"type":"Point","coordinates":[140.63655,36.56583]},"properties":{"Name":"ひたち医療センター","Jusho":"茨城県日立市鮎川町2-8-16","kouzui":"0294-36-2551","gake":"http://www.hitachi-mch.or.jp","takashio":"×","jishin":"〇","tsunami":"外来各診療科","kaji":"電話診療は再診患者のみの対応となりますので、対面診療が必要と判断した場合は原則自院にて対応いたします。","naisui":"","kazan":""}}
,{"type":"Feature","geometry":{"type":"Point","coordinates":[140.6347,36.56182]},"properties":{"Name":"川﨑胃腸科肛門科病院","Jusho":"茨城県日立市桜川町3-3-19","kouzui":"0294-36-1800","gake":"http://www.kawahp.net/","takashio":"△","jishin":"〇","tsunami":"肛門科胃腸科泌尿器科婦人科内科","kaji":"みと肛門クリニック（茨城県水戸市笠原町978-27IPICビル2階）","naisui":"","kazan":""}}
,{"type":"Feature","geometry":{"type":"Point","coordinates":[140.59453,36.50264]},"properties":{"Name":"医療法人聖麗会聖麗メモリアル病院","Jusho":"茨城県日立市茂宮町841","kouzui":"0294-52-8500","gake":"http://www.seirei-memorial.com/","takashio":"×","jishin":"〇","tsunami":"脳神経外科","kaji":"医療法人聖麗会脳神経外科聖麗メモリアルひたちなか（茨城県ひたちなか市馬渡2835-2）","naisui":"","kazan":""}}
,{"type":"Feature","geometry":{"type":"Point","coordinates":[140.62549,36.51224]},"properties":{"Name":"堀内耳鼻咽喉科医院","Jusho":"茨城県日立市大みか町2-29-10","kouzui":"0294-52-3841","gake":"","takashio":"×","jishin":"〇","tsunami":"耳鼻咽喉科","kaji":"日立総合病院（茨城県日立市城南町2-1-1）水戸協同病院（茨城県水戸市宮町3-2-7）","naisui":"","kazan":""}}
,{"type":"Feature","geometry":{"type":"Point","coordinates":[140.69765,36.65435]},"properties":{"Name":"やまがた内科医院","Jusho":"茨城県日立市川尻町1-35-7","kouzui":"0294-44-8700","gake":"","takashio":"〇","jishin":"〇","tsunami":"内科","kaji":"","naisui":"","kazan":""}}
,{"type":"Feature","geometry":{"type":"Point","coordinates":[140.61607,36.51718]},"properties":{"Name":"井村整形外科医院","Jusho":"茨城県日立市大みか町6-4-10","kouzui":"0294-52-2191","gake":"","takashio":"×","jishin":"〇","tsunami":"整形外科内科","kaji":"当院で診察","naisui":"","kazan":""}}
,{"type":"Feature","geometry":{"type":"Point","coordinates":[140.66016,36.5828]},"properties":{"Name":"小川医院","Jusho":"茨城県日立市相賀町5-1","kouzui":"0294-21-0963","gake":"","takashio":"〇","jishin":"〇","tsunami":"内科糖尿病内科","kaji":"","naisui":"","kazan":""}}
,{"type":"Feature","geometry":{"type":"Point","coordinates":[140.62439,36.56806]},"properties":{"Name":"医療法人聡明会平和台しのはらクリニック","Jusho":"茨城県日立市諏訪町3-8-6","kouzui":"0294-34-6800","gake":"http://www.shinohara-clinic.net/","takashio":"×","jishin":"〇","tsunami":"内科外科脳神経外科整形外科ペインクリニック","kaji":"日立総合病院（茨城県日立市城南町2-1-1）ひたち医療センター（茨城県日立市鮎川町2-8-16）","naisui":"","kazan":""}}
,{"type":"Feature","geometry":{"type":"Point","coordinates":[140.65941,36.59314]},"properties":{"Name":"おおたしろクリニック","Jusho":"茨城県日立市平和町1-17-15","kouzui":"0294-22-8800","gake":"","takashio":"〇","jishin":"〇","tsunami":"内科","kaji":"日立総合病院（茨城県日立市城南町2-1-1）","naisui":"","kazan":""}}
,{"type":"Feature","geometry":{"type":"Point","coordinates":[140.64375,36.55412]},"properties":{"Name":"株式会社日立製作所日立総合病院附属多賀クリニック","Jusho":"茨城県日立市国分町2-1-2","kouzui":"0294-33-0035","gake":"https://www.hitachi.co.jp/hospital/taga/","takashio":"×","jishin":"〇","tsunami":"内科内科内科内科リウマチ科リウマチ科","kaji":"","naisui":"","kazan":""}}
,{"type":"Feature","geometry":{"type":"Point","coordinates":[140.63141,36.56404]},"properties":{"Name":"石川内科ファミリークリニック","Jusho":"茨城県日立市桜川町3-11-15","kouzui":"0294-33-8600","gake":"http://www.ifc20121001.com","takashio":"〇","jishin":"〇","tsunami":"内科小児科","kaji":"日立総合病院（茨城県日立市城南町2-1-1）ひたち医療センター（茨城県日立市鮎川町2-8-16）","naisui":"","kazan":""}}
,{"type":"Feature","geometry":{"type":"Point","coordinates":[140.62584,36.51414]},"properties":{"Name":"島田外科医院","Jusho":"茨城県日立市大みか町2-13-18","kouzui":"0294-53-4888","gake":"","takashio":"〇","jishin":"〇","tsunami":"外科皮膚科整形外科内科","kaji":"日立総合病院（茨城県日立市城南町2?1?1）ひたち医療センター（茨城県日立市鮎川町2?8?16）","naisui":"","kazan":""}}
,{"type":"Feature","geometry":{"type":"Point","coordinates":[140.6915,36.65562]},"properties":{"Name":"医療法人佐々木胃腸科外科","Jusho":"茨城県日立市折笠町564-2","kouzui":"0294-43-0333","gake":"http://www.sasaki-icyoukageka.jp/","takashio":"〇","jishin":"〇","tsunami":"胃腸科・内科","kaji":"日立総合病院（茨城県日立市城南町2?1?1）","naisui":"","kazan":""}}
,{"type":"Feature","geometry":{"type":"Point","coordinates":[140.65352,36.59633]},"properties":{"Name":"佐藤医院","Jusho":"茨城県日立市神峰町1-10-20","kouzui":"0294-21-2330","gake":"","takashio":"×","jishin":"〇","tsunami":"内科","kaji":"","naisui":"","kazan":""}}
,{"type":"Feature","geometry":{"type":"Point","coordinates":[140.16945,36.05142]},"properties":{"Name":"医療法人財団県南病院","Jusho":"茨城県土浦市中1087","kouzui":"028-841-1148","gake":"","takashio":"×","jishin":"〇","tsunami":"全診療科","kaji":"","naisui":"","kazan":""}}
,{"type":"Feature","geometry":{"type":"Point","coordinates":[140.20758,36.10822]},"properties":{"Name":"土浦厚生病院","Jusho":"茨城県土浦市東若松町3969","kouzui":"029-821-2200","gake":"http://kasuikai.or.jp/","takashio":"×","jishin":"〇","tsunami":"精神科","kaji":"-","naisui":"","kazan":""}}
,{"type":"Feature","geometry":{"type":"Point","coordinates":[140.2589,36.08397]},"properties":{"Name":"総合病院土浦協同病院","Jusho":"茨城県土浦市おおつ野4-1-1","kouzui":"029-830-3711","gake":"http://www.tkgh.jp/","takashio":"×","jishin":"〇","tsunami":"総合内科,消化器内科循環器内科,呼吸器内科,腎臓内科透析科,血液内科代謝内分泌内科,脳神経内科小児科,新生児科緩和ケア科,消化器外科小児外科,呼吸器外科心臓血管外科,乳腺外科血管外科,脳神経外科整形外科,産婦人科産科新生児,泌尿器科形成外科,眼科耳鼻咽喉科,心身医療科麻酔科,救急集中治療科放射線診断科,放射線治療科感染症科,リハビリテーション科がんゲノム診療科,遺伝診療科病理診断科,予防医療科歯科口腔外科,患者サポート","kaji":"無し","naisui":"","kazan":""}}
,{"type":"Feature","geometry":{"type":"Point","coordinates":[139.94702,35.99153]},"properties":{"Name":"水海道厚生病院","Jusho":"茨城県常総市内守谷町3770-7","kouzui":"0297-27-0721","gake":"http://www.mitsukaidokosei-hp.or.jp","takashio":"×","jishin":"〇","tsunami":"精神科","kaji":"","naisui":"","kazan":""}}
,{"type":"Feature","geometry":{"type":"Point","coordinates":[140.20645,36.07753]},"properties":{"Name":"つちうら東口クリニック","Jusho":"茨城県土浦市有明町2-31関鉄土浦ビル4階","kouzui":"029-825-7880","gake":"https://www.tsuchiura-east-clinic.jp/","takashio":"〇","jishin":"〇","tsunami":"漢方内科小児科","kaji":"独立行政法人国立病院機構霞ヶ浦医療センター（茨城県土浦市下高津2丁目7-14)","naisui":"","kazan":""}}
,{"type":"Feature","geometry":{"type":"Point","coordinates":[140.18379,36.06768]},"properties":{"Name":"中高津クリニック","Jusho":"茨城県土浦市中高津3-1-4","kouzui":"029-824-1212","gake":"https://nakatakatsu-clinic.jp/","takashio":"〇","jishin":"〇","tsunami":"内科呼吸器内科外科","kaji":"総合病院土浦協同病院（茨城県土浦市おおつ野4丁目-1-1）独立行政法人国立病院機構霞ヶ浦医療センター（茨城県土浦市下高津2丁目7-14)","naisui":"","kazan":""}}
,{"type":"Feature","geometry":{"type":"Point","coordinates":[140.19971,36.08621]},"properties":{"Name":"友常クリニック","Jusho":"茨城県土浦市中央2-14-9","kouzui":"029-824-2718","gake":"http://tomotsune-clinic.jp/","takashio":"×","jishin":"〇","tsunami":"内科","kaji":"","naisui":"","kazan":""}}
,{"type":"Feature","geometry":{"type":"Point","coordinates":[140.23859,36.11991]},"properties":{"Name":"大塚クリニック","Jusho":"茨城県土浦市神立中央3-9","kouzui":"029-832-7555","gake":"","takashio":"×","jishin":"〇","tsunami":"内科","kaji":"","naisui":"","kazan":""}}
,{"type":"Feature","geometry":{"type":"Point","coordinates":[140.20066,36.07343]},"properties":{"Name":"額賀医院","Jusho":"茨城県土浦市富士崎1—7—25","kouzui":"029—821-5748","gake":"","takashio":"×","jishin":"〇","tsunami":"内科整形外科","kaji":"独立行政法人国立病院機構霞ヶ浦医療センター（茨城県土浦市下高津2丁目7-14)","naisui":"","kazan":""}}
,{"type":"Feature","geometry":{"type":"Point","coordinates":[140.2173,36.10336]},"properties":{"Name":"わか葉在宅クリニック","Jusho":"茨城県土浦市木田余東台2-9-15","kouzui":"029-879-8330","gake":"https://wakaba-zaitaku.biz/","takashio":"〇","jishin":"〇","tsunami":"内科","kaji":"独立行政法人国立病院機構霞ヶ浦医療センター（茨城県土浦市下高津2丁目7-14)","naisui":"","kazan":""}}
,{"type":"Feature","geometry":{"type":"Point","coordinates":[140.19485,36.07321]},"properties":{"Name":"菊地内科医院","Jusho":"茨城県土浦市下高津1-19-37","kouzui":"029-821-3770","gake":"https://kikuchi-naika.jp/","takashio":"×","jishin":"〇","tsunami":"内科□","kaji":"独立行政法人国立病院機構霞ヶ浦医療センター（茨城県土浦市下高津2丁目7-14)総合病院土浦協同病院（茨城県土浦市おおつ野4丁目-1-1）","naisui":"","kazan":""}}
,{"type":"Feature","geometry":{"type":"Point","coordinates":[140.20024,36.08018]},"properties":{"Name":"塚田整形外科","Jusho":"茨城県土浦市桜町3-9-20","kouzui":"029-824-1111","gake":"http://www.tsukada-seikei.com","takashio":"〇","jishin":"〇","tsunami":"整形外科内科リウマチ科","kaji":"独立行政法人国立病院機構霞ヶ浦医療センター（茨城県土浦市下高津2丁目7-14)総合病院土浦協同病院（茨城県土浦市おおつ野4丁目-1-1）","naisui":"","kazan":""}}
,{"type":"Feature","geometry":{"type":"Point","coordinates":[140.16817,36.03184]},"properties":{"Name":"ホームクリニックなぎの木","Jusho":"茨城県土浦市荒川沖東2丁目3の18グレース荒川沖101号","kouzui":"029-899-4072","gake":"","takashio":"×","jishin":"〇","tsunami":"外科内科","kaji":"独立行政法人国立病院機構霞ヶ浦医療センター（茨城県土浦市下高津2丁目7-14)","naisui":"","kazan":""}}
,{"type":"Feature","geometry":{"type":"Point","coordinates":[140.18019,36.06722]},"properties":{"Name":"医療法人社団松永医院","Jusho":"茨城県土浦市中高津3-11-15","kouzui":"029-823-7771","gake":"http://www.m-iin.info/","takashio":"〇","jishin":"〇","tsunami":"整形外科耳鼻咽喉科","kaji":"総合病院土浦協同病院（茨城県土浦市おおつ野4丁目-1-1）独立行政法人国立病院機構霞ヶ浦医療センター（茨城県土浦市下高津2丁目7-14)","naisui":"","kazan":""}}
,{"type":"Feature","geometry":{"type":"Point","coordinates":[140.20352,36.07801]},"properties":{"Name":"医療法人新生会土浦メンタルクリニック","Jusho":"茨城県土浦市大和町9-2「ウララ2」3階","kouzui":"029-826-7888","gake":"http://www.bungosou.or.jp/tmental/","takashio":"×","jishin":"〇","tsunami":"精神科心療内科神経科","kaji":"","naisui":"","kazan":""}}
,{"type":"Feature","geometry":{"type":"Point","coordinates":[140.2009,36.08157]},"properties":{"Name":"医療法人鶴翔会鶴町医院","Jusho":"茨城県土浦市中央1-1-11","kouzui":"029-821-2368","gake":"","takashio":"〇","jishin":"〇","tsunami":"小児科内科","kaji":"総合病院土浦協同病院（茨城県土浦市おおつ野4丁目-1-1）独立行政法人国立病院機構霞ヶ浦医療センター（茨城県土浦市下高津2丁目7-14)","naisui":"","kazan":""}}
,{"type":"Feature","geometry":{"type":"Point","coordinates":[140.14268,36.03603]},"properties":{"Name":"かのう整形外科","Jusho":"茨城県土浦市小山田1-393","kouzui":"029-843-6050","gake":"http://www.kano-seikei.jp/","takashio":"×","jishin":"〇","tsunami":"整形外科","kaji":"","naisui":"","kazan":""}}
,{"type":"Feature","geometry":{"type":"Point","coordinates":[140.19882,36.07912]},"properties":{"Name":"医療法人社団尽誠会さくら内科クリニック","Jusho":"茨城県土浦市桜町3-14-18さくらメディカルビル1F","kouzui":"029-835-3233","gake":"","takashio":"×","jishin":"〇","tsunami":"内科","kaji":"","naisui":"","kazan":""}}
,{"type":"Feature","geometry":{"type":"Point","coordinates":[140.24916,36.11362]},"properties":{"Name":"株式会社日立製作所土浦診療健診センタ","Jusho":"茨城県土浦市神立東二丁目27番8号","kouzui":"029-831-5830","gake":"http://www.hitachi.co.jp/hospital/tsuchiura/","takashio":"△","jishin":"〇","tsunami":"要確認","kaji":"総合病院土浦協同病院（茨城県土浦市おおつ野4丁目-1-1）","naisui":"","kazan":""}}
,{"type":"Feature","geometry":{"type":"Point","coordinates":[140.20549,36.06001]},"properties":{"Name":"医療法人社団明厚会大石内科クリニック","Jusho":"茨城県土浦市大岩田2472","kouzui":"029-835-0014","gake":"http://www.ohishi-naika-clinic.jp/","takashio":"×","jishin":"〇","tsunami":"内科","kaji":"独立行政法人国立病院機構霞ヶ浦医療センター（茨城県土浦市下高津2丁目7-14)東京医科大学茨城医療センター(茨城県稲敷郡阿見町中央3-20-1)総合病院土浦協同病院（茨城県土浦市おおつ野4丁目-1-1）","naisui":"","kazan":""}}
,{"type":"Feature","geometry":{"type":"Point","coordinates":[140.19319,36.08129]},"properties":{"Name":"石川クリニック","Jusho":"茨城県土浦市大町12-3","kouzui":"029-821-2587","gake":"http://www17.plala.or.jp/i-clinicOBGYN/","takashio":"〇","jishin":"〇","tsunami":"産婦人科","kaji":"総合病院土浦協同病院（茨城県土浦市おおつ野4丁目-1-1）独立行政法人国立病院機構霞ヶ浦医療センター（茨城県土浦市下高津2丁目7-14)","naisui":"","kazan":""}}
,{"type":"Feature","geometry":{"type":"Point","coordinates":[140.16223,36.03395]},"properties":{"Name":"鶴町皮膚科クリニック","Jusho":"茨城県土浦市荒川沖西1-17-4","kouzui":"029-842-3046","gake":"https://tsurumachi.jp/","takashio":"〇","jishin":"〇","tsunami":"皮膚科","kaji":"筑波大学付属病院（茨城県つくば市天久保2丁目1番地1）東京医科大学茨城医療センター(茨城県稲敷郡阿見町中央3-20-1)総合病院土浦協同病院（茨城県土浦市おおつ野4丁目-1-1）","naisui":"","kazan":""}}
,{"type":"Feature","geometry":{"type":"Point","coordinates":[139.72301,36.18796]},"properties":{"Name":"古河赤十字病院","Jusho":"茨城県古河市下山町1150","kouzui":"0280-23-7111","gake":"http://www.koga.jrc.or.jp/","takashio":"×","jishin":"〇","tsunami":"全診療科","kaji":"連携医療機関多数のため省略","naisui":"","kazan":""}}
,{"type":"Feature","geometry":{"type":"Point","coordinates":[139.7822,36.18502]},"properties":{"Name":"小柳病院","Jusho":"茨城県古河市稲宮1001","kouzui":"0280-97-1110","gake":"http://www.jiseikai.net/","takashio":"×","jishin":"〇","tsunami":"精神科","kaji":"","naisui":"","kazan":""}}
,{"type":"Feature","geometry":{"type":"Point","coordinates":[139.74449,36.20695]},"properties":{"Name":"友愛記念病院","Jusho":"茨城県古河市東牛谷707","kouzui":"0280-97-3000","gake":"https://www.yuai-hosp-jp.org/","takashio":"×","jishin":"〇","tsunami":"","kaji":"","naisui":"","kazan":""}}
,{"type":"Feature","geometry":{"type":"Point","coordinates":[139.7059,36.17266]},"properties":{"Name":"医療法人徳洲会古河総合病院","Jusho":"茨城県古河市鴻巣1555","kouzui":"0280-48-0283","gake":"https://www.kogahosp.jp/","takashio":"×","jishin":"〇","tsunami":"内科整形外科外科小児科循環器科","kaji":"現状は院内で対応。","naisui":"","kazan":""}}
,{"type":"Feature","geometry":{"type":"Point","coordinates":[139.72581,36.19303]},"properties":{"Name":"はやし整形外科クリニック","Jusho":"茨城県古河市東本町4-2-2","kouzui":"0280-30-8084","gake":"","takashio":"×","jishin":"〇","tsunami":"整形外科","kaji":"古河赤十字病院（茨城県古河市下山町1150）友愛記念病院（茨城県古河市東牛谷707）","naisui":"","kazan":""}}
,{"type":"Feature","geometry":{"type":"Point","coordinates":[139.71114,36.19606]},"properties":{"Name":"山中医院","Jusho":"茨城県古河市東1-7-11","kouzui":"0280-32-0288","gake":"","takashio":"×","jishin":"〇","tsunami":"内科","kaji":"なし","naisui":"","kazan":""}}
,{"type":"Feature","geometry":{"type":"Point","coordinates":[139.72581,36.19303]},"properties":{"Name":"小柳クリニック","Jusho":"茨城県古河市東本町4-2-2","kouzui":"0280-32-3326","gake":"http://www.jiseikai.net/clinic/","takashio":"×","jishin":"〇","tsunami":"精神科麻酔科","kaji":"","naisui":"","kazan":""}}
,{"type":"Feature","geometry":{"type":"Point","coordinates":[139.70695,36.19775]},"properties":{"Name":"医療法人賢友会長島外科","Jusho":"茨城県古河市本町1-9-15","kouzui":"0280-32-3011","gake":"","takashio":"×","jishin":"〇","tsunami":"外科内科胃腸科整形外科","kaji":"古河赤十字病院（茨城県古河市下山町1150）友愛記念病院（茨城県古河市東牛谷707）","naisui":"","kazan":""}}
,{"type":"Feature","geometry":{"type":"Point","coordinates":[139.69794,36.19416]},"properties":{"Name":"医療法人田中医院","Jusho":"茨城県古河市錦町5-3","kouzui":"0280-23-0600","gake":"http://www.tanakaiin.jp/","takashio":"×","jishin":"〇","tsunami":"消化器科内科","kaji":"友愛記念病院（茨城県古河市東牛谷707）古河赤十字病院（茨城県古河市下大野1150）","naisui":"","kazan":""}}
,{"type":"Feature","geometry":{"type":"Point","coordinates":[139.70403,36.16883]},"properties":{"Name":"古河福祉の森診療所","Jusho":"茨城県古河市新久田271-1","kouzui":"0280-48-6521","gake":"","takashio":"〇","jishin":"〇","tsunami":"内科外科","kaji":"古河総合病院（茨城県古河市鴻巣1555番地）古河赤十字病院（茨城県古河市下山町1150番地）友愛記念病院（茨城県古河市東牛谷707）","naisui":"","kazan":""}}
,{"type":"Feature","geometry":{"type":"Point","coordinates":[139.74449,36.20695]},"properties":{"Name":"医療法人恵樹会いたばし糖尿病内科皮フ科クリニック","Jusho":"茨城県古河市東牛谷815-1","kouzui":"0280-23-2890","gake":"http://www.itabashi-clinic.jp/","takashio":"×","jishin":"〇","tsunami":"内科糖尿病内科皮膚科","kaji":"基本的には自院にて友愛記念病院（茨城県古河市東牛谷707）","naisui":"","kazan":""}}
,{"type":"Feature","geometry":{"type":"Point","coordinates":[140.28897,36.18774]},"properties":{"Name":"医療法人幕内会山王台病院","Jusho":"茨城県石岡市東石岡4-1-8","kouzui":"0299-26-3130","gake":"http://www.sannoudai.or.jp","takashio":"△","jishin":"△","tsunami":"総合診療科外科内科","kaji":"山王台病院（石岡市東石岡4-1-38）","naisui":"","kazan":""}}
,{"type":"Feature","geometry":{"type":"Point","coordinates":[140.22147,36.26502]},"properties":{"Name":"医療法人新生会豊後荘病院","Jusho":"茨城県石岡市部原760-1","kouzui":"0299-44-3211","gake":"http://www.bungosou.or.jp","takashio":"×","jishin":"〇","tsunami":"精神科心療内科アルコール科内科外科脳神経内科","kaji":"","naisui":"","kazan":""}}
,{"type":"Feature","geometry":{"type":"Point","coordinates":[140.24829,36.22408]},"properties":{"Name":"石岡市医師会病院","Jusho":"茨城県石岡市大砂10528-25","kouzui":"0299-22-4321","gake":"http://www.ishiokashi-ishikai.or.jp","takashio":"×","jishin":"〇","tsunami":"内科内科小児科整形外科","kaji":"","naisui":"","kazan":""}}
,{"type":"Feature","geometry":{"type":"Point","coordinates":[140.28583,36.20407]},"properties":{"Name":"杉並クリニック","Jusho":"茨城県石岡市杉並2-2-19","kouzui":"0299-27-6700","gake":"","takashio":"〇","jishin":"〇","tsunami":"内科循環器内科脳神経外科神経内科","kaji":"総合病院土浦協同病院（茨城県土浦市おおつ野4丁目-1-1）茨城県立中央病院（茨城県笠間市鯉淵6528）","naisui":"","kazan":""}}
,{"type":"Feature","geometry":{"type":"Point","coordinates":[140.29874,36.18707]},"properties":{"Name":"桧山医院","Jusho":"茨城県石岡市東石岡4?11?5","kouzui":"0299-26-3812","gake":"","takashio":"〇","jishin":"〇","tsunami":"整形外科内科","kaji":"総合病院土浦協同病院（茨城県土浦市おおつ野4丁目-1-1）石岡循環器科脳神経外科病院（茨城県小美玉市栗又四ケ1768?29）医療法人幕内会山王台病院（茨城県石岡市東石岡4-1-38)","naisui":"","kazan":""}}
,{"type":"Feature","geometry":{"type":"Point","coordinates":[140.25876,36.20342]},"properties":{"Name":"医療法人回生会藤井内科クリニック","Jusho":"茨城県石岡市鹿の子2-1-36","kouzui":"0299-35-5005","gake":"","takashio":"〇","jishin":"〇","tsunami":"内科循環器内科小児科","kaji":"総合病院土浦協同病院（茨城県土浦市おおつ野4丁目-1-1）茨城県立中央病院（茨城県笠間市鯉淵6528）","naisui":"","kazan":""}}
,{"type":"Feature","geometry":{"type":"Point","coordinates":[140.27303,36.19903]},"properties":{"Name":"府中クリニック","Jusho":"茨城県石岡市府中5-11-1","kouzui":"0299-22-2146","gake":"","takashio":"×","jishin":"〇","tsunami":"内科外科胃腸課整形外科肛門科","kaji":"総合病院土浦協同病院（茨城県土浦市おおつ野4丁目-1-1）茨城県立中央病院（茨城県笠間市鯉淵6528）","naisui":"","kazan":""}}
,{"type":"Feature","geometry":{"type":"Point","coordinates":[139.87613,36.30025]},"properties":{"Name":"宮田外科医院","Jusho":"茨城県結城市結城344-6","kouzui":"0296‐33-2608","gake":"","takashio":"〇","jishin":"〇","tsunami":"内科、循環器科、外科、皮膚科","kaji":"なし","naisui":"","kazan":""}}
,{"type":"Feature","geometry":{"type":"Point","coordinates":[139.86497,36.28694]},"properties":{"Name":"さわやか内科・小児科","Jusho":"茨城県結城市新福寺6丁目6?8","kouzui":"0296-20-8655","gake":"https://www.sawayakacl.com/","takashio":"〇","jishin":"〇","tsunami":"内科小児科","kaji":"結城病院（茨城県結城市結城9629-1）城西病院（茨城県結城市結城10745-24）","naisui":"","kazan":""}}
,{"type":"Feature","geometry":{"type":"Point","coordinates":[139.87271,36.29309]},"properties":{"Name":"つぼいクリニック","Jusho":"茨城県結城市中央町1-12-2","kouzui":"0296-33-1020","gake":"http://tsuboi-clinic.com/","takashio":"〇","jishin":"〇","tsunami":"内科、小児科","kaji":"新小山市民病院（栃木県小山市大字神鳥谷2251番地1）茨城県西部メディカルセンター（茨城県筑西市大塚555番地）筑波大学附属病院（茨城県つくば市天久保2丁目1番地1）茨城西南医療センター病院（茨城県猿島郡境町2190）友愛記念病院（茨城県古河市東牛谷707）結城病院（茨城県結城市結城9629番地の1）城西病院（茨城県結城市大字結城10745-24）古河赤十字病院（茨城県古河市下山町1150番地）獨協医科大学病院（栃木県下都賀郡壬生町大字北小林","naisui":"","kazan":""}}
,{"type":"Feature","geometry":{"type":"Point","coordinates":[139.86772,36.28392]},"properties":{"Name":"結城眼科","Jusho":"茨城県結城市結城8776-11","kouzui":"0296-20-8878","gake":"","takashio":"×","jishin":"〇","tsunami":"眼科","kaji":"自治医科大学病院（栃木県下野市薬師寺3311-1）獨協医科大学病院（栃木県下都賀郡壬生町大字北小林880）","naisui":"","kazan":""}}
,{"type":"Feature","geometry":{"type":"Point","coordinates":[139.87131,36.22943]},"properties":{"Name":"医療法人社団ブイブ会渡邉医院","Jusho":"茨城県結城市山川新宿168","kouzui":"0296-35-0431","gake":"","takashio":"〇","jishin":"〇","tsunami":"内科、小児科","kaji":"結城病院（結城市結城9629-1）","naisui":"","kazan":""}}
,{"type":"Feature","geometry":{"type":"Point","coordinates":[139.87521,36.30434]},"properties":{"Name":"医療法人同仁会宮田医院","Jusho":"茨城県結城市大字結城30番地","kouzui":"0296-32-5252","gake":"https://www.miyataclinic.jp/","takashio":"〇","jishin":"〇","tsunami":"内科・小児科","kaji":"自治医科大学附属病院（栃木県下野市薬師寺1133-1）新小山市民病院（栃木県小山市大字神鳥谷2251-1）結城病院（茨城県結城市結城9629-1）城西病院（茨城県結城市結城10745-24）","naisui":"","kazan":""}}
,{"type":"Feature","geometry":{"type":"Point","coordinates":[140.14851,35.92931]},"properties":{"Name":"牛尾病院","Jusho":"茨城県龍ヶ崎市馴柴町1-15-1","kouzui":"0297-66-6111","gake":"http://www.ryujinkai.or.jp","takashio":"×","jishin":"〇","tsunami":"内科外科皮膚科整形外科","kaji":"","naisui":"","kazan":""}}
,{"type":"Feature","geometry":{"type":"Point","coordinates":[140.15547,35.88286]},"properties":{"Name":"医療法人社団萌春会菊地整形外科","Jusho":"茨城県龍ケ崎市北方町633","kouzui":"0297-64-6111","gake":"","takashio":"×","jishin":"〇","tsunami":"整形外科","kaji":"","naisui":"","kazan":""}}
,{"type":"Feature","geometry":{"type":"Point","coordinates":[140.15248,35.93977]},"properties":{"Name":"松葉クリニック","Jusho":"茨城県龍ケ崎市松葉4-10-17","kouzui":"0297-65-7282","gake":"http://www.matsuba-clinic.jp/","takashio":"〇","jishin":"〇","tsunami":"内科小児科","kaji":"牛久愛和総合病院（茨城県牛久市猪子町896）つくばセントラル病院（茨城県牛久市柏田町1589-3）","naisui":"","kazan":""}}
,{"type":"Feature","geometry":{"type":"Point","coordinates":[140.16991,35.90922]},"properties":{"Name":"竜ケ崎医院","Jusho":"茨城県龍ケ崎市川原代町2641","kouzui":"0297-62-0550","gake":"","takashio":"〇","jishin":"〇","tsunami":"内科，消化器内科小児科","kaji":"","naisui":"","kazan":""}}
,{"type":"Feature","geometry":{"type":"Point","coordinates":[139.93484,36.22733]},"properties":{"Name":"平間病院","Jusho":"茨城県下妻市江2051番地","kouzui":"0296-43-5100","gake":"http://www.hirama-byouin.or.jp","takashio":"〇","jishin":"〇","tsunami":"内科","kaji":"","naisui":"","kazan":""}}
,{"type":"Feature","geometry":{"type":"Point","coordinates":[140.01363,36.19295]},"properties":{"Name":"坂入医院","Jusho":"茨城県下妻市高道祖5683-1","kouzui":"0296-43-6391","gake":"http://www.sakairi-clinic.or.jp/","takashio":"〇","jishin":"〇","tsunami":"内科神経内科循環器内科消化器内科","kaji":"医療法人杏仁会大圃病院（茨城県筑西市木戸352）","naisui":"","kazan":""}}
,{"type":"Feature","geometry":{"type":"Point","coordinates":[139.953,36.18151]},"properties":{"Name":"とき田クリニック","Jusho":"茨城県下妻市長塚28-1","kouzui":"0296-44-3232","gake":"http://www…konanhsp.com","takashio":"×","jishin":"〇","tsunami":"全診療科","kaji":"","naisui":"","kazan":""}}
,{"type":"Feature","geometry":{"type":"Point","coordinates":[139.96746,36.0283]},"properties":{"Name":"水海道西部病院","Jusho":"茨城県常総市豊岡町丙685","kouzui":"0297-24-1211","gake":"","takashio":"〇","jishin":"〇","tsunami":"内科外科整形外科皮膚科脳神経外科呼吸器内科循環器内科","kaji":"きぬ医師会病院（茨城県常総市新井木町13-3）水海道さくら病院（茨城県常総市水海道森下町4447）","naisui":"","kazan":""}}
,{"type":"Feature","geometry":{"type":"Point","coordinates":[139.99152,36.02053]},"properties":{"Name":"植竹医院","Jusho":"茨城県常総市水海道宝町2841","kouzui":"0297-23-1135","gake":"http://www.uetakeiin.com/","takashio":"〇","jishin":"〇","tsunami":"循環器内科消化器内科婦人科小児科","kaji":"","naisui":"","kazan":""}}
,{"type":"Feature","geometry":{"type":"Point","coordinates":[139.94915,36.06791]},"properties":{"Name":"のぞみが丘診療所","Jusho":"茨城県常総市大生郷3142","kouzui":"0297-24-0662","gake":"","takashio":"〇","jishin":"〇","tsunami":"内科","kaji":"きぬ医師会病院","naisui":"","kazan":""}}
,{"type":"Feature","geometry":{"type":"Point","coordinates":[140.52174,36.54463]},"properties":{"Name":"医）一路会太田病院","Jusho":"茨城県常陸太田市中城町173番地","kouzui":"0294-72-1258","gake":"","takashio":"×","jishin":"〇","tsunami":"内科・呼吸器内科・消化器内科小児科","kaji":"","naisui":"","kazan":""}}
,{"type":"Feature","geometry":{"type":"Point","coordinates":[140.52417,36.53186]},"properties":{"Name":"西山堂病院","Jusho":"茨城県常陸太田市木崎二町931-2","kouzui":"0294-72-5121","gake":"http://nishiyamado.teishinkai.or.jp/","takashio":"×","jishin":"〇","tsunami":"耳鼻咽喉科眼科","kaji":"西山堂慶和病院","naisui":"","kazan":""}}
,{"type":"Feature","geometry":{"type":"Point","coordinates":[140.53191,36.53751]},"properties":{"Name":"大山病院","Jusho":"茨城県常陸太田市金井町4810","kouzui":"0294-72-6161","gake":"http://ohyamahp.com","takashio":"×","jishin":"〇","tsunami":"内科","kaji":"","naisui":"","kazan":""}}
,{"type":"Feature","geometry":{"type":"Point","coordinates":[140.52417,36.53186]},"properties":{"Name":"ひたちの中央クリニック","Jusho":"茨城県常陸太田市木崎二町931-6","kouzui":"0294-72-5125","gake":"","takashio":"×","jishin":"〇","tsunami":"内科整形外科皮膚科泌尿器科","kaji":"西山堂病院（茨城県常陸太田市木崎二町931-2）,西山堂慶和病院（茨城県那珂市鴻巣3247-1）","naisui":"","kazan":""}}
,{"type":"Feature","geometry":{"type":"Point","coordinates":[140.71953,36.71719]},"properties":{"Name":"石医院","Jusho":"茨城県高萩市東本町3-35","kouzui":"0293-23-1711","gake":"","takashio":"×","jishin":"〇","tsunami":"眼科内科","kaji":"","naisui":"","kazan":""}}
,{"type":"Feature","geometry":{"type":"Point","coordinates":[140.71817,36.7172]},"properties":{"Name":"おじま内科・消化器内科クリニック","Jusho":"茨城県高萩市東本町3-67","kouzui":"0293-44-6300","gake":"https://ojimaclinic.wixsite.com/mysite","takashio":"×","jishin":"〇","tsunami":"内科消化器内科","kaji":"県北医療センター高萩協同病院（茨城県高萩市上手綱上ヶ穂町1006-9）","naisui":"","kazan":""}}
,{"type":"Feature","geometry":{"type":"Point","coordinates":[140.72853,36.77766]},"properties":{"Name":"医療法人芳医会あおぞらクリニック","Jusho":"茨城県北茨城市中郷町上桜井2547","kouzui":"0293-30-7770","gake":"","takashio":"×","jishin":"〇","tsunami":"内科","kaji":"","naisui":"","kazan":""}}
,{"type":"Feature","geometry":{"type":"Point","coordinates":[140.3244,36.35038]},"properties":{"Name":"茨城県立中央病院","Jusho":"茨城県笠間市鯉淵6528","kouzui":"0296-77-1121","gake":"https://www.hospital.pref.ibaraki.jp/chuo/","takashio":"×","jishin":"〇","tsunami":"全診療科","kaji":"","naisui":"","kazan":""}}
,{"type":"Feature","geometry":{"type":"Point","coordinates":[140.24788,36.38525]},"properties":{"Name":"石本病院","Jusho":"茨城県笠間市石井2047","kouzui":"0296-72-4051","gake":"","takashio":"×","jishin":"〇","tsunami":"内科外科","kaji":"","naisui":"","kazan":""}}
,{"type":"Feature","geometry":{"type":"Point","coordinates":[140.30565,36.35212]},"properties":{"Name":"笠間市立病院","Jusho":"茨城県笠間市南友部1966番地1","kouzui":"0296-77-1101","gake":"http://www.city.kasama.lg.jp/hospital","takashio":"×","jishin":"〇","tsunami":"内科","kaji":"","naisui":"","kazan":""}}
,{"type":"Feature","geometry":{"type":"Point","coordinates":[140.31615,36.34863]},"properties":{"Name":"ふじえだクリニック","Jusho":"茨城県笠間市東平3-1-40","kouzui":"0296-71-5500","gake":"http://fujieda-cl.jp","takashio":"〇","jishin":"〇","tsunami":"内科消化器内科","kaji":"茨城県立中央病院（茨城県笠間市鯉淵6528）","naisui":"","kazan":""}}
,{"type":"Feature","geometry":{"type":"Point","coordinates":[140.3027,36.34581]},"properties":{"Name":"あやか内科クリニック","Jusho":"茨城県笠間市八雲2-5-25","kouzui":"0296-71-3022","gake":"http://ayakanika.jp","takashio":"×","jishin":"〇","tsunami":"内科","kaji":"茨城県立中央病院（茨城県笠間市鯉淵6528）笠間市立病院（茨城県笠間市南友部1966-1）","naisui":"","kazan":""}}
,{"type":"Feature","geometry":{"type":"Point","coordinates":[140.24902,36.37467]},"properties":{"Name":"笠間眼科","Jusho":"茨城県笠間市笠間4329-2","kouzui":"0296-72-9917","gake":"","takashio":"×","jishin":"〇","tsunami":"眼科","kaji":"","naisui":"","kazan":""}}
,{"type":"Feature","geometry":{"type":"Point","coordinates":[140.0688,35.91098]},"properties":{"Name":"JAとりで総合医療センタ-","Jusho":"茨城県取手市本郷2-1-1","kouzui":"0297-74-5551","gake":"http://www.toride-medical.or.jp/","takashio":"×","jishin":"〇","tsunami":"全診療科","kaji":"","naisui":"","kazan":""}}
,{"type":"Feature","geometry":{"type":"Point","coordinates":[140.05706,35.92148]},"properties":{"Name":"医療法人社団宗仁会病院","Jusho":"茨城県取手市岡1493","kouzui":"0297-85-8341","gake":"http://www.soujinkai.com/","takashio":"×","jishin":"〇","tsunami":"内科整形外科消化器科","kaji":"JAとりで総合医療センター（茨城県取手市本郷2-1-1）取手医師会病院（茨城県取手市野々井1926）","naisui":"","kazan":""}}
,{"type":"Feature","geometry":{"type":"Point","coordinates":[140.02844,35.92831]},"properties":{"Name":"医療法人中村会常総病院","Jusho":"茨城県取手市下高井2371","kouzui":"0297-78-8707","gake":"https://www.josohp.net/","takashio":"×","jishin":"〇","tsunami":"精神科","kaji":"JA取手総合医療センター（茨城県取手市本郷2-1-1）取手北相馬保健医療センター（茨城県取手市野々井1926）","naisui":"","kazan":""}}
,{"type":"Feature","geometry":{"type":"Point","coordinates":[140.01302,35.91896]},"properties":{"Name":"西間木病院","Jusho":"茨城県取手市戸頭1-8-21","kouzui":"0297-78-1101","gake":"https://nishimagi-hospital.com/","takashio":"〇","jishin":"〇","tsunami":"内科","kaji":"","naisui":"","kazan":""}}
,{"type":"Feature","geometry":{"type":"Point","coordinates":[140.08609,35.90073]},"properties":{"Name":"東取手病院","Jusho":"茨城県取手市井野268","kouzui":"0297-74-3333","gake":"https://www.higashi-t.or.jp/","takashio":"×","jishin":"〇","tsunami":"外科内科整形外科循環器内科心臓血管外科消化器外科消化器内科呼吸器内科糖尿病代謝内科血液内科皮膚科","kaji":"東取手病院（茨城県取手市井野268）","naisui":"","kazan":""}}
,{"type":"Feature","geometry":{"type":"Point","coordinates":[140.06218,35.89484]},"properties":{"Name":"医療法人社団春望会椎貝クリニック","Jusho":"茨城県取手市中央町2-25取手iセンター3階","kouzui":"0297-84-6751","gake":"http://www.shiigai-clinic.jp/","takashio":"×","jishin":"〇","tsunami":"内科","kaji":"","naisui":"","kazan":""}}
,{"type":"Feature","geometry":{"type":"Point","coordinates":[140.01367,35.9277]},"properties":{"Name":"戸頭クリニック","Jusho":"茨城県取手市戸頭4-16-3","kouzui":"0297-78-7117","gake":"","takashio":"〇","jishin":"〇","tsunami":"内科整形外科","kaji":"","naisui":"","kazan":""}}
,{"type":"Feature","geometry":{"type":"Point","coordinates":[140.03531,35.92703]},"properties":{"Name":"松丸内科クリニック","Jusho":"茨城県取手市下高井1969-14","kouzui":"0297-70-2012","gake":"","takashio":"〇","jishin":"〇","tsunami":"内科小児科","kaji":"取手北相馬保健医療センター医師会病院（茨城県取手市野々井1926）JAとりで総合医療センター（茨城県取手市本郷2-1-1）","naisui":"","kazan":""}}
,{"type":"Feature","geometry":{"type":"Point","coordinates":[140.11105,35.92103]},"properties":{"Name":"医療法人社団村橋整形外科皮膚科医院","Jusho":"茨城県取手市藤代733-2","kouzui":"0297-83-6606","gake":"","takashio":"〇","jishin":"〇","tsunami":"皮膚科整形外科","kaji":"取手北相馬保健医療センター医師会病院（茨城県取手市野々井1926）","naisui":"","kazan":""}}
,{"type":"Feature","geometry":{"type":"Point","coordinates":[140.06218,35.89484]},"properties":{"Name":"松本眼科","Jusho":"茨城県取手市中央町2-25取手ｉセンタービル2階","kouzui":"0297-74-5224","gake":"https://www.matsumoto-clinic.com/","takashio":"〇","jishin":"〇","tsunami":"眼科","kaji":"","naisui":"","kazan":""}}
,{"type":"Feature","geometry":{"type":"Point","coordinates":[140.08115,35.90094]},"properties":{"Name":"医療法人社団メイプル子どもクリニック","Jusho":"茨城県取手市井野800-4","kouzui":"0297-86-7773","gake":"http://maplechildrensclinic.crayonsite.net/","takashio":"〇","jishin":"〇","tsunami":"小児科内科","kaji":"JAとりで総合医療センター（茨城県取手市本郷2-1-1）","naisui":"","kazan":""}}
,{"type":"Feature","geometry":{"type":"Point","coordinates":[140.06461,35.89515]},"properties":{"Name":"ローズ皮膚科クリニック","Jusho":"茨城県取手市取手3-4-22-3Ｆ-1","kouzui":"0297-70-6262","gake":"http://www.rose6262.com","takashio":"〇","jishin":"〇","tsunami":"皮膚科","kaji":"","naisui":"","kazan":""}}
,{"type":"Feature","geometry":{"type":"Point","coordinates":[140.16042,35.95652]},"properties":{"Name":"あだち内科クリニック","Jusho":"茨城県牛久市さくら台3-61-15","kouzui":"029-893-2777","gake":"","takashio":"×","jishin":"〇","tsunami":"内科呼吸器内科小児科","kaji":"つくばセントラル病院（茨城県牛久市柏田町1589-3）","naisui":"","kazan":""}}
,{"type":"Feature","geometry":{"type":"Point","coordinates":[140.15132,35.979]},"properties":{"Name":"井上内科クリニック","Jusho":"茨城県牛久市栄町5-45-1","kouzui":"029-830-7555","gake":"http://www.inoue-cl.org/","takashio":"×","jishin":"〇","tsunami":"内科","kaji":"セントラル総合クリニック（茨城県牛久市上柏田4-58-1）","naisui":"","kazan":""}}
,{"type":"Feature","geometry":{"type":"Point","coordinates":[140.18797,35.97339]},"properties":{"Name":"岡見第一医院","Jusho":"茨城県牛久市岡見町959-21","kouzui":"029-872-5151","gake":"","takashio":"〇","jishin":"〇","tsunami":"内科循環器内科","kaji":"龍ヶ崎済生会病院（茨城県龍ヶ崎市中里1丁目1番）つくばセントラル病院（茨城県牛久市柏田町1589-3）","naisui":"","kazan":""}}
,{"type":"Feature","geometry":{"type":"Point","coordinates":[140.14264,35.97776]},"properties":{"Name":"ことより医院","Jusho":"茨城県牛久市中央5-12-17","kouzui":"029-870-5480","gake":"http://www.kotoyori-iin.com","takashio":"×","jishin":"〇","tsunami":"内科","kaji":"つくばセントラル病院（茨城県牛久市柏田町1589-3）牛久愛和総合病院（茨城県牛久市猪子町896）","naisui":"","kazan":""}}
,{"type":"Feature","geometry":{"type":"Point","coordinates":[140.17233,36.00405]},"properties":{"Name":"そが内視鏡・消化器クリニック","Jusho":"茨城県牛久市ひたち野東2-24-11","kouzui":"029-897-3160","gake":"https://soga-clinic.jp","takashio":"〇","jishin":"〇","tsunami":"内科消化器内科","kaji":"","naisui":"","kazan":""}}
,{"type":"Feature","geometry":{"type":"Point","coordinates":[140.16074,36.00627]},"properties":{"Name":"則武内科クリニック","Jusho":"茨城県牛久市ひたち野東5-3-2ひたち野うしく池田ビル1階","kouzui":"029-871-7878","gake":"http://www.noritake-clinic.jp","takashio":"×","jishin":"〇","tsunami":"内科糖尿病内科","kaji":"牛久愛和総合病院（茨城県牛久市猪子町896）","naisui":"","kazan":""}}
,{"type":"Feature","geometry":{"type":"Point","coordinates":[140.14377,35.97257]},"properties":{"Name":"高野耳鼻咽喉科クリニック","Jusho":"茨城県牛久市南2-22-7","kouzui":"029-870-5311","gake":"http://www.tetsuna-kai.or.jp","takashio":"〇","jishin":"〇","tsunami":"耳鼻咽喉科","kaji":"つくばセントラル病院（茨城県牛久市柏田町158）","naisui":"","kazan":""}}
,{"type":"Feature","geometry":{"type":"Point","coordinates":[140.1463,35.98422]},"properties":{"Name":"はなみずきクリニック","Jusho":"茨城県牛久市中央1-6-22","kouzui":"029-871-1711","gake":"http://www.hanamizuki-clinic.com","takashio":"〇","jishin":"〇","tsunami":"婦人科皮膚科内科","kaji":"つくばセントラル病院（茨城県牛久市柏田町158）龍ヶ崎済生会病院（茨城県龍ケ崎市中里1-1）霞ヶ浦医療センター（茨城県土浦市下高津2-7-14)東京医大茨城医療センター(茨城県稲敷郡阿見町中央3-20-1)","naisui":"","kazan":""}}
,{"type":"Feature","geometry":{"type":"Point","coordinates":[140.15299,36.00892]},"properties":{"Name":"ひたち野ファミリークリニック","Jusho":"茨城県牛久市ひたち野西2?27?2","kouzui":"029-871-8080","gake":"https://www.hitachino-family.com/","takashio":"〇","jishin":"〇","tsunami":"内科小児科","kaji":"土浦協同病院（茨城県土浦市おおつ野4-1-1）筑波メディカルセンター病院（茨城県つくば市天久保1-3-1）など","naisui":"","kazan":""}}
,{"type":"Feature","geometry":{"type":"Point","coordinates":[140.16719,36.00545]},"properties":{"Name":"まつなみクリニック","Jusho":"茨城県牛久市ひたち野東4-7-1","kouzui":"029-873-5111","gake":"http://www.matu-cl.com","takashio":"〇","jishin":"〇","tsunami":"内科消化器内科乳腺外科（継続服薬の方など）","kaji":"龍ヶ崎済生会病院（茨城県龍ヶ崎市中里1丁目1番）つくばセントラル病院（茨城県牛久市柏田町1589-3）霞ケ浦医療センター（茨城県土浦市下高津2-7-14）土浦協同病院（茨城県土浦市おおつ野4-1-1）東京医科大学茨城医療センター（茨城県稲敷郡阿見町中央3-20-1）筑波メディカルセンター病院（茨城県つくば市天久保1-3-1）筑波大学附属病院（茨城県つくば市天久保2-1-1）","naisui":"","kazan":""}}
,{"type":"Feature","geometry":{"type":"Point","coordinates":[140.13904,35.9872]},"properties":{"Name":"医療法人社団筑三会筑波胃腸病院","Jusho":"茨城県つくば市高見原1-2-39","kouzui":"029-874-3321","gake":"http://www.tsukubaichou.com/","takashio":"〇","jishin":"〇","tsunami":"内科外科消化器内科消化器外科","kaji":"","naisui":"","kazan":""}}
,{"type":"Feature","geometry":{"type":"Point","coordinates":[140.11583,36.00401]},"properties":{"Name":"医療法人社団双愛会つくば双愛病院","Jusho":"茨城県つくば市高崎1008","kouzui":"029-873-2511","gake":"http://www.tsukuba-soai.com/","takashio":"×","jishin":"〇","tsunami":"全診療科","kaji":"","naisui":"","kazan":""}}
,{"type":"Feature","geometry":{"type":"Point","coordinates":[140.09563,36.08206]},"properties":{"Name":"コミュニティクリニック・つくば","Jusho":"茨城県つくば市苅間1555-1","kouzui":"029-856-7810","gake":"http://k2.fc2.com/cgi-bin/hp.cgi/commu","takashio":"×","jishin":"〇","tsunami":"精神科心療内科","kaji":"","naisui":"","kazan":""}}
,{"type":"Feature","geometry":{"type":"Point","coordinates":[140.08458,36.08858]},"properties":{"Name":"サトウ眼科","Jusho":"茨城県つくば市研究学園5-19イーアスつくばメディカルコート","kouzui":"029-886-9897","gake":"http://www.satouganka.com","takashio":"〇","jishin":"〇","tsunami":"眼科","kaji":"対面診療が必要と判断した場合は，当院へ受診頂き，自院ですべて対応します。","naisui":"","kazan":""}}
,{"type":"Feature","geometry":{"type":"Point","coordinates":[140.11246,36.08416]},"properties":{"Name":"すえひろ眼科","Jusho":"茨城県つくば市吾妻2-8-8","kouzui":"029-849-0177","gake":"http://suehiroganka.com","takashio":"〇","jishin":"〇","tsunami":"眼科","kaji":"筑波大学附属病院","naisui":"","kazan":""}}
,{"type":"Feature","geometry":{"type":"Point","coordinates":[140.11246,36.08416]},"properties":{"Name":"シティア内科クリニック","Jusho":"茨城県つくば市吾妻2-8-8シティアビル4階","kouzui":"029-856-5500","gake":"https://www.cityia.jp/","takashio":"×","jishin":"〇","tsunami":"内科","kaji":"","naisui":"","kazan":""}}
,{"type":"Feature","geometry":{"type":"Point","coordinates":[140.11409,36.07979]},"properties":{"Name":"ストレスケアつくばクリニック","Jusho":"茨城県つくば市竹園1-4-1南3パークビル1F","kouzui":"029-863-2888","gake":"http://s-tsukuba.com/","takashio":"×","jishin":"〇","tsunami":"内科精神科心療内科","kaji":"八千代病院（茨城県結城郡八千代町栗山238）","naisui":"","kazan":""}}
,{"type":"Feature","geometry":{"type":"Point","coordinates":[140.11155,36.05917]},"properties":{"Name":"つくば木の花クリニック","Jusho":"茨城県つくば市松の木109-1","kouzui":"029-839-4458","gake":"http://www.konohana-clinic.com","takashio":"×","jishin":"〇","tsunami":"精神科","kaji":"","naisui":"","kazan":""}}
,{"type":"Feature","geometry":{"type":"Point","coordinates":[140.10446,36.06693]},"properties":{"Name":"まつしろ耳鼻咽喉科クリニック","Jusho":"茨城県つくば市松代4?8?1","kouzui":"029-897-3310","gake":"http://www.matsushiroent.jp","takashio":"×","jishin":"〇","tsunami":"耳鼻咽喉科","kaji":"","naisui":"","kazan":""}}
,{"type":"Feature","geometry":{"type":"Point","coordinates":[140.08823,36.10248]},"properties":{"Name":"みなのクリニック内科呼吸器科","Jusho":"茨城県つくば市西平塚318-1","kouzui":"029-850-4159","gake":"http://www.minanoclinic.","takashio":"×","jishin":"〇","tsunami":"内科、呼吸器科、アレルギー科","kaji":"筑波記念病院（茨城県つくば市要1187-299）筑波メディカルセンター病院（茨城県つくば市天久保1-3-1）","naisui":"","kazan":""}}
,{"type":"Feature","geometry":{"type":"Point","coordinates":[140.11974,36.06593]},"properties":{"Name":"宮川内科・胃腸科医院","Jusho":"茨城県つくば市二の宮2-2-26","kouzui":"029-855-877","gake":"http://miyakawa-naika.jp/","takashio":"×","jishin":"〇","tsunami":"内科、胃腸科、小児科","kaji":"筑波メディカルセンター病院（茨城県つくば市天久保1-3-1）","naisui":"","kazan":""}}
,{"type":"Feature","geometry":{"type":"Point","coordinates":[140.12082,35.99831]},"properties":{"Name":"高崎クリニック","Jusho":"茨城県つくば市高崎772-12","kouzui":"298733733","gake":"","takashio":"×","jishin":"〇","tsunami":"内科","kaji":"","naisui":"","kazan":""}}
,{"type":"Feature","geometry":{"type":"Point","coordinates":[140.08316,36.20634]},"properties":{"Name":"小倉医院","Jusho":"茨城県つくば市沼田181","kouzui":"029-866-0108","gake":"","takashio":"〇","jishin":"〇","tsunami":"内科","kaji":"飯田医院（茨城県つくば市沼田101）","naisui":"","kazan":""}}
,{"type":"Feature","geometry":{"type":"Point","coordinates":[140.10486,36.06512]},"properties":{"Name":"前島レディースクリニック","Jusho":"茨城県つくば市松代4-10-12","kouzui":"029-859-0726","gake":"http://www1.ttcn.ne.jp/~maejima-L-clinic/","takashio":"×","jishin":"△","tsunami":"婦人科","kaji":"前島レディースクリニック","naisui":"","kazan":""}}
,{"type":"Feature","geometry":{"type":"Point","coordinates":[140.05461,36.05949]},"properties":{"Name":"つくばキッズクリニック","Jusho":"茨城県つくば市島名2610-1","kouzui":"029-836-2825","gake":"https://tsukuba-kids.com/","takashio":"〇","jishin":"〇","tsunami":"小児科小児内分泌内科","kaji":"","naisui":"","kazan":""}}
,{"type":"Feature","geometry":{"type":"Point","coordinates":[140.07941,36.13327]},"properties":{"Name":"さかより耳鼻咽喉科","Jusho":"茨城県つくば市筑穂2-4-12","kouzui":"029-879-1187","gake":"http://www.sakayori-ent.com/","takashio":"〇","jishin":"〇","tsunami":"耳鼻咽喉科","kaji":"","naisui":"","kazan":""}}
,{"type":"Feature","geometry":{"type":"Point","coordinates":[140.05301,36.03394]},"properties":{"Name":"いとう耳鼻咽喉科クリニック","Jusho":"茨城県つくば市みどりの2丁目58-2","kouzui":"029-896-8733","gake":"http://ito-ent.jp/","takashio":"×","jishin":"〇","tsunami":"耳鼻咽喉科小児科","kaji":"","naisui":"","kazan":""}}
,{"type":"Feature","geometry":{"type":"Point","coordinates":[140.12071,36.07848]},"properties":{"Name":"医療法人竹園ファミリークリニック","Jusho":"茨城県つくば市竹園2-8-19","kouzui":"029-851-4635","gake":"http://www.tkznfcl.jp/","takashio":"〇","jishin":"〇","tsunami":"内科小児科外科整形外科","kaji":"筑波メディカルセンター病院（茨城県つくば市天久保1丁目3番地1）","naisui":"","kazan":""}}
,{"type":"Feature","geometry":{"type":"Point","coordinates":[140.07961,36.0386]},"properties":{"Name":"医療法人博友会菊池内科クリニック","Jusho":"茨城県つくば市谷田部5915","kouzui":"029-839-5070","gake":"https://kikuchinaika.jp/","takashio":"〇","jishin":"〇","tsunami":"内科","kaji":"つくば学園病院（茨城県つくば市上横場2573-1）","naisui":"","kazan":""}}
,{"type":"Feature","geometry":{"type":"Point","coordinates":[140.095,36.08339]},"properties":{"Name":"中嶋こどもクリニック","Jusho":"茨城県つくば市苅間篠前1620-7","kouzui":"029-895-6027","gake":"https://www.nakajima-kids.jp/","takashio":"△","jishin":"△","tsunami":"小児科","kaji":"対面診療をメインに行っている","naisui":"","kazan":""}}
,{"type":"Feature","geometry":{"type":"Point","coordinates":[140.09006,36.17544]},"properties":{"Name":"飯村医院","Jusho":"茨城県つくば市北条4326-2","kouzui":"029-867-0068","gake":"http://www.iimura-iin.serio.jp","takashio":"〇","jishin":"〇","tsunami":"内科・糖尿病内科・小児科・歯科","kaji":"・筑波メディカルセンター病院・筑波記念病院","naisui":"","kazan":""}}
,{"type":"Feature","geometry":{"type":"Point","coordinates":[140.07997,36.13181]},"properties":{"Name":"大穂皮膚科クリニック","Jusho":"茨城県つくば市筑穂2-8-4","kouzui":"029-864-1712","gake":"","takashio":"×","jishin":"〇","tsunami":"皮膚科","kaji":"","naisui":"","kazan":""}}
,{"type":"Feature","geometry":{"type":"Point","coordinates":[140.09972,36.09608]},"properties":{"Name":"筑波技術大学保健科学部附属東西医学統合医療センター","Jusho":"茨城県つくば市春日4-12-7","kouzui":"029-858-9590","gake":"http://www.k.tsukuba-tech.ac.jp/cl/","takashio":"×","jishin":"〇","tsunami":"循環器内科内分泌・代謝内科腎臓内科，漢方内科脳神経内科整形外科脳神経外科精神科","kaji":"（対面診療が必要な場合には当センターに来院）","naisui":"","kazan":""}}
,{"type":"Feature","geometry":{"type":"Point","coordinates":[140.08046,36.13296]},"properties":{"Name":"こだま在宅クリニック","Jusho":"茨城県つくば市筑穂2-7-1ボヌール・リュミエール1-101","kouzui":"029-896-3760","gake":"","takashio":"×","jishin":"〇","tsunami":"内科訪問診療","kaji":"筑波メディカルセンター病院（つくば市天久保）筑波記念病院（つくば市要）等","naisui":"","kazan":""}}
,{"type":"Feature","geometry":{"type":"Point","coordinates":[140.05086,36.06961]},"properties":{"Name":"大野医院","Jusho":"茨城県つくば市島名634","kouzui":"029-848-0888","gake":"http://www.ohnoiin.jp/","takashio":"〇","jishin":"〇","tsunami":"内科小児科","kaji":"筑波メディカルセンター病院（つくば市天久保1-3-1）","naisui":"","kazan":""}}
,{"type":"Feature","geometry":{"type":"Point","coordinates":[140.06432,36.02384]},"properties":{"Name":"庄司クリニック","Jusho":"茨城県つくば市中野158-1","kouzui":"029-836-0405","gake":"http://www.shojiclinic.jp/","takashio":"〇","jishin":"〇","tsunami":"婦人科小児科","kaji":"総合守谷第一病院","naisui":"","kazan":""}}
,{"type":"Feature","geometry":{"type":"Point","coordinates":[140.10939,36.15553]},"properties":{"Name":"医療法人小田内科クリニック","Jusho":"茨城県つくば市小田2951-5","kouzui":"029-867-2471","gake":"http://website2.infomity.net/8350064","takashio":"〇","jishin":"〇","tsunami":"内科、消化器内科、循環器科、神経内科","kaji":"筑波メディカルセンター病院（つくば市天久保1-3-1）筑波総合クリニック（つくば市要1187-299）","naisui":"","kazan":""}}
,{"type":"Feature","geometry":{"type":"Point","coordinates":[140.10281,36.08312]},"properties":{"Name":"つくば学園クリニック","Jusho":"茨城県つくば市苅間1929-1","kouzui":"029-863-6990","gake":"","takashio":"〇","jishin":"〇","tsunami":"内科","kaji":"対面診療が必要な場合には当院へ来所，必要に応じて以下医療機関と連携筑波メディカルセンター病院（茨城県つくば市天久保1丁目3番地1），つくば学園病院（茨城県つくば市上横場2573-1）","naisui":"","kazan":""}}
,{"type":"Feature","geometry":{"type":"Point","coordinates":[140.05573,36.03002]},"properties":{"Name":"おがわ内科","Jusho":"茨城県つくば市みどりの1-31-9みどりのメディカルモール1階","kouzui":"029?839?3770","gake":"http://midorino-ogawa.com/index.html","takashio":"〇","jishin":"〇","tsunami":"内科","kaji":"筑波記念病院（要1187-299）筑波メディカルセンター病院（天久保1丁目3番地1）筑波学園病院（上横場2573-1）","naisui":"","kazan":""}}
,{"type":"Feature","geometry":{"type":"Point","coordinates":[140.54518,36.38486]},"properties":{"Name":"医療法人社団愛友会勝田病院","Jusho":"茨城県ひたちなか市中根5125-2","kouzui":"029-272-5184","gake":"https://katsuta-aiyukai.jp/","takashio":"×","jishin":"〇","tsunami":"内科、外科、整形外科","kaji":"勝田病院","naisui":"","kazan":""}}
,{"type":"Feature","geometry":{"type":"Point","coordinates":[140.53397,36.38683]},"properties":{"Name":"ひたちなか母と子の病院","Jusho":"茨城県ひたちなか市青葉町19-7","kouzui":"029-273-2888","gake":"","takashio":"×","jishin":"〇","tsunami":"産婦人科","kaji":"×","naisui":"","kazan":""}}
,{"type":"Feature","geometry":{"type":"Point","coordinates":[140.49516,36.40486]},"properties":{"Name":"沼田内科クリニック","Jusho":"茨城県ひたちなか市津田2829-5","kouzui":"029-276-1515","gake":"http://www.numatanaika.com","takashio":"×","jishin":"〇","tsunami":"内科呼吸器内科消化器内科循環器内科小児科","kaji":"対面診療が必要と考えた場合、まずは自院で対面診療します。その後、必要に応じ高度医療機関に紹介します。","naisui":"","kazan":""}}
,{"type":"Feature","geometry":{"type":"Point","coordinates":[140.57916,36.40785]},"properties":{"Name":"ひたちなか海浜クリニック","Jusho":"茨城県ひたちなか市馬渡3006-1","kouzui":"029-219-5955","gake":"https://kaihin-cl.jp/","takashio":"△","jishin":"〇","tsunami":"呼吸器内科","kaji":"ひたちなか総合病院（茨城県ひたちなか市石川町20?1）水戸協同病院（茨城県水戸市宮町3丁目2?7）茨城東病院（茨城県那珂郡東海村大字照沼825）茨城県立中央病院（茨城県笠間市鯉淵6528）","naisui":"","kazan":""}}
,{"type":"Feature","geometry":{"type":"Point","coordinates":[140.54543,36.39701]},"properties":{"Name":"グルコピアひたちなか","Jusho":"茨城県ひたちなか市笹野町2-12-25","kouzui":"029-229-3030","gake":"http://www.glc-hitachinaka.com/","takashio":"×","jishin":"〇","tsunami":"内科糖尿病内科内分泌内科","kaji":"","naisui":"","kazan":""}}
,{"type":"Feature","geometry":{"type":"Point","coordinates":[140.53307,36.38161]},"properties":{"Name":"医療法人関内科医院","Jusho":"茨城県ひたちなか市大平4-2-13","kouzui":"029-272-3675","gake":"http://www.sekinaikaiin.com/","takashio":"×","jishin":"△","tsunami":"内科小児科循環器内科呼吸器内科","kaji":"","naisui":"","kazan":""}}
,{"type":"Feature","geometry":{"type":"Point","coordinates":[140.53223,36.40538]},"properties":{"Name":"曽野内科医院","Jusho":"茨城県ひたちなか市東大島4-16-17","kouzui":"029-273-5550","gake":"http://sononaika.jp/","takashio":"×","jishin":"〇","tsunami":"内科","kaji":"","naisui":"","kazan":""}}
,{"type":"Feature","geometry":{"type":"Point","coordinates":[140.62621,35.97361]},"properties":{"Name":"小山記念病院","Jusho":"茨城県鹿嶋市厨五丁目1番地2","kouzui":"0299-85-1111","gake":"http://www.koyama-mh.or.jp/","takashio":"×","jishin":"〇","tsunami":"外科","kaji":"","naisui":"","kazan":""}}
,{"type":"Feature","geometry":{"type":"Point","coordinates":[140.61084,36.04102]},"properties":{"Name":"医療法人鹿神会大野診療所","Jusho":"茨城県鹿嶋市和824-1","kouzui":"0299-69-4724","gake":"http://kashimashi.info/oonoshinryojyo/","takashio":"×","jishin":"〇","tsunami":"内科","kaji":"","naisui":"","kazan":""}}
,{"type":"Feature","geometry":{"type":"Point","coordinates":[140.60435,36.05191]},"properties":{"Name":"松倉中央クリニック","Jusho":"茨城県鹿嶋市和786-16","kouzui":"0299-90-9222","gake":"http://matsukura-shojuen.jp/clinic/","takashio":"×","jishin":"〇","tsunami":"内科外科","kaji":"神栖済生会病院（茨城県神栖市知手中央7-2-45）土浦協同病院（茨城県土浦市おおつ野4-1-1）","naisui":"","kazan":""}}
,{"type":"Feature","geometry":{"type":"Point","coordinates":[140.62643,36.03864]},"properties":{"Name":"あいクリニック","Jusho":"茨城県鹿嶋市角折1285-3","kouzui":"0299-69-0777","gake":"http://www.yujin.or.jp","takashio":"×","jishin":"〇","tsunami":"内科","kaji":"","naisui":"","kazan":""}}
,{"type":"Feature","geometry":{"type":"Point","coordinates":[140.55804,35.95013]},"properties":{"Name":"常南医院","Jusho":"茨城県潮来市辻386","kouzui":"0299-63-1101","gake":"","takashio":"×","jishin":"〇","tsunami":"内科","kaji":"","naisui":"","kazan":""}}
,{"type":"Feature","geometry":{"type":"Point","coordinates":[140.51886,35.96609]},"properties":{"Name":"久保医院","Jusho":"茨城県潮来市牛堀821-1","kouzui":"0299-64-6116","gake":"","takashio":"〇","jishin":"〇","tsunami":"内科精神科心療内科","kaji":"","naisui":"","kazan":""}}
,{"type":"Feature","geometry":{"type":"Point","coordinates":[139.97849,35.95337]},"properties":{"Name":"守谷慶友病院","Jusho":"茨城県守谷市立沢980-1","kouzui":"0297-45-3311","gake":"https://keiyu.or.jp/","takashio":"×","jishin":"〇","tsunami":"内科","kaji":"","naisui":"","kazan":""}}
,{"type":"Feature","geometry":{"type":"Point","coordinates":[139.97079,35.96878]},"properties":{"Name":"カリオクリニック","Jusho":"茨城県守谷市松前台1-1-6","kouzui":"0297-48-8448","gake":"http://www.kario-clinic.com","takashio":"×","jishin":"〇","tsunami":"内科リウマチ科呼吸器科アレルギー科小児科","kaji":"取手北相馬保健医療センター医師会病院（茨城県取手市野々井1926）","naisui":"","kazan":""}}
,{"type":"Feature","geometry":{"type":"Point","coordinates":[139.99696,35.95541]},"properties":{"Name":"永瀬内科","Jusho":"茨城県守谷市松並1580","kouzui":"0297-48-2000","gake":"","takashio":"×","jishin":"〇","tsunami":"内科","kaji":"総合守谷第一病院（茨城県守谷市松前台1-17）","naisui":"","kazan":""}}
,{"type":"Feature","geometry":{"type":"Point","coordinates":[139.99309,35.95155]},"properties":{"Name":"まつの木クリニック","Jusho":"茨城県守谷市中央2-16-1アワーズもりや2Ｆ","kouzui":"0297-45-6180","gake":"http://www.matsunoki-cl.jp","takashio":"×","jishin":"〇","tsunami":"精神科心療内科","kaji":"水海道厚生病院（茨城県常総市内守谷町3770-7）","naisui":"","kazan":""}}
,{"type":"Feature","geometry":{"type":"Point","coordinates":[139.99382,35.95857]},"properties":{"Name":"守谷こどものこころとからだのクリニック","Jusho":"茨城県守谷市松並青葉4-2-3","kouzui":"0297-45-4192","gake":"https://mcmpclinic.com/","takashio":"〇","jishin":"〇","tsunami":"小児科精神科アレルギー科","kaji":"総合守谷第一病院（茨城県守谷市松前台1-17）JAとりで総合医療センター（茨城県取手市本郷2-1-1）","naisui":"","kazan":""}}
,{"type":"Feature","geometry":{"type":"Point","coordinates":[139.98499,35.94029]},"properties":{"Name":"もりや小児科医院","Jusho":"茨城県守谷市松ケ丘4-2-5","kouzui":"0297-20-6737","gake":"http://www.moriya-shounika.com/","takashio":"〇","jishin":"〇","tsunami":"小児科内科","kaji":"JAとりで総合医療センター（茨城県取手市本郷2-1-1）総合守谷第一病院（茨城県守谷市松前台1-17）","naisui":"","kazan":""}}
,{"type":"Feature","geometry":{"type":"Point","coordinates":[140.41322,36.54887]},"properties":{"Name":"志村大宮病院","Jusho":"茨城県常陸大宮市上町313","kouzui":"0295-53-1111","gake":"http://www.hakujinkai.com/hospital.php","takashio":"〇","jishin":"〇","tsunami":"内科","kaji":"フロイデクリニック水戸（茨城県水戸市堀町967-1）","naisui":"","kazan":""}}
,{"type":"Feature","geometry":{"type":"Point","coordinates":[140.40768,36.55853]},"properties":{"Name":"住吉クリニック病院付属大宮診療所","Jusho":"茨城県常陸大宮市姥賀町559-5","kouzui":"0295-53-7733","gake":"https://www.sumiyoshi-clinic.or.jp/omiya/","takashio":"×","jishin":"〇","tsunami":"内科","kaji":"社会福祉法人恩賜財団済生会支部茨城県済生会水戸済生会総合病院（〒311-4198茨城県水戸市双葉台3丁目3番10号）筑波大学附属病院水戸地域医療教育センターJA茨城厚生連総合病院水戸協同病院（〒310-0015茨城県水戸市宮町3-2-7）,日本赤十字社水戸赤十字病院（〒310-0011水戸市三の丸3丁目12番48号）","naisui":"","kazan":""}}
,{"type":"Feature","geometry":{"type":"Point","coordinates":[140.46541,36.43264]},"properties":{"Name":"医療法人社団有朋会栗田病院","Jusho":"茨城県那珂市豊喰505","kouzui":"029-298-0175","gake":"","takashio":"×","jishin":"〇","tsunami":"精神科","kaji":"","naisui":"","kazan":""}}
,{"type":"Feature","geometry":{"type":"Point","coordinates":[140.49625,36.46031]},"properties":{"Name":"小豆畑病院","Jusho":"茨城県那珂市菅谷605","kouzui":"029-295-2611","gake":"http://www.azuhata-hosp.com/","takashio":"×","jishin":"〇","tsunami":"内科・外科","kaji":"水戸協同病院（茨城県水戸市宮町3-2-7）水戸赤十字病院（水戸市三の丸3丁目12番48号）水戸ブレインハートセンター（茨城県水戸市青柳町4028）","naisui":"","kazan":""}}
,{"type":"Feature","geometry":{"type":"Point","coordinates":[140.48592,36.45893]},"properties":{"Name":"西山堂慶和病院","Jusho":"茨城県那珂市鴻巣3247-1","kouzui":"029-295-5121","gake":"","takashio":"×","jishin":"〇","tsunami":"内科","kaji":"西山堂病院（茨城県常陸太田市木崎二町931-2）ひたちの中央クリニック（茨城県常陸太田市木崎二町931-6）","naisui":"","kazan":""}}
,{"type":"Feature","geometry":{"type":"Point","coordinates":[140.44472,36.49635]},"properties":{"Name":"たに内科クリニック","Jusho":"茨城県那珂市古徳397-1","kouzui":"029-229-07201","gake":"","takashio":"×","jishin":"〇","tsunami":"内科","kaji":"","naisui":"","kazan":""}}
,{"type":"Feature","geometry":{"type":"Point","coordinates":[139.96176,36.269]},"properties":{"Name":"医療法人社団平仁会下館病院","Jusho":"茨城県筑西市野殿1131","kouzui":"0296-22-7558","gake":"http://www.shimodatehp.com/","takashio":"×","jishin":"〇","tsunami":"精神科","kaji":"しもだてメディカポート（茨城県筑西市岡芹2-8-1）","naisui":"","kazan":""}}
,{"type":"Feature","geometry":{"type":"Point","coordinates":[140.01656,36.32842]},"properties":{"Name":"社会医療法人恒貴会協和中央病院","Jusho":"茨城県筑西市門井1676番地1","kouzui":"0296-57-6131","gake":"http://www.kyowachuo.jp/","takashio":"×","jishin":"〇","tsunami":"要確認","kaji":"","naisui":"","kazan":""}}
,{"type":"Feature","geometry":{"type":"Point","coordinates":[140.0099,36.28959]},"properties":{"Name":"地方独立行政法人茨城県西部医療機構茨城県西部メディカルセンター","Jusho":"茨城県筑西市大塚555番地","kouzui":"0296-24-9111","gake":"https://www.iwmo.or.jp/","takashio":"×","jishin":"〇","tsunami":"内科他","kaji":"自治医科大学附属病院(栃木県下野市薬師寺3311-1）他75医療機関","naisui":"","kazan":""}}
,{"type":"Feature","geometry":{"type":"Point","coordinates":[140.0258,36.25082]},"properties":{"Name":"あけの元気館前クリニック","Jusho":"茨城県筑西市松原1564-5","kouzui":"0296-52-6333","gake":"","takashio":"〇","jishin":"〇","tsunami":"内科、外科、小児科","kaji":"","naisui":"","kazan":""}}
,{"type":"Feature","geometry":{"type":"Point","coordinates":[139.97594,36.30806]},"properties":{"Name":"医療法人社団新井内科医院","Jusho":"茨城県筑西市甲146","kouzui":"0296-22-2618","gake":"https://www.arai-medicalclinic.com/","takashio":"〇","jishin":"〇","tsunami":"内科、小児科","kaji":"1：当院外来2：茨城県西部メディカルセンター（茨城県筑西市大塚555）3：協和中央病院（茨城県筑西市門井1676-1）","naisui":"","kazan":""}}
,{"type":"Feature","geometry":{"type":"Point","coordinates":[139.93491,36.24918]},"properties":{"Name":"河上医院","Jusho":"茨城県筑西市舟生1059-3","kouzui":"0296-37-2460","gake":"","takashio":"〇","jishin":"〇","tsunami":"内科、小児科","kaji":"","naisui":"","kazan":""}}
,{"type":"Feature","geometry":{"type":"Point","coordinates":[139.98302,36.31587]},"properties":{"Name":"八島医院","Jusho":"茨城県筑西市稲野辺248","kouzui":"0296-22-3361","gake":"","takashio":"〇","jishin":"〇","tsunami":"内科、小児科","kaji":"","naisui":"","kazan":""}}
,{"type":"Feature","geometry":{"type":"Point","coordinates":[139.94218,36.27923]},"properties":{"Name":"のぎ小児科","Jusho":"茨城県筑西市玉戸1270-1075","kouzui":"0296-28-8611","gake":"http://nogi-shounika.com/","takashio":"×","jishin":"〇","tsunami":"小児科・内科","kaji":"","naisui":"","kazan":""}}
,{"type":"Feature","geometry":{"type":"Point","coordinates":[140.04039,36.25043]},"properties":{"Name":"横瀬医院","Jusho":"茨城県筑西市海老ヶ島962-2","kouzui":"0296-52-0027","gake":"","takashio":"〇","jishin":"〇","tsunami":"内科婦人科","kaji":"","naisui":"","kazan":""}}
,{"type":"Feature","geometry":{"type":"Point","coordinates":[139.98067,36.30664]},"properties":{"Name":"大圃クリニック","Jusho":"茨城県筑西市丙153-4","kouzui":"0296-21-0123","gake":"","takashio":"〇","jishin":"〇","tsunami":"胃腸科、外科","kaji":"協和中央病院（茨城県筑西市門井1676-1)茨城県西部メディカルセンター（茨城県筑西市大塚555）","naisui":"","kazan":""}}
,{"type":"Feature","geometry":{"type":"Point","coordinates":[139.93863,36.29657]},"properties":{"Name":"筑西診療所","Jusho":"茨城県筑西市玉戸1658","kouzui":"0296-28-2261","gake":"http://www.iwmo.or.jp","takashio":"×","jishin":"〇","tsunami":"内科","kaji":"","naisui":"","kazan":""}}
,{"type":"Feature","geometry":{"type":"Point","coordinates":[139.98099,36.30787]},"properties":{"Name":"直江医院","Jusho":"茨城県筑西市丙147","kouzui":"0296-22-3081","gake":"","takashio":"〇","jishin":"〇","tsunami":"内科、外科、皮膚科、胃腸科、放射線科","kaji":"","naisui":"","kazan":""}}
,{"type":"Feature","geometry":{"type":"Point","coordinates":[139.88428,36.04938]},"properties":{"Name":"存身堂医院","Jusho":"茨城県坂東市岩井3293","kouzui":"0297-35-1011","gake":"http://www.fureai.or.jp/~zon-clin/","takashio":"〇","jishin":"×","tsunami":"内科小児科","kaji":"西南医療センター病院（茨城県猿島郡境町2190）きぬ医師会病院（茨城県常総市新井木町13-3）","naisui":"","kazan":""}}
,{"type":"Feature","geometry":{"type":"Point","coordinates":[140.2446,36.13206]},"properties":{"Name":"大和医院","Jusho":"茨城県かすみがうら市稲吉5丁目20番12号","kouzui":"029-831-7937","gake":"","takashio":"〇","jishin":"〇","tsunami":"内科小児科","kaji":"総合病院土浦協同病院（茨城県土浦市おおつ野4丁目-1-1）","naisui":"","kazan":""}}
,{"type":"Feature","geometry":{"type":"Point","coordinates":[140.6908,35.87495]},"properties":{"Name":"かみす中央メディカルクリニック","Jusho":"茨城県神栖市知手3061-101","kouzui":"0299-77-7277","gake":"https://www.kcm-cl.jp/","takashio":"〇","jishin":"〇","tsunami":"循環器内科内科","kaji":"神栖済生会病院（茨城県神栖市知手中央7-2-45）","naisui":"","kazan":""}}
,{"type":"Feature","geometry":{"type":"Point","coordinates":[140.63765,35.89162]},"properties":{"Name":"医療法人社団息栖会あきら医院","Jusho":"茨城県神栖市大野原5-1-29","kouzui":"0299-92-7081","gake":"http://www.akira-clinic.or.jp","takashio":"〇","jishin":"〇","tsunami":"内科小児科","kaji":"","naisui":"","kazan":""}}
,{"type":"Feature","geometry":{"type":"Point","coordinates":[140.64061,35.90009]},"properties":{"Name":"牧医院","Jusho":"茨城県神栖市神栖1-17-20","kouzui":"0299-92-7200","gake":"","takashio":"〇","jishin":"〇","tsunami":"内科小児科","kaji":"","naisui":"","kazan":""}}
,{"type":"Feature","geometry":{"type":"Point","coordinates":[140.8102,35.7601]},"properties":{"Name":"波崎クリニック","Jusho":"茨城県神栖市波崎6271-5","kouzui":"0479-44-3886","gake":"","takashio":"×","jishin":"〇","tsunami":"内科小児科","kaji":"","naisui":"","kazan":""}}
,{"type":"Feature","geometry":{"type":"Point","coordinates":[140.82367,35.74747]},"properties":{"Name":"小田医院","Jusho":"茨城県神栖市波崎8635","kouzui":"0479-44-0450","gake":"","takashio":"×","jishin":"〇","tsunami":"内科","kaji":"","naisui":"","kazan":""}}
,{"type":"Feature","geometry":{"type":"Point","coordinates":[140.49075,35.99032]},"properties":{"Name":"釼持外科","Jusho":"茨城県行方市麻生1555-4","kouzui":"0299-72-0805","gake":"","takashio":"〇","jishin":"〇","tsunami":"内科小児科皮膚科","kaji":"土浦協同病院なめがた地域医療センター(茨城県行方市井上98-8)小山記念病院（茨城県鹿嶋市厨5-1-2）","naisui":"","kazan":""}}
,{"type":"Feature","geometry":{"type":"Point","coordinates":[140.05049,35.95157]},"properties":{"Name":"緑クリニック医院","Jusho":"茨城県つくばみらい市谷井田2215-4","kouzui":"0297-58-5222","gake":"","takashio":"〇","jishin":"〇","tsunami":"内科整形外科耳鼻科皮膚科","kaji":"筑波メディカルセンター病院","naisui":"","kazan":""}}
,{"type":"Feature","geometry":{"type":"Point","coordinates":[140.03728,35.99803]},"properties":{"Name":"医療法人社団貴風会なかざわクリニック","Jusho":"茨城県つくばみらい市紫峰ヶ丘1-6-7","kouzui":"0297-34-1122","gake":"http://nakazawa-cl.byoinnavi.jp/","takashio":"〇","jishin":"〇","tsunami":"内科外科消化器内科","kaji":"","naisui":"","kazan":""}}
,{"type":"Feature","geometry":{"type":"Point","coordinates":[140.05568,35.98642]},"properties":{"Name":"伊奈クリニック","Jusho":"茨城県つくばみらい市板橋2243-1","kouzui":"0297-20-7755","gake":"https://keiyu.or.jp/ina/","takashio":"〇","jishin":"〇","tsunami":"内科小児科","kaji":"守谷慶友病院（茨城県守谷市立沢980-1）","naisui":"","kazan":""}}
,{"type":"Feature","geometry":{"type":"Point","coordinates":[140.30916,36.16805]},"properties":{"Name":"医療法人聖和会つくば病院","Jusho":"茨城県小美玉市高崎2032-6","kouzui":"0299-26-1271","gake":"http://e-seiwakai.jp/stukuba_kamoku.html","takashio":"×","jishin":"〇","tsunami":"精神科","kaji":"","naisui":"","kazan":""}}
,{"type":"Feature","geometry":{"type":"Point","coordinates":[140.40996,36.32506]},"properties":{"Name":"独立行政法人国立病院機構水戸医療センター","Jusho":"茨城県東茨城郡茨城町桜の郷280番地","kouzui":"029-240-7711","gake":"https://mito.hosp.go.jp/","takashio":"×","jishin":"〇","tsunami":"循環器内科呼吸器科消化器科血液内科神経内科精神科外科心臓血管外科整形外科形成外科脳神経外科皮膚科泌尿器科眼科耳鼻咽喉科歯科口腔外科","kaji":"当院かかりつけ患者の処方のみ対応","naisui":"","kazan":""}}
,{"type":"Feature","geometry":{"type":"Point","coordinates":[140.47394,36.31021]},"properties":{"Name":"公益財団法人報恩会石崎病院","Jusho":"茨城県東茨城郡茨城町上石崎4698","kouzui":"029-293-7155","gake":"http://www.ishizaki-hp.jp","takashio":"×","jishin":"〇","tsunami":"精神科心療内科内科","kaji":"","naisui":"","kazan":""}}
,{"type":"Feature","geometry":{"type":"Point","coordinates":[140.42473,36.29097]},"properties":{"Name":"いばらき診療所こづる","Jusho":"茨城県東茨城郡茨城町小鶴127-1","kouzui":"029-291-0055","gake":"","takashio":"×","jishin":"〇","tsunami":"内科神経内科","kaji":"","naisui":"","kazan":""}}
,{"type":"Feature","geometry":{"type":"Point","coordinates":[140.37566,36.47766]},"properties":{"Name":"せつクリニック","Jusho":"茨城県東茨城郡城里町石塚503-11","kouzui":"029-288-6811","gake":"","takashio":"×","jishin":"〇","tsunami":"内科","kaji":"","naisui":"","kazan":""}}
,{"type":"Feature","geometry":{"type":"Point","coordinates":[140.57533,36.45872]},"properties":{"Name":"村立東海病院","Jusho":"茨城県那珂郡東海村村松2081番地2","kouzui":"029-282-2188","gake":"https://www.tokai-hp.jp/","takashio":"×","jishin":"〇","tsunami":"内科小児科","kaji":"自院（村立東海病院）","naisui":"","kazan":""}}
,{"type":"Feature","geometry":{"type":"Point","coordinates":[140.58533,36.46234]},"properties":{"Name":"尾形クリニック","Jusho":"茨城県那珂郡東海村村松375","kouzui":"029-282-4781","gake":"","takashio":"〇","jishin":"〇","tsunami":"内科","kaji":"","naisui":"","kazan":""}}
,{"type":"Feature","geometry":{"type":"Point","coordinates":[140.35336,36.7694]},"properties":{"Name":"慈泉堂病院","Jusho":"茨城県久慈郡大子町大子856-1","kouzui":"0295-72-1550","gake":"https://www.jisendou-byouin.com/","takashio":"〇","jishin":"〇","tsunami":"内科","kaji":"","naisui":"","kazan":""}}
,{"type":"Feature","geometry":{"type":"Point","coordinates":[140.31795,36.00427]},"properties":{"Name":"美浦中央病院","Jusho":"茨城県稲敷郡美浦村宮地596","kouzui":"029-885-3551","gake":"http://www.mihochu.or.jp","takashio":"×","jishin":"〇","tsunami":"内科整形外科耳鼻科泌尿器科","kaji":"","naisui":"","kazan":""}}
,{"type":"Feature","geometry":{"type":"Point","coordinates":[140.3058,35.97752]},"properties":{"Name":"一般財団法人競馬共助会みほクリニック","Jusho":"茨城県稲敷郡美浦村美駒2500-2","kouzui":"029-885-1813","gake":"","takashio":"〇","jishin":"〇","tsunami":"内科","kaji":"東京医科大学茨城医療センター（茨城県稲敷郡阿見町中央3-20-1）筑波大学附属病院（茨城県つくば市天久保2-1-1）","naisui":"","kazan":""}}
,{"type":"Feature","geometry":{"type":"Point","coordinates":[140.21568,36.03731]},"properties":{"Name":"東京医科大学茨城医療センター","Jusho":"茨城県稲敷郡阿見町中央3-20-1","kouzui":"029-887-1161","gake":"http://ksm.tokyo-med.ac.jp/","takashio":"×","jishin":"〇","tsunami":"全診療科","kaji":"","naisui":"","kazan":""}}
,{"type":"Feature","geometry":{"type":"Point","coordinates":[140.21072,36.02696]},"properties":{"Name":"茨城県立医療大学付属病院","Jusho":"茨城県稲敷郡阿見町阿見4733","kouzui":"029-888-9200","gake":"http://www.hosp.ipu.ac.jp/","takashio":"×","jishin":"〇","tsunami":"・リハビリテーション科・整形外科・内科・神経内科・小児科・放射線科・精神科・麻酔科・泌尿器科・眼科・歯科・耳鼻咽喉科・皮膚科","kaji":"","naisui":"","kazan":""}}
,{"type":"Feature","geometry":{"type":"Point","coordinates":[140.22043,36.02032]},"properties":{"Name":"あみ小林クリニック","Jusho":"茨城県稲敷郡阿見町若栗1765-1","kouzui":"029-888-2200","gake":"http://www.ami-kobayashi.jp","takashio":"×","jishin":"〇","tsunami":"内科腎臓内科","kaji":"","naisui":"","kazan":""}}
,{"type":"Feature","geometry":{"type":"Point","coordinates":[140.2097,36.04138]},"properties":{"Name":"阿見第一クリニック","Jusho":"茨城県稲敷郡阿見町中郷2-30-6","kouzui":"029-887-3511","gake":"https://www.489map.com/helios/A9577967/reserve/syoshin（http://www.jinseikai.net/main/ami.html）","takashio":"×","jishin":"〇","tsunami":"内科","kaji":"","naisui":"","kazan":""}}
,{"type":"Feature","geometry":{"type":"Point","coordinates":[140.25175,36.0213]},"properties":{"Name":"南平台メディカルクリニック","Jusho":"茨城県稲敷郡阿見町南平台1-2213-2","kouzui":"029-888-0888","gake":"","takashio":"〇","jishin":"〇","tsunami":"循環器内科","kaji":"東京医科大学茨城医療センター（茨城県稲敷郡阿見町中央3-20-1）","naisui":"","kazan":""}}
,{"type":"Feature","geometry":{"type":"Point","coordinates":[140.22173,36.04412]},"properties":{"Name":"野口歯科医院","Jusho":"茨城県稲敷郡阿見町廻戸343-12","kouzui":"029-887-0350","gake":"","takashio":"×","jishin":"〇","tsunami":"歯科","kaji":"","naisui":"","kazan":""}}
,{"type":"Feature","geometry":{"type":"Point","coordinates":[139.89131,36.1814]},"properties":{"Name":"茨城西南医療センター病院付属八千代診療所","Jusho":"茨城県結城郡八千代町菅谷1170-1","kouzui":"0296-48-2001","gake":"http://www.seinan-mch.or.jp/yachiyo_clinic/","takashio":"〇","jishin":"〇","tsunami":"内科","kaji":"茨城西南医療センター病院（茨城県猿島郡境町2190）","naisui":"","kazan":""}}
,{"type":"Feature","geometry":{"type":"Point","coordinates":[140.16527,35.86111]},"properties":{"Name":"利根町国保診療所","Jusho":"茨城県北相馬郡利根町羽中200","kouzui":"0297-68-2231","gake":"http://www.town.tone.ibaraki.jp/","takashio":"〇","jishin":"〇","tsunami":"内科小児科","kaji":"取手北相馬保健医療センター医師会病院（茨城県取手市野々井1,926）","naisui":"","kazan":""}}
,{"type":"Feature","geometry":{"type":"Point","coordinates":[140.15031,35.86129]},"properties":{"Name":"山中医院","Jusho":"茨城県北相馬郡利根町中田切1-1","kouzui":"0297-68-7287","gake":"","takashio":"×","jishin":"〇","tsunami":"内科","kaji":"JAとりで総合医療センター（茨城県取手市本郷2-1-1）","naisui":"","kazan":""}}
]};