var kagawa={"type":"FeatureCollection","name":"kagawa","features":[
{"type":"Feature","geometry":{"type":"Point","coordinates":[134.03969,34.33684]},"properties":{"Name":"リウマチ・腎臓内科はちまんクリニック","Jusho":"香川県高松市亀岡町11-10","kouzui":"087-862-7878","gake":"http://8man-clinic.com/","takashio":"×","jishin":"〇","tsunami":"内科","kaji":"","naisui":"","kazan":""}}
,{"type":"Feature","geometry":{"type":"Point","coordinates":[134.0461,34.33693]},"properties":{"Name":"大塚整形外科医院","Jusho":"香川県高松市中央町1-24","kouzui":"087-834-7611","gake":"https://otsuka-seikei.jp","takashio":"×","jishin":"〇","tsunami":"整形外科","kaji":"","naisui":"","kazan":""}}
,{"type":"Feature","geometry":{"type":"Point","coordinates":[134.04341,34.3438]},"properties":{"Name":"とみおか内科クリニック","Jusho":"香川県高松市番町2丁目6-13","kouzui":"087-825-9121","gake":"http://www.netwave.or.jp/~tomi-cli/","takashio":"×","jishin":"〇","tsunami":"内科","kaji":"","naisui":"","kazan":""}}
,{"type":"Feature","geometry":{"type":"Point","coordinates":[134.03889,34.34255]},"properties":{"Name":"かわさきレディースクリニック","Jusho":"香川県高松市番町3-19-15","kouzui":"087-802-5525","gake":"","takashio":"×","jishin":"〇","tsunami":"産婦人科","kaji":"","naisui":"","kazan":""}}
,{"type":"Feature","geometry":{"type":"Point","coordinates":[134.04758,34.3423]},"properties":{"Name":"河西医院","Jusho":"香川県高松市番町1-7-11","kouzui":"087-851-2666","gake":"","takashio":"×","jishin":"〇","tsunami":"整形外科リウマチ科リハビリテーション科","kaji":"","naisui":"","kazan":""}}
,{"type":"Feature","geometry":{"type":"Point","coordinates":[134.0387,34.34159]},"properties":{"Name":"形見医院","Jusho":"香川県高松市番町4丁目8-25","kouzui":"087-831-5965","gake":"","takashio":"〇","jishin":"〇","tsunami":"内科小児科","kaji":"ＫＫＲ高松病院（香川県高松市天神前4-18）高松赤十字病院（香川県高松市番町4丁目1-3）高松市立みんなの病院（香川県高松市仏生山町甲847番地1）香川県立中央病院（香川県高松市朝日町1丁目2-1）","naisui":"","kazan":""}}
,{"type":"Feature","geometry":{"type":"Point","coordinates":[134.04463,34.33981]},"properties":{"Name":"やまぐちクリニック","Jusho":"香川県高松市天神前5-6メディカルモール5F","kouzui":"087-832-5611","gake":"","takashio":"×","jishin":"〇","tsunami":"心療内科精神科","kaji":"","naisui":"","kazan":""}}
,{"type":"Feature","geometry":{"type":"Point","coordinates":[134.04697,34.35263]},"properties":{"Name":"サンポート高松クリニック","Jusho":"香川県高松市サンポート2-1","kouzui":"087-802-3100","gake":"https:www.sunport-takamatsu.clinic.","takashio":"×","jishin":"〇","tsunami":"内科","kaji":"","naisui":"","kazan":""}}
,{"type":"Feature","geometry":{"type":"Point","coordinates":[134.04904,34.34899]},"properties":{"Name":"玉藻クリニック","Jusho":"香川県高松市寿町1-4-3高松中央通りビル4階","kouzui":"087-811-7021","gake":"","takashio":"△","jishin":"〇","tsunami":"内科リウマチ科","kaji":"宇多津病院（香川県綾歌郡宇多津町浜五番丁66-1）","naisui":"","kazan":""}}
,{"type":"Feature","geometry":{"type":"Point","coordinates":[134.04791,34.34479]},"properties":{"Name":"西風循環器科医院","Jusho":"香川県高松市紺屋町3-12","kouzui":"087-851-0880","gake":"","takashio":"×","jishin":"〇","tsunami":"内科","kaji":"","naisui":"","kazan":""}}
,{"type":"Feature","geometry":{"type":"Point","coordinates":[134.04906,34.3433]},"properties":{"Name":"筒井内科・皮ふ科医院","Jusho":"香川県高松市鍛冶屋町1-6","kouzui":"087-821-6250","gake":"http://www.tsutsui.clinic/","takashio":"×","jishin":"〇","tsunami":"皮膚科","kaji":"当院香川県立中央病院（香川県高松市朝日町1丁目2-1）高松赤十字病院（香川県高松市番町4丁目1-3）","naisui":"","kazan":""}}
,{"type":"Feature","geometry":{"type":"Point","coordinates":[134.05373,34.34066]},"properties":{"Name":"真弓皮膚泌尿器科","Jusho":"香川県高松市福田町13番地3","kouzui":"087-821-3913","gake":"https://www.mayumi-clinic.jp","takashio":"〇","jishin":"〇","tsunami":"泌尿器科皮膚科","kaji":"香川県立中央病院（香川県高松市朝日町1丁目2-1）","naisui":"","kazan":""}}
,{"type":"Feature","geometry":{"type":"Point","coordinates":[134.04842,34.33917]},"properties":{"Name":"榊原クリニック","Jusho":"香川県高松市亀井町10-10","kouzui":"087-835-0977","gake":"","takashio":"〇","jishin":"〇","tsunami":"内科麻酔科","kaji":"ＫＫＲ高松病院（香川県高松市天神前4-18）高松赤十字病院（香川県高松市番町4丁目1-3）高松平和病院（香川県高松市栗林町1丁目4-1）等","naisui":"","kazan":""}}
,{"type":"Feature","geometry":{"type":"Point","coordinates":[134.05264,34.34167]},"properties":{"Name":"西川クリニック","Jusho":"香川県高松市瓦町1-4-5","kouzui":"087-851-1027","gake":"https://nishic.com/","takashio":"△","jishin":"〇","tsunami":"整形外科リハビリテーション科","kaji":"","naisui":"","kazan":""}}
,{"type":"Feature","geometry":{"type":"Point","coordinates":[134.05083,34.33802]},"properties":{"Name":"磯島クリニック","Jusho":"香川県高松市常磐町2-3-6","kouzui":"087-862-5177","gake":"","takashio":"×","jishin":"〇","tsunami":"精神科診療内科内科","kaji":"","naisui":"","kazan":""}}
,{"type":"Feature","geometry":{"type":"Point","coordinates":[134.05086,34.33595]},"properties":{"Name":"いしばし内科医院","Jusho":"香川県高松市塩上町9-15","kouzui":"087-831-7487","gake":"","takashio":"×","jishin":"〇","tsunami":"内科","kaji":"高松市立みんなの病院（香川県高松市仏生山町甲847番地1）","naisui":"","kazan":""}}
,{"type":"Feature","geometry":{"type":"Point","coordinates":[134.05914,34.33667]},"properties":{"Name":"野田医院","Jusho":"香川県高松市多賀町2-9-20","kouzui":"087-831-4275","gake":"https://www.noda-iin.jp/","takashio":"×","jishin":"〇","tsunami":"循環器内科内科小児科","kaji":"香川県立中央病院（香川県高松市朝日町1丁目2-1）","naisui":"","kazan":""}}
,{"type":"Feature","geometry":{"type":"Point","coordinates":[134.06569,34.33776]},"properties":{"Name":"内科前田医院","Jusho":"香川県高松市松島町2-17-15","kouzui":"087-863-5252","gake":"https://www.maeda-cl.com/","takashio":"×","jishin":"〇","tsunami":"内科","kaji":"香川県立中央病院（香川県高松市朝日町1丁目2-1）高松赤十字病院（香川県高松市番町4丁目1-3）","naisui":"","kazan":""}}
,{"type":"Feature","geometry":{"type":"Point","coordinates":[134.04689,34.33473]},"properties":{"Name":"松田内科医院","Jusho":"香川県高松市藤塚町1-3-21","kouzui":"087-831-4601","gake":"","takashio":"〇","jishin":"〇","tsunami":"内科","kaji":"ＫＫＲ高松病院（香川県高松市天神前4-18）高松赤十字病院（香川県高松市番町4丁目1-3）","naisui":"","kazan":""}}
,{"type":"Feature","geometry":{"type":"Point","coordinates":[134.04816,34.33443]},"properties":{"Name":"阿部内科クリニック","Jusho":"香川県高松市藤塚町1-4-11","kouzui":"087-837-3131","gake":"","takashio":"〇","jishin":"〇","tsunami":"内科","kaji":"香川県立中央病院（香川県高松市朝日町1丁目2-1）","naisui":"","kazan":""}}
,{"type":"Feature","geometry":{"type":"Point","coordinates":[134.04626,34.32814]},"properties":{"Name":"佐藤皮フ科泌尿器科性病科医院","Jusho":"香川県高松市栗林町1丁目13-8","kouzui":"087-862-1971","gake":"http://www.sato-ud-clinic.com","takashio":"〇","jishin":"〇","tsunami":"皮膚科泌尿器科","kaji":"高松赤十字病院（高松市番町4丁目1-3）高松市立みんなの病院（香川県高松市仏生山町甲847番地1）","naisui":"","kazan":""}}
,{"type":"Feature","geometry":{"type":"Point","coordinates":[134.05029,34.32872]},"properties":{"Name":"りつりん病院","Jusho":"香川県高松市栗林町3-5-9","kouzui":"087-862-3171","gake":"","takashio":"×","jishin":"〇","tsunami":"内科外科整形外科脳神経外科皮膚科泌尿器科婦人科眼科麻酔科呼吸器内科循環器内科","kaji":"","naisui":"","kazan":""}}
,{"type":"Feature","geometry":{"type":"Point","coordinates":[134.05859,34.33104]},"properties":{"Name":"かとう整形外科","Jusho":"香川県高松市楠上町1丁目5-31","kouzui":"087-833-5545","gake":"https://www.dr-navip.jp/kagawa/detail?no=1441","takashio":"×","jishin":"〇","tsunami":"整形外科","kaji":"香川県立中央病院（香川県高松市朝日町1丁目2-1）高松赤十字病院（香川県高松市番町4丁目1-3）高松市立みんなの病院（香川県高松市仏生山町甲847番地1）ＫＫＲ高松病院（香川県高松市天神前4-18）りつりん病院（香川県高松市栗林町3丁目5-9）屋島総合病院（香川県高松市屋島西町2105-17）","naisui":"","kazan":""}}
,{"type":"Feature","geometry":{"type":"Point","coordinates":[134.05623,34.32983]},"properties":{"Name":"いとうわんぱくクリニック","Jusho":"香川県高松市楠上町2丁目3-15","kouzui":"087-812-1089","gake":"http://www.maroon.dti.ne.jp/wanpack/main.html","takashio":"×","jishin":"〇","tsunami":"小児科アレルギー科","kaji":"香川県立中央病院（香川県高松市朝日町1丁目2-1）高松赤十字病院（香川県高松市番町4丁目1-3）りつりん病院（香川県高松市栗林町3丁目5-9）等","naisui":"","kazan":""}}
,{"type":"Feature","geometry":{"type":"Point","coordinates":[134.05623,34.32983]},"properties":{"Name":"りつりん皮フ科クリニック","Jusho":"香川県高松市楠上町2丁目3-15","kouzui":"087-813-4112","gake":"https://ritsurin-d.com/","takashio":"×","jishin":"〇","tsunami":"皮膚科","kaji":"当院高松赤十字病院（香川県高松市番町4丁目1-3）香川県立中央病院形成外科、皮膚科等（香川県高松市朝日町1丁目2-1）","naisui":"","kazan":""}}
,{"type":"Feature","geometry":{"type":"Point","coordinates":[134.05623,34.32983]},"properties":{"Name":"こじまクリニック","Jusho":"高松市楠上町2-3-15","kouzui":"087-813-1122","gake":"http://www.kojima-clinic-hp.jp/index.html","takashio":"〇","jishin":"〇","tsunami":"内科","kaji":"","naisui":"","kazan":""}}
,{"type":"Feature","geometry":{"type":"Point","coordinates":[134.06111,34.33408]},"properties":{"Name":"伊達病院","Jusho":"香川県高松市観光町588-8","kouzui":"087-831-1701","gake":"https://www.date-med.or.jp/","takashio":"〇","jishin":"〇","tsunami":"内科","kaji":"香川県立中央病院（香川県高松市朝日町1丁目2-1）高松市立みんなの病院（香川県高松市仏生山町甲847番地1）","naisui":"","kazan":""}}
,{"type":"Feature","geometry":{"type":"Point","coordinates":[134.06514,34.3222]},"properties":{"Name":"広瀬病院","Jusho":"香川県高松市松縄町35-3","kouzui":"087-867-9911","gake":"http://www.hirose-hosp.or.jp","takashio":"×","jishin":"〇","tsunami":"リウマチ科","kaji":"","naisui":"","kazan":""}}
,{"type":"Feature","geometry":{"type":"Point","coordinates":[134.06229,34.31114]},"properties":{"Name":"もりした眼科クリニック","Jusho":"香川県高松市松縄町1140-9","kouzui":"087-865-6633","gake":"http://morishita-eye.com","takashio":"×","jishin":"〇","tsunami":"眼科","kaji":"","naisui":"","kazan":""}}
,{"type":"Feature","geometry":{"type":"Point","coordinates":[134.07928,34.3246]},"properties":{"Name":"水谷内科クリニック","Jusho":"香川県高松市木太町3602-1","kouzui":"087-835-5037","gake":"http://m-koujyukai.or.jp/","takashio":"〇","jishin":"〇","tsunami":"内科一般コ","kaji":"香川県立中央病院（香川県高松市朝日町1丁目2-1）高松市立みんなの病院（香川県高松市仏生山町甲847番地1）香川大学医学部附属病院（香川県木田郡三木町池戸19子50-1）高松赤十字病院（香川県高松市番町4丁目1-3）屋島総合病院（香川県高松市屋島西町2105-17）ＫＫＲ高松病院（香川県高松市天神前4-18）","naisui":"","kazan":""}}
,{"type":"Feature","geometry":{"type":"Point","coordinates":[134.06244,34.3499]},"properties":{"Name":"香川県立中央病院","Jusho":"香川県高松市朝日町1-2-1","kouzui":"087-811-3333","gake":"http://www.chp-kagawa.jp/","takashio":"×","jishin":"〇","tsunami":"消化器内科、肝臓内科、呼吸器内科、糖尿病内科、内分泌内科、血液内科、腎臓・膠原病内科、緩和ケア内科、ペインクリニック科、循環器内科、神経内科、小児科、消化器・一般外科、呼吸器外科、乳腺・内分泌外科、心臓血管外科、脳神経外科、整形外科、形成外科、皮膚科、放射線科、泌尿器科、産科、婦人科、眼科、耳鼻咽喉科、頭頸部外科、歯科、歯科口腔外科","kaji":"","naisui":"","kazan":""}}
,{"type":"Feature","geometry":{"type":"Point","coordinates":[134.04881,34.33377]},"properties":{"Name":"内科高橋クリニック","Jusho":"香川県高松市藤塚町1-8-17","kouzui":"087-831-7073","gake":"https://www.naikatakahashi.clinic/","takashio":"〇","jishin":"〇","tsunami":"内科","kaji":"","naisui":"","kazan":""}}
,{"type":"Feature","geometry":{"type":"Point","coordinates":[134.04904,34.34899]},"properties":{"Name":"五色台クリニック","Jusho":"香川県高松市寿町1-4-3","kouzui":"087-822-2311","gake":"http://www.goshikidai.or.jp/","takashio":"×","jishin":"〇","tsunami":"精神科心療内科","kaji":"心の医療センター五色台（坂出市加茂町963）","naisui":"","kazan":""}}
,{"type":"Feature","geometry":{"type":"Point","coordinates":[134.08897,34.35128]},"properties":{"Name":"小林内科小児科医院","Jusho":"香川県高松市屋島西町2485-6","kouzui":"087‐843-3315","gake":"","takashio":"×","jishin":"〇","tsunami":"内科小児科","kaji":"","naisui":"","kazan":""}}
,{"type":"Feature","geometry":{"type":"Point","coordinates":[134.13086,34.34251]},"properties":{"Name":"渋谷整形外科医院","Jusho":"香川県高松市牟礼町牟礼986-1","kouzui":"087-845-9339","gake":"","takashio":"×","jishin":"〇","tsunami":"整形外科","kaji":"","naisui":"","kazan":""}}
,{"type":"Feature","geometry":{"type":"Point","coordinates":[134.13997,34.33918]},"properties":{"Name":"加地医院","Jusho":"香川県高松市牟礼町牟礼22番地1","kouzui":"087-845-9713","gake":"http://kajiclinic.web.fc2.com/","takashio":"〇","jishin":"〇","tsunami":"内科消化器内科","kaji":"県内基盤病院","naisui":"","kazan":""}}
,{"type":"Feature","geometry":{"type":"Point","coordinates":[134.12769,34.34367]},"properties":{"Name":"しぶやこどもクリニック","Jusho":"香川県高松市牟礼町牟礼2094-1","kouzui":"087-845-6111","gake":"https://www.shibuyaclinic.jp/","takashio":"×","jishin":"〇","tsunami":"小児科","kaji":"香川大学医学部附属病院（香川県木田郡三木町池戸1750-1）香川県立中央病院（香川県高松市朝日町1丁目2-1）高松赤十字病院（香川県高松市番町4丁目1-3）屋島総合病院（香川県高松市屋島西町2105-17）","naisui":"","kazan":""}}
,{"type":"Feature","geometry":{"type":"Point","coordinates":[134.15158,34.33162]},"properties":{"Name":"三光病院","Jusho":"香川県高松市牟礼町原883-1","kouzui":"087-845-3301","gake":"http://www.sanko-hp.com/","takashio":"×","jishin":"〇","tsunami":"精神科診療内科","kaji":"","naisui":"","kazan":""}}
,{"type":"Feature","geometry":{"type":"Point","coordinates":[134.12791,34.3809]},"properties":{"Name":"庵治整形外科・内科医院","Jusho":"香川県高松市庵治町619番地","kouzui":"087-871-3801","gake":"","takashio":"×","jishin":"〇","tsunami":"整形外科内科","kaji":"屋島総合病院（香川県高松市屋島西町2105-17）","naisui":"","kazan":""}}
,{"type":"Feature","geometry":{"type":"Point","coordinates":[134.11148,34.32007]},"properties":{"Name":"高松医療センター","Jusho":"香川県高松市新田町乙8番地","kouzui":"087-841-2146","gake":"https://takamatsu.hosp.go.jp/","takashio":"×","jishin":"〇","tsunami":"内科神経内科呼吸器内科","kaji":"","naisui":"","kazan":""}}
,{"type":"Feature","geometry":{"type":"Point","coordinates":[134.09677,34.30337]},"properties":{"Name":"河野内科医院","Jusho":"香川県高松市東山崎町543-5","kouzui":"087-847-8150","gake":"","takashio":"×","jishin":"〇","tsunami":"内科","kaji":"状況に応じ、対応してくれる病院とする","naisui":"","kazan":""}}
,{"type":"Feature","geometry":{"type":"Point","coordinates":[134.09076,34.3067]},"properties":{"Name":"協和医院","Jusho":"高松市東山崎町165-8香川県","kouzui":"087-847-6073","gake":"","takashio":"×","jishin":"〇","tsunami":"内科","kaji":"","naisui":"","kazan":""}}
,{"type":"Feature","geometry":{"type":"Point","coordinates":[134.09804,34.28465]},"properties":{"Name":"楓の森整形外科","Jusho":"香川県高松市小村町256-2","kouzui":"087-887-9888","gake":"http://www.kaedenomori.jp/","takashio":"×","jishin":"〇","tsunami":"整形外科","kaji":"","naisui":"","kazan":""}}
,{"type":"Feature","geometry":{"type":"Point","coordinates":[134.10941,34.27206]},"properties":{"Name":"ハピネスこどもクリニック","Jusho":"香川県高松市十川東町55-1","kouzui":"087-848-9178","gake":"http://www.happiness-kids-c.com/index2.htm","takashio":"×","jishin":"〇","tsunami":"小児科","kaji":"","naisui":"","kazan":""}}
,{"type":"Feature","geometry":{"type":"Point","coordinates":[134.07863,34.27902]},"properties":{"Name":"イズミ医院","Jusho":"香川県高松市三谷町90-1","kouzui":"087-840-1777","gake":"","takashio":"×","jishin":"〇","tsunami":"内科","kaji":"","naisui":"","kazan":""}}
,{"type":"Feature","geometry":{"type":"Point","coordinates":[134.02109,34.2387]},"properties":{"Name":"綾田医院","Jusho":"香川県高松市香南町由佐210-1","kouzui":"087-879-2008","gake":"http://ayada-clinic-yuusyoukai.com","takashio":"〇","jishin":"〇","tsunami":"内科消化器内科循環器内科","kaji":"高松市立みんなの病院（香川県高松市仏生山町甲847番地1）","naisui":"","kazan":""}}
,{"type":"Feature","geometry":{"type":"Point","coordinates":[134.03226,34.23979]},"properties":{"Name":"のむら内科循環器消化器クリニック","Jusho":"香川県高松市香川町川東上字漆原1802番地7","kouzui":"087-816-8088","gake":"","takashio":"×","jishin":"〇","tsunami":"内科","kaji":"","naisui":"","kazan":""}}
,{"type":"Feature","geometry":{"type":"Point","coordinates":[133.95967,34.36119]},"properties":{"Name":"横田外科医院","Jusho":"香川県高松市生島町460-1","kouzui":"087-882-7165","gake":"","takashio":"×","jishin":"〇","tsunami":"外科","kaji":"高松赤十字病院（香川県高松市番町4丁目1-3）香川県立中央病院（香川県高松市朝日町1丁目2-1）高松市立みんなの病院（香川県高松市仏生山町甲847番地1）","naisui":"","kazan":""}}
,{"type":"Feature","geometry":{"type":"Point","coordinates":[134.00105,34.34927]},"properties":{"Name":"かつが整形外科クリニック","Jusho":"香川県高松市香西本町114-10","kouzui":"087-832-8877","gake":"","takashio":"×","jishin":"〇","tsunami":"整形外科","kaji":"","naisui":"","kazan":""}}
,{"type":"Feature","geometry":{"type":"Point","coordinates":[134.0144,34.34874]},"properties":{"Name":"馬場病院","Jusho":"香川県高松市郷東町580番地","kouzui":"087-881-4375","gake":"","takashio":"×","jishin":"〇","tsunami":"精神科","kaji":"高松市立みんなの病院（香川県高松市仏生山町甲847番地1）","naisui":"","kazan":""}}
,{"type":"Feature","geometry":{"type":"Point","coordinates":[134.01249,34.3425]},"properties":{"Name":"住谷小児科医院","Jusho":"香川県高松市郷東町25-4","kouzui":"087-832-8808","gake":"https://iryoshadansumitanishonikain.hp.gogo.jp/pc/","takashio":"×","jishin":"△","tsunami":"小児科","kaji":"","naisui":"","kazan":""}}
,{"type":"Feature","geometry":{"type":"Point","coordinates":[133.99814,34.30508]},"properties":{"Name":"高松脳神経外科・外科医院","Jusho":"香川県高松市檀紙町1593番地1","kouzui":"087-886-5588","gake":"http://takamatsunouge.jp","takashio":"×","jishin":"△","tsunami":"脳神経外科外科内科","kaji":"","naisui":"","kazan":""}}
,{"type":"Feature","geometry":{"type":"Point","coordinates":[134.0011,34.28745]},"properties":{"Name":"藤沢こどもクリニック","Jusho":"香川県高松市中間町49-10","kouzui":"087-885-3338","gake":"http://fujisawa.kids.coocan.jp/","takashio":"〇","jishin":"〇","tsunami":"小児科","kaji":"高松赤十字病院（香川県高松市番町4丁目1-3）香川大学医学部附属病院（香川県木田郡三木町池戸1750-1）","naisui":"","kazan":""}}
,{"type":"Feature","geometry":{"type":"Point","coordinates":[134.00549,34.28468]},"properties":{"Name":"那須医院","Jusho":"香川県高松市円座町1593","kouzui":"087-885-1406","gake":"","takashio":"〇","jishin":"〇","tsunami":"内科小児科","kaji":"香川県立中央病院（香川県高松市朝日町1丁目2-1）高松赤十字病院（香川県高松市番町4丁目1-3）高松市立みんなの病院（香川県高松市仏生山町甲847番地1）等の基幹病院","naisui":"","kazan":""}}
,{"type":"Feature","geometry":{"type":"Point","coordinates":[134.03896,34.32045]},"properties":{"Name":"前田病院","Jusho":"香川県高松市東ハゼ町824","kouzui":"087-865-7111","gake":"https://www.maeda-hosp.com/","takashio":"×","jishin":"〇","tsunami":"内科外科整形外科","kaji":"","naisui":"","kazan":""}}
,{"type":"Feature","geometry":{"type":"Point","coordinates":[134.02954,34.31549]},"properties":{"Name":"田井メディカルクリニック","Jusho":"香川県高松市田村町332-4","kouzui":"087-866-7311","gake":"http://www.tai-med-clinic.jp/","takashio":"〇","jishin":"〇","tsunami":"内科","kaji":"高松赤十字病院（香川県高松市番町4丁目1-3）高松市立みんなの病院（香川県高松市仏生山町甲847番地1）りつりん病院（香川県高松市栗林町3丁目5-9）香川県立中央病院（香川県高松市朝日町1丁目2-1）","naisui":"","kazan":""}}
,{"type":"Feature","geometry":{"type":"Point","coordinates":[134.03036,34.30674]},"properties":{"Name":"かがわ総合リハビリテーション病院","Jusho":"香川県高松市田村町1114番地","kouzui":"087-867-6008","gake":"http://www.kagawa-reha.net/hospital.html","takashio":"×","jishin":"〇","tsunami":"整形外科小児科内科脳神経外科眼科耳鼻咽喉科泌尿器科皮膚科","kaji":"","naisui":"","kazan":""}}
,{"type":"Feature","geometry":{"type":"Point","coordinates":[134.04643,34.32648]},"properties":{"Name":"宮本耳鼻咽喉科医院","Jusho":"香川県高松市花ノ宮町1丁目12-36","kouzui":"087-834-0666","gake":"","takashio":"〇","jishin":"〇","tsunami":"耳鼻咽喉科","kaji":"","naisui":"","kazan":""}}
,{"type":"Feature","geometry":{"type":"Point","coordinates":[134.04579,34.3183]},"properties":{"Name":"三条山下内科医院","Jusho":"香川県高松市三条町504-1","kouzui":"087-867-1201","gake":"http://www.sy-naika.com","takashio":"〇","jishin":"〇","tsunami":"内科","kaji":"高松市立みんなの病院（香川県高松市仏生山町甲847番地1）","naisui":"","kazan":""}}
,{"type":"Feature","geometry":{"type":"Point","coordinates":[134.04785,34.3162]},"properties":{"Name":"安原クリニック","Jusho":"香川県高松市三条町321-2","kouzui":"087-866-1111","gake":"","takashio":"×","jishin":"〇","tsunami":"産婦人科","kaji":"","naisui":"","kazan":""}}
,{"type":"Feature","geometry":{"type":"Point","coordinates":[134.0493,34.3099]},"properties":{"Name":"竹広小児科医院","Jusho":"香川県高松市太田下町2462-3","kouzui":"087-866-2461","gake":"https://www.takehiro-clinic.jp","takashio":"×","jishin":"〇","tsunami":"小児科","kaji":"","naisui":"","kazan":""}}
,{"type":"Feature","geometry":{"type":"Point","coordinates":[134.0406,34.2976]},"properties":{"Name":"木村耳鼻咽喉科医院","Jusho":"香川県高松市太田上町420-1","kouzui":"087-815-3317","gake":"http://kimura-ent01.com/","takashio":"〇","jishin":"〇","tsunami":"耳鼻咽喉科アレルギー科","kaji":"","naisui":"","kazan":""}}
,{"type":"Feature","geometry":{"type":"Point","coordinates":[134.05542,34.29803]},"properties":{"Name":"よこい内科クリニック","Jusho":"香川県高松市多肥下町359-1","kouzui":"087-869-4511","gake":"http://yokoiclinic.main.jp/","takashio":"×","jishin":"〇","tsunami":"内科","kaji":"","naisui":"","kazan":""}}
,{"type":"Feature","geometry":{"type":"Point","coordinates":[134.06189,34.30156]},"properties":{"Name":"ササキメディカルクリニック","Jusho":"香川県高松市多肥下町1547-8","kouzui":"087-814-3339","gake":"https://sasaki-medical.com","takashio":"×","jishin":"〇","tsunami":"内科外科乳腺外科","kaji":"","naisui":"","kazan":""}}
,{"type":"Feature","geometry":{"type":"Point","coordinates":[134.05968,34.2986]},"properties":{"Name":"あんどう発達クリニック","Jusho":"香川県高松市多肥下町517-10","kouzui":"087-867-0234","gake":"http://web.clinicn.jp/ando-ha-cl/","takashio":"×","jishin":"〇","tsunami":"小児神経内科小児科精神科","kaji":"へいわこどもクリニック平和病院（高松市栗林町1-4-11）かがわ総合リハビリテーション病院（高松田村町1114）","naisui":"","kazan":""}}
,{"type":"Feature","geometry":{"type":"Point","coordinates":[134.067,34.32727]},"properties":{"Name":"しんまるクリニック","Jusho":"香川県高松市上福岡町922-1","kouzui":"087-887-7612","gake":"","takashio":"〇","jishin":"〇","tsunami":"内科","kaji":"高畠病院（香川県高松市国分寺町新名500-1）","naisui":"","kazan":""}}
,{"type":"Feature","geometry":{"type":"Point","coordinates":[134.04627,34.28227]},"properties":{"Name":"さくらの馬場クリニック","Jusho":"香川県高松市仏生山町甲471-5","kouzui":"087-889-3555","gake":"http://www.sanshikai-med.jp","takashio":"×","jishin":"〇","tsunami":"内科循環器科","kaji":"高松市立みんなの病院（香川県高松市仏生山町甲847番地1）","naisui":"","kazan":""}}
,{"type":"Feature","geometry":{"type":"Point","coordinates":[134.04746,34.28208]},"properties":{"Name":"わき外・内科クリニック","Jusho":"香川県高松市仏生山町甲460番地8","kouzui":"087-888-5123","gake":"https://wakigeka.com/","takashio":"〇","jishin":"〇","tsunami":"外科内科消化器科呼吸器内科肛門科皮膚泌尿器科","kaji":"","naisui":"","kazan":""}}
,{"type":"Feature","geometry":{"type":"Point","coordinates":[134.04449,34.2829]},"properties":{"Name":"福田眼科医院","Jusho":"香川県高松市仏生山町甲344-3","kouzui":"087-889-5633","gake":"https://fukuda-gankaiin.com/","takashio":"×","jishin":"〇","tsunami":"眼科","kaji":"","naisui":"","kazan":""}}
,{"type":"Feature","geometry":{"type":"Point","coordinates":[134.04044,34.28275]},"properties":{"Name":"高松市立みんなの病院","Jusho":"香川県高松市仏生山町甲847-1","kouzui":"087-813-7171","gake":"http://www.takamatsu-municipal-hospital.jp/","takashio":"×","jishin":"〇","tsunami":"各診療科","kaji":"","naisui":"","kazan":""}}
,{"type":"Feature","geometry":{"type":"Point","coordinates":[133.963,34.29842]},"properties":{"Name":"上原耳鼻咽喉科医院","Jusho":"香川県高松市国分寺町新居1362","kouzui":"087-874-4133","gake":"","takashio":"×","jishin":"〇","tsunami":"耳鼻咽喉科","kaji":"","naisui":"","kazan":""}}
,{"type":"Feature","geometry":{"type":"Point","coordinates":[133.97424,34.30827]},"properties":{"Name":"山田医院","Jusho":"高松市国分寺町新居3388","kouzui":"087-874-0040","gake":"","takashio":"×","jishin":"〇","tsunami":"内科","kaji":"高松市立みんなの病院（香川県高松市仏生山町甲847番地1）香川県立中央病院（香川県高松市朝日町1丁目2-1）","naisui":"","kazan":""}}
,{"type":"Feature","geometry":{"type":"Point","coordinates":[133.96359,34.2863]},"properties":{"Name":"綾こどもクリニック","Jusho":"香川県高松市国分寺町福家甲3171番地4","kouzui":"087-875-2220","gake":"","takashio":"〇","jishin":"〇","tsunami":"小児科","kaji":"","naisui":"","kazan":""}}
,{"type":"Feature","geometry":{"type":"Point","coordinates":[133.96356,34.28511]},"properties":{"Name":"安田内科","Jusho":"香川県高松市国分寺町福家甲3091-4","kouzui":"087-875-2525","gake":"http://www.yasudanaika.jp","takashio":"〇","jishin":"〇","tsunami":"内科消化器内科","kaji":"滝宮総合病院（香川県綾歌郡綾川町滝宮486）高松市立みんなの病院（香川県高松市仏生山町甲847番地1）ＫＫＲ高松病院（香川県高松市天神前4-18）香川県済生会病院（香川県高松市多肥上町1331-1）","naisui":"","kazan":""}}
,{"type":"Feature","geometry":{"type":"Point","coordinates":[133.96245,34.29332]},"properties":{"Name":"こくぶ脳外科・内科クリニック","Jusho":"香川県高松市国分寺町福家甲3812-1","kouzui":"087-875-2255","gake":"http://www.kokubu-clinic.jp/","takashio":"〇","jishin":"〇","tsunami":"内科（風邪のみ）","kaji":"","naisui":"","kazan":""}}
,{"type":"Feature","geometry":{"type":"Point","coordinates":[133.86429,34.22151]},"properties":{"Name":"くすはら整形外科・外科医院","Jusho":"香川県丸亀市綾歌町岡田東2269-7","kouzui":"0877-86-2340","gake":"","takashio":"×","jishin":"〇","tsunami":"整形外科","kaji":"","naisui":"","kazan":""}}
,{"type":"Feature","geometry":{"type":"Point","coordinates":[133.88229,34.23512]},"properties":{"Name":"和田内科医院","Jusho":"香川県丸亀市綾歌町栗熊東506番地","kouzui":"0877-86-6161","gake":"","takashio":"×","jishin":"〇","tsunami":"内科","kaji":"滝宮総合病院（香川県綾歌郡綾川町滝宮486）回生病院（香川県坂出市室町3丁目5-28）","naisui":"","kazan":""}}
,{"type":"Feature","geometry":{"type":"Point","coordinates":[133.85558,34.26651]},"properties":{"Name":"杢保小児科医院","Jusho":"香川県丸亀市飯山町川原972-1","kouzui":"0877-98-2010","gake":"https://www.mokubo.jp/","takashio":"〇","jishin":"〇","tsunami":"小児科アレルギー科","kaji":"","naisui":"","kazan":""}}
,{"type":"Feature","geometry":{"type":"Point","coordinates":[133.79611,34.29251]},"properties":{"Name":"吉田病院","Jusho":"香川県丸亀市宗古町5","kouzui":"0877-22-8101","gake":"","takashio":"×","jishin":"△","tsunami":"内科","kaji":"","naisui":"","kazan":""}}
,{"type":"Feature","geometry":{"type":"Point","coordinates":[133.79691,34.28777]},"properties":{"Name":"サンテ・ペアーレクリニック","Jusho":"香川県丸亀市大手町3-3-21","kouzui":"0877-23-8700","gake":"","takashio":"〇","jishin":"〇","tsunami":"内科","kaji":"","naisui":"","kazan":""}}
,{"type":"Feature","geometry":{"type":"Point","coordinates":[133.79213,34.29218]},"properties":{"Name":"丸亀おのクリニック","Jusho":"香川県丸亀市新町2-13","kouzui":"0877-22-3902","gake":"http://www.ono-clinic.or.jp","takashio":"〇","jishin":"〇","tsunami":"内科","kaji":"香川労災病院（香川県丸亀市城東町3-3-1）","naisui":"","kazan":""}}
,{"type":"Feature","geometry":{"type":"Point","coordinates":[133.78947,34.28777]},"properties":{"Name":"田村クリニック","Jusho":"香川県丸亀市幸町1-5-5","kouzui":"0877-22-8391","gake":"https://www.tamura-clin.com/","takashio":"〇","jishin":"〇","tsunami":"内科","kaji":"香川労災病院（香川県丸亀市城東町3-3-1）回生病院（香川県坂出市室町3丁目5-28）","naisui":"","kazan":""}}
,{"type":"Feature","geometry":{"type":"Point","coordinates":[133.78546,34.28992]},"properties":{"Name":"辻松外科内科医院","Jusho":"香川県丸亀市塩屋町1-12-24","kouzui":"0877-22-6718","gake":"","takashio":"〇","jishin":"〇","tsunami":"内科","kaji":"香川労災病院（香川県丸亀市城東町3-3-1）四国こどもとおとなの医療センター（香川県善通寺市仙遊町2丁目1-1）","naisui":"","kazan":""}}
,{"type":"Feature","geometry":{"type":"Point","coordinates":[133.7771,34.28318]},"properties":{"Name":"川井整形外科クリニック","Jusho":"香川県丸亀市天満町1-12-12","kouzui":"0877-23-4010","gake":"https://www.kawaiseikei.jp/","takashio":"〇","jishin":"〇","tsunami":"整形外科","kaji":"坂出市立病院（香川県坂出市寿町3-1-2）","naisui":"","kazan":""}}
,{"type":"Feature","geometry":{"type":"Point","coordinates":[133.78629,34.25528]},"properties":{"Name":"武岡皮膚科クリニック","Jusho":"香川県丸亀市原田町1633-1","kouzui":"0877-25-1880","gake":"https://takeoka-clinic.com/","takashio":"×","jishin":"〇","tsunami":"皮膚科","kaji":"香川労災病院（香川県丸亀市城東町3-3-1）高松赤十字病院（香川県高松市番町4丁目1-3）","naisui":"","kazan":""}}
,{"type":"Feature","geometry":{"type":"Point","coordinates":[133.8027,34.2716]},"properties":{"Name":"岸本医院","Jusho":"香川県丸亀市柞原町487","kouzui":"0877-22-5629","gake":"http://kishimoto-1.byoinnavi.jp","takashio":"×","jishin":"〇","tsunami":"内科","kaji":"","naisui":"","kazan":""}}
,{"type":"Feature","geometry":{"type":"Point","coordinates":[133.80577,34.27311]},"properties":{"Name":"はやしクリニック","Jusho":"香川県丸亀市柞原町633-1","kouzui":"0877-23-5115","gake":"","takashio":"×","jishin":"〇","tsunami":"内科糖尿病内科内分泌内科","kaji":"","naisui":"","kazan":""}}
,{"type":"Feature","geometry":{"type":"Point","coordinates":[133.81624,34.29143]},"properties":{"Name":"もりもとこどもクリニック","Jusho":"香川県丸亀市土器町東4-713-5","kouzui":"0877-25-9228","gake":"http://morimoto-kodomo-clinic.com/","takashio":"×","jishin":"〇","tsunami":"小児科","kaji":"","naisui":"","kazan":""}}
,{"type":"Feature","geometry":{"type":"Point","coordinates":[134.02718,34.3488]},"properties":{"Name":"永井小児科医院","Jusho":"香川県高松市茜町2-20","kouzui":"087-862-2920","gake":"https://park.paa.jp/park2/clinics/2313/","takashio":"〇","jishin":"〇","tsunami":"小児科","kaji":"","naisui":"","kazan":""}}
,{"type":"Feature","geometry":{"type":"Point","coordinates":[133.81403,34.25296]},"properties":{"Name":"岩本病院","Jusho":"香川県丸亀市郡家町2486-5","kouzui":"0877-28-6311","gake":"http://www.k-ih.com/","takashio":"×","jishin":"〇","tsunami":"内科","kaji":"香川労災病院（香川県丸亀市城東町3-3-1）","naisui":"","kazan":""}}
,{"type":"Feature","geometry":{"type":"Point","coordinates":[133.80547,34.28828]},"properties":{"Name":"香川労災病院","Jusho":"香川県丸亀市城東町3丁目3番1号","kouzui":"0877-23-3111","gake":"http://www.kagawah.johas.go.jp","takashio":"×","jishin":"△","tsunami":"内科、循環器内科、外科、胆管膵外科、整形外科、形成・再建外科、脳外科、脊髄神経外科、皮膚科、泌尿器科、産婦人科、眼科、耳鼻科、リハ科、歯科口腔外科","kaji":"","naisui":"","kazan":""}}
,{"type":"Feature","geometry":{"type":"Point","coordinates":[133.86699,34.31824]},"properties":{"Name":"香川成人医学研究所附属診療所ウェルクリニック","Jusho":"香川県坂出市横津町3丁目2番31号","kouzui":"0877-45-2312","gake":"https://www.kagawa-seijin.or.jp/clinic","takashio":"×","jishin":"〇","tsunami":"内科","kaji":"回生病院（香川県坂出市室町3丁目5-28）香川県立中央病院（香川県高松市朝日町1丁目2-1）等","naisui":"","kazan":""}}
,{"type":"Feature","geometry":{"type":"Point","coordinates":[133.86082,34.31541]},"properties":{"Name":"聖母眼科医院","Jusho":"香川県坂出市室町2-1-39","kouzui":"0877-46-4481","gake":"http://www.web-santamaria.com","takashio":"×","jishin":"〇","tsunami":"眼科","kaji":"","naisui":"","kazan":""}}
,{"type":"Feature","geometry":{"type":"Point","coordinates":[133.91272,34.31075]},"properties":{"Name":"こころの医療センター五色台","Jusho":"香川県坂出市加茂町963","kouzui":"0877-48-2700","gake":"http://www.goshikidai.or.jp","takashio":"×","jishin":"〇","tsunami":"精神科心療内科","kaji":"","naisui":"","kazan":""}}
,{"type":"Feature","geometry":{"type":"Point","coordinates":[133.85173,34.29376]},"properties":{"Name":"堀口医院","Jusho":"香川県坂出市川津町3329番地14","kouzui":"0877-45-8686","gake":"http://www.horiguchi-hp.jp/","takashio":"×","jishin":"〇","tsunami":"内科リハビリテーション科","kaji":"","naisui":"","kazan":""}}
,{"type":"Feature","geometry":{"type":"Point","coordinates":[133.85548,34.28783]},"properties":{"Name":"永井整形外科医院","Jusho":"香川県坂出市川津町2730","kouzui":"0877-45-1177","gake":"http://www.nagai-group.com","takashio":"〇","jishin":"〇","tsunami":"整形外科","kaji":"坂出市立病院（香川県坂出市寿町3-1-2）回生病院（香川県坂出市室町3-5-28）","naisui":"","kazan":""}}
,{"type":"Feature","geometry":{"type":"Point","coordinates":[133.85812,34.31232]},"properties":{"Name":"うちだ小児科医院","Jusho":"香川県坂出市駒止町1丁目4-30","kouzui":"0877-46-2622","gake":"","takashio":"×","jishin":"〇","tsunami":"小児科","kaji":"坂出市立病院（香川県坂出市寿町3-1-2）","naisui":"","kazan":""}}
,{"type":"Feature","geometry":{"type":"Point","coordinates":[133.85666,34.31158]},"properties":{"Name":"坂出メンタルクリニック","Jusho":"香川県坂出市駒止町1丁目3番5号","kouzui":"0877-45-7672","gake":"http://www.goshikidai.or.jp/","takashio":"×","jishin":"〇","tsunami":"心療内科精神科","kaji":"","naisui":"","kazan":""}}
,{"type":"Feature","geometry":{"type":"Point","coordinates":[133.8555672,34.309232]},"properties":{"Name":"佐藤医院","Jusho":"香川県坂出町駒止2-1-38","kouzui":"0877-46-3387","gake":"http://www.sato-c.or.jp","takashio":"〇","jishin":"〇","tsunami":"内科","kaji":"坂出市立病院（香川県坂出市寿町3-1-2）","naisui":"","kazan":""}}
,{"type":"Feature","geometry":{"type":"Point","coordinates":[133.85666,34.31158]},"properties":{"Name":"みのりクリニック","Jusho":"香川県坂出市駒止町一丁目3-5ライフスクエア坂出1階","kouzui":"0877-59-0082","gake":"https://www.minori-clinic.jp/","takashio":"〇","jishin":"〇","tsunami":"内科脳神経外科","kaji":"なかの循環器内科クリニック（香川県坂出市林田町875-5）はしもとレディースクリニック（香川県綾歌郡宇多津町浜九番丁141番地1）","naisui":"","kazan":""}}
,{"type":"Feature","geometry":{"type":"Point","coordinates":[133.85686,34.30743]},"properties":{"Name":"国重まこと医院","Jusho":"香川県坂出市笠指町4番28号","kouzui":"0877-46-5501","gake":"https://www.kunishigemakotoclinic.jp/","takashio":"〇","jishin":"〇","tsunami":"内科小児科","kaji":"","naisui":"","kazan":""}}
,{"type":"Feature","geometry":{"type":"Point","coordinates":[133.85582,34.31469]},"properties":{"Name":"高尾医院","Jusho":"香川県坂出市元町1-10-5","kouzui":"0877-46-5111","gake":"","takashio":"×","jishin":"〇","tsunami":"泌尿器科腎臓内科外科整形外科皮膚科","kaji":"坂出市立病院（香川県坂出市寿町3-1-2）回生病院（香川県坂出市室町3丁目5-28）","naisui":"","kazan":""}}
,{"type":"Feature","geometry":{"type":"Point","coordinates":[133.77385,34.23801]},"properties":{"Name":"岩野循環器内科医院","Jusho":"香川県善通寺市下吉田町229-1","kouzui":"0877-63-7000","gake":"","takashio":"〇","jishin":"〇","tsunami":"循環器科内科","kaji":"四国こどもとおとなの医療センター（香川県善通寺市仙遊町2丁目1-1）香川労災病院（香川県丸亀市城東町3-3-1）回生病院（香川県坂出市室町3丁目5-28）","naisui":"","kazan":""}}
,{"type":"Feature","geometry":{"type":"Point","coordinates":[133.78782,34.25382]},"properties":{"Name":"アイシークリニック","Jusho":"香川県善通寺市原田町1494-1","kouzui":"0877-62-0118","gake":"","takashio":"×","jishin":"〇","tsunami":"内科","kaji":"","naisui":"","kazan":""}}
,{"type":"Feature","geometry":{"type":"Point","coordinates":[133.79982,34.2436]},"properties":{"Name":"にしかわクリニック","Jusho":"香川県善通寺市木徳町1073-6","kouzui":"0877-63-6500","gake":"http://www.kirakira.ne.jp/~nskwclnc/","takashio":"〇","jishin":"〇","tsunami":"小児科呼吸器科アレルギー科","kaji":"四国こどもとおとなの医療センター（香川県善通寺市仙遊町2丁目1-1）香川労災病院（香川県丸亀市城東町3-3-1）","naisui":"","kazan":""}}
,{"type":"Feature","geometry":{"type":"Point","coordinates":[133.6925,34.13251]},"properties":{"Name":"三野小児科医院","Jusho":"香川県観音寺市吉岡町10-1","kouzui":"0875-25-7788","gake":"","takashio":"〇","jishin":"〇","tsunami":"小児科","kaji":"三豊総合病院（香川県観音寺市豊浜町姫浜708）","naisui":"","kazan":""}}
,{"type":"Feature","geometry":{"type":"Point","coordinates":[133.66502,34.11941]},"properties":{"Name":"おざきこどもクリニック","Jusho":"香川県観音寺市柞田町甲880番地2","kouzui":"0875-24-6789","gake":"http://park.paa.jp/park2/clinics/1221/businesses/01","takashio":"〇","jishin":"〇","tsunami":"小児科","kaji":"三豊総合病院（香川県観音寺市豊浜町姫浜804）","naisui":"","kazan":""}}
,{"type":"Feature","geometry":{"type":"Point","coordinates":[133.65625,34.13292]},"properties":{"Name":"もりの木おおにしクリニック","Jusho":"香川県観音寺市茂西町一丁目6番3号","kouzui":"0875-25-3291","gake":"","takashio":"×","jishin":"〇","tsunami":"内科整形外科婦人科","kaji":"三豊総合病院（香川県観音寺市豊浜町姫浜804）","naisui":"","kazan":""}}
,{"type":"Feature","geometry":{"type":"Point","coordinates":[133.64248,34.08131]},"properties":{"Name":"よねいクリニック","Jusho":"香川県観音寺市豊浜町姫浜703","kouzui":"0875‐52‐3800","gake":"http://www.yonei-cl.com/","takashio":"×","jishin":"〇","tsunami":"内科糖尿病内科","kaji":"三豊総合病院（香川県観音寺市豊浜町姫浜804）","naisui":"","kazan":""}}
,{"type":"Feature","geometry":{"type":"Point","coordinates":[133.63834,34.07978]},"properties":{"Name":"業天医院","Jusho":"香川県観音寺市豊浜町姫浜280番地12","kouzui":"0875-52-3636","gake":"","takashio":"×","jishin":"〇","tsunami":"内科","kaji":"","naisui":"","kazan":""}}
,{"type":"Feature","geometry":{"type":"Point","coordinates":[133.64675,34.09702]},"properties":{"Name":"香川井下病院","Jusho":"香川県観音寺市大野原町花稲818番地1","kouzui":"0875-52-2215","gake":"http://www.kagawa-inoshita-hospital.or.jp/","takashio":"△","jishin":"〇","tsunami":"内科、産婦人科、外科、整形外科、小児科、耳鼻咽喉科、眼科、泌尿器科、皮膚科、","kaji":"三豊総合病院（香川県観音寺市豊浜町姫浜804）","naisui":"","kazan":""}}
,{"type":"Feature","geometry":{"type":"Point","coordinates":[133.67685,34.07169]},"properties":{"Name":"門脇医院","Jusho":"香川県観音寺市大野原町萩原1286","kouzui":"0875-54-2011","gake":"","takashio":"〇","jishin":"〇","tsunami":"内科脳神経内科","kaji":"三豊総合病院（香川県観音寺市豊浜町姫浜804）","naisui":"","kazan":""}}
,{"type":"Feature","geometry":{"type":"Point","coordinates":[133.63993,34.08361]},"properties":{"Name":"三豊総合病院","Jusho":"香川県観音寺市豊浜町姫浜804","kouzui":"0875-52-3366","gake":"http://mitoyo-hosp.jp/","takashio":"×","jishin":"〇","tsunami":"","kaji":"","naisui":"","kazan":""}}
,{"type":"Feature","geometry":{"type":"Point","coordinates":[134.17241,34.3188]},"properties":{"Name":"図子メンタルクリニック","Jusho":"香川県さぬき市志度2383-1","kouzui":"087-870-2355","gake":"http://www.zushi-mc.jp/","takashio":"×","jishin":"〇","tsunami":"精神科","kaji":"","naisui":"","kazan":""}}
,{"type":"Feature","geometry":{"type":"Point","coordinates":[134.22171,34.33518]},"properties":{"Name":"ひもりの里診療所","Jusho":"香川県さぬき市鴨庄4481-2","kouzui":"087-890-1055","gake":"","takashio":"×","jishin":"〇","tsunami":"内科","kaji":"さぬき市民病院（香川県さぬき市寒川町石田東甲387-1）","naisui":"","kazan":""}}
,{"type":"Feature","geometry":{"type":"Point","coordinates":[134.17656,34.26126]},"properties":{"Name":"田中小児科","Jusho":"香川県さぬき市長尾名10-1","kouzui":"0879-52-0010","gake":"https://itp.ne.jp/info/378721155400000899/","takashio":"〇","jishin":"〇","tsunami":"小児科内科","kaji":"さぬき市民病院（さぬき市寒川町石田甲387-1）香川大学医学部附属病院（木田郡三木町池戸1950-1）","naisui":"","kazan":""}}
,{"type":"Feature","geometry":{"type":"Point","coordinates":[134.16759,34.26463]},"properties":{"Name":"大石整形外科医院","Jusho":"香川県さぬき市昭和3322","kouzui":"0879-52-2107","gake":"http://www.o-chan.gr.jp","takashio":"〇","jishin":"〇","tsunami":"整形外科","kaji":"さぬき市民病院（香川県さぬき市寒川町石田東甲387-1）高松市立みんなの病院（香川県高松市仏生山町甲847番地1）","naisui":"","kazan":""}}
,{"type":"Feature","geometry":{"type":"Point","coordinates":[134.20166,34.26735]},"properties":{"Name":"さぬき市民病院","Jusho":"香川県さぬき市寒川町石田東甲387番地1","kouzui":"0879-43-2521","gake":"https://www.city.sanuki.kagawa.jp/hospital/","takashio":"×","jishin":"〇","tsunami":"内科、内科、精神科・心療内科脳神経外科、泌尿器科、眼科、耳鼻咽喉科","kaji":"","naisui":"","kazan":""}}
,{"type":"Feature","geometry":{"type":"Point","coordinates":[134.26135,34.28175]},"properties":{"Name":"つるわクリニック","Jusho":"香川県さぬき市津田町鶴羽570-1","kouzui":"0879-42-0170","gake":"","takashio":"×","jishin":"〇","tsunami":"内科外科","kaji":"","naisui":"","kazan":""}}
,{"type":"Feature","geometry":{"type":"Point","coordinates":[134.30659,34.25188]},"properties":{"Name":"三好医院","Jusho":"香川県東かがわ市大谷813-1","kouzui":"0879-25-3503","gake":"http://www.myclinic.ne.jp/miyoshi_clin/pc/clinic.html","takashio":"×","jishin":"〇","tsunami":"内科小児科","kaji":"高松赤十字病院（香川県高松市番町4丁目1-3）杢保小児科医院（香川県丸亀市飯山町川原972-1）","naisui":"","kazan":""}}
,{"type":"Feature","geometry":{"type":"Point","coordinates":[134.33984,34.25203]},"properties":{"Name":"田村内科医院","Jusho":"香川県東かがわ市三本松353","kouzui":"0879-25-2868","gake":"","takashio":"×","jishin":"〇","tsunami":"内科","kaji":"香川県立白鳥病院（東かがわ市松原963）さぬき市民病院（さぬき市寒川町石田甲387-1）","naisui":"","kazan":""}}
,{"type":"Feature","geometry":{"type":"Point","coordinates":[134.34723,34.247]},"properties":{"Name":"鎌田医院","Jusho":"香川県東かがわ市湊704番地","kouzui":"0879-25-2519","gake":"","takashio":"〇","jishin":"〇","tsunami":"内科","kaji":"ぬき市民病院（香川県さぬき市寒川町石田東甲387-","naisui":"","kazan":""}}
,{"type":"Feature","geometry":{"type":"Point","coordinates":[134.35667,34.2427]},"properties":{"Name":"宇田整形外科医院","Jusho":"香川県東かがわ市白鳥96-1","kouzui":"0879-25-4328","gake":"http://www.uda-seikei.com/","takashio":"〇","jishin":"〇","tsunami":"整形外科","kaji":"","naisui":"","kazan":""}}
,{"type":"Feature","geometry":{"type":"Point","coordinates":[134.4068,34.22011]},"properties":{"Name":"みさごクリニック","Jusho":"香川県東かがわ市引田202-1","kouzui":"0879-33-3900","gake":"","takashio":"〇","jishin":"〇","tsunami":"内科外科","kaji":"","naisui":"","kazan":""}}
,{"type":"Feature","geometry":{"type":"Point","coordinates":[134.41695,34.21679]},"properties":{"Name":"古川医院","Jusho":"香川県東かがわ市馬宿216-1","kouzui":"0879-33-7300","gake":"","takashio":"〇","jishin":"〇","tsunami":"内科","kaji":"","naisui":"","kazan":""}}
,{"type":"Feature","geometry":{"type":"Point","coordinates":[133.66525,34.22715]},"properties":{"Name":"小野医院","Jusho":"香川県三豊市詫間町詫間6815番地5","kouzui":"0875-83-8181","gake":"","takashio":"×","jishin":"〇","tsunami":"外科内科","kaji":"三豊総合病院（香川県観音寺市豊浜町姫浜804）","naisui":"","kazan":""}}
,{"type":"Feature","geometry":{"type":"Point","coordinates":[134.04045,34.3436]},"properties":{"Name":"高松にれクリニック","Jusho":"香川県高松市番町2-10-6","kouzui":"087-851-1117","gake":"","takashio":"×","jishin":"〇","tsunami":"内科泌尿器科","kaji":"","naisui":"","kazan":""}}
,{"type":"Feature","geometry":{"type":"Point","coordinates":[133.67035,34.21631]},"properties":{"Name":"三豊市立永康病院","Jusho":"香川県三豊市詫間町詫間1298番地2","kouzui":"0875-83-3001","gake":"https://eiko-hosp.sun-age.or.jp/","takashio":"×","jishin":"〇","tsunami":"内科精神科整形外科","kaji":"","naisui":"","kazan":""}}
,{"type":"Feature","geometry":{"type":"Point","coordinates":[133.65358,34.2334]},"properties":{"Name":"村上医院","Jusho":"香川県三豊市詫間町宅間5488","kouzui":"0875-83-2006","gake":"","takashio":"×","jishin":"〇","tsunami":"内科","kaji":"","naisui":"","kazan":""}}
,{"type":"Feature","geometry":{"type":"Point","coordinates":[133.6953,34.21742]},"properties":{"Name":"みずた内科","Jusho":"香川県三豊市詫間町松崎301","kouzui":"0875-83-7218","gake":"","takashio":"〇","jishin":"〇","tsunami":"内科","kaji":"三豊総合病院（香川県観音寺市豊浜町姫浜804）","naisui":"","kazan":""}}
,{"type":"Feature","geometry":{"type":"Point","coordinates":[133.69183,34.22154]},"properties":{"Name":"細川病院","Jusho":"香川県三豊市詫間町松崎1639-1","kouzui":"0875-83-2211","gake":"","takashio":"〇","jishin":"〇","tsunami":"外科内科整形外科","kaji":"","naisui":"","kazan":""}}
,{"type":"Feature","geometry":{"type":"Point","coordinates":[133.68793,34.22021]},"properties":{"Name":"岩崎病院","Jusho":"香川県三豊市詫間町松崎2780-426","kouzui":"0875-83-6011","gake":"http://www.iwasaki-hp.or.jp","takashio":"×","jishin":"〇","tsunami":"内科、循環器科、泌尿器科、整形外科、外科、呼吸器科、消化器科","kaji":"四国こどもとおとなの医療センター（香川県善通寺市仙遊町2丁目1-1）坂出市立病院（香川県坂出市寿町3-1-2）香川労災病院（香川県丸亀市城東町3-3-1）三豊総合病院（香川県観音寺市豊浜町姫浜804）香川大学医学部附属病院（香川県木田郡三木町池戸1950-1）","naisui":"","kazan":""}}
,{"type":"Feature","geometry":{"type":"Point","coordinates":[133.7007,34.14597]},"properties":{"Name":"まるお眼科","Jusho":"香川県三豊市豊中町上高野3923-3","kouzui":"0875-62-1736","gake":"","takashio":"×","jishin":"〇","tsunami":"眼科","kaji":"","naisui":"","kazan":""}}
,{"type":"Feature","geometry":{"type":"Point","coordinates":[133.70126,34.14372]},"properties":{"Name":"上枝循環器内科クリニック","Jusho":"香川県三豊市豊中町上高野1906-3","kouzui":"0875-23-7010","gake":"https://www.ueedaclinic.com/","takashio":"×","jishin":"△","tsunami":"内科循環器科","kaji":"三豊総合病院（香川県観音寺市豊浜町姫浜708）","naisui":"","kazan":""}}
,{"type":"Feature","geometry":{"type":"Point","coordinates":[134.23414,34.48245]},"properties":{"Name":"小豆島中央病院","Jusho":"香川県小豆郡小豆島町池田2060-1","kouzui":"0879-75-1121","gake":"","takashio":"×","jishin":"〇","tsunami":"内科外科小児科整形外科眼科泌尿器科耳鼻咽喉科皮膚科人工透析内科","kaji":"","naisui":"","kazan":""}}
,{"type":"Feature","geometry":{"type":"Point","coordinates":[134.27377,34.47286]},"properties":{"Name":"もり内科","Jusho":"香川県小豆郡小豆島町西村甲1468-1","kouzui":"0879-82-0075","gake":"","takashio":"×","jishin":"〇","tsunami":"内科","kaji":"小豆島中央病院（小豆郡小豆島町池田2060-1）","naisui":"","kazan":""}}
,{"type":"Feature","geometry":{"type":"Point","coordinates":[134.132,34.26885]},"properties":{"Name":"小西医院","Jusho":"香川県木田郡三木町氷上221-1","kouzui":"087-898-0157","gake":"https://www.konishi-iin.jp","takashio":"△","jishin":"〇","tsunami":"内科耳鼻咽喉科","kaji":"香川大学医学部附属病院（香川県木田郡三木町池戸1750-1）高松市立みんなの病院（香川県高松市仏生山町甲847番地1）","naisui":"","kazan":""}}
,{"type":"Feature","geometry":{"type":"Point","coordinates":[134.132,34.26885]},"properties":{"Name":"すくすくクリニックこにし","Jusho":"香川県木田郡三木町氷上206-1","kouzui":"087-813-7876","gake":"https://www.sukusuku-ck.jp/","takashio":"〇","jishin":"〇","tsunami":"小児科","kaji":"","naisui":"","kazan":""}}
,{"type":"Feature","geometry":{"type":"Point","coordinates":[134.14859,34.26149]},"properties":{"Name":"きただい医院","Jusho":"香川県木田郡三木町下高岡1464-12","kouzui":"087-840-2566","gake":"","takashio":"×","jishin":"〇","tsunami":"内科","kaji":"","naisui":"","kazan":""}}
,{"type":"Feature","geometry":{"type":"Point","coordinates":[133.81052,34.30415]},"properties":{"Name":"宇多津病院","Jusho":"香川県綾歌郡宇多津町浜五番丁66-1","kouzui":"0877-56-7777","gake":"http://www.utz.or.jp/","takashio":"×","jishin":"〇","tsunami":"内科整形外科","kaji":"","naisui":"","kazan":""}}
,{"type":"Feature","geometry":{"type":"Point","coordinates":[133.81279,34.30277]},"properties":{"Name":"松浦こどもメンタルクリニック","Jusho":"香川県綾歌郡宇多津町浜六番丁76-12","kouzui":"0877-56-7858","gake":"https://www.matsuura-kodomo-mental.jp/","takashio":"×","jishin":"〇","tsunami":"精神科","kaji":"四国こどもとおとなの医療センター（香川県善通寺市仙遊町2丁目1-1）","naisui":"","kazan":""}}
,{"type":"Feature","geometry":{"type":"Point","coordinates":[133.93077,34.2518]},"properties":{"Name":"あやがわ眼科","Jusho":"香川県綾歌郡綾川町萱原822-1イオンモール2Ｆ","kouzui":"087-870-8618","gake":"https://www.kagawa-ayagawaganka.com","takashio":"×","jishin":"〇","tsunami":"眼科","kaji":"","naisui":"","kazan":""}}
,{"type":"Feature","geometry":{"type":"Point","coordinates":[133.82767,34.18984]},"properties":{"Name":"やまもと耳鼻咽喉科","Jusho":"香川県仲多度郡琴平町五條636-3","kouzui":"0877-75-4133","gake":"https://yamamotojibika.com","takashio":"×","jishin":"〇","tsunami":"耳鼻咽喉科","kaji":"香川労災病院（香川県丸亀市城東町3-3-1）香川県立中央病院（香川県高松市朝日町1丁目2-1）","naisui":"","kazan":""}}
,{"type":"Feature","geometry":{"type":"Point","coordinates":[133.76743,34.26097]},"properties":{"Name":"中野小児科医院","Jusho":"香川県仲多度郡多度津町道福寺13-5","kouzui":"0877-32-4532","gake":"","takashio":"〇","jishin":"〇","tsunami":"小児科","kaji":"自院四国こどもとおとなの医療センター（香川県善通寺市仙遊町2丁目1-1）","naisui":"","kazan":""}}
,{"type":"Feature","geometry":{"type":"Point","coordinates":[133.74948,34.2671]},"properties":{"Name":"桃陵クリニック","Jusho":"香川県仲多度郡多度津町本通2丁目3番28号","kouzui":"0877-58-5588","gake":"","takashio":"〇","jishin":"〇","tsunami":"脳神経外科","kaji":"","naisui":"","kazan":""}}
,{"type":"Feature","geometry":{"type":"Point","coordinates":[133.7601,34.274]},"properties":{"Name":"嶋田耳鼻咽喉科医院","Jusho":"香川県仲多度郡多度津町幸町2-25","kouzui":"0877-32-8711","gake":"","takashio":"×","jishin":"〇","tsunami":"耳鼻咽喉科アレルギー科","kaji":"香川労災病院（香川県丸亀市城東町3-3-1）四国こどもとおとなの医療センター（香川県善通寺市仙遊町2丁目1-1）","naisui":"","kazan":""}}
,{"type":"Feature","geometry":{"type":"Point","coordinates":[133.88055,34.17955]},"properties":{"Name":"川口医院","Jusho":"香川県仲多度郡まんのう町炭所西1528番地1","kouzui":"0877-79-0711","gake":"","takashio":"〇","jishin":"〇","tsunami":"内科外科診療内科","kaji":"香川労災病院（香川県丸亀市城東町3-3-1）四国こどもとおとなの医療センター（香川県善通寺市仙遊町2丁目1-1）","naisui":"","kazan":""}}
,{"type":"Feature","geometry":{"type":"Point","coordinates":[133.83713,34.19533]},"properties":{"Name":"小国医院","Jusho":"香川県仲多度郡まんのう町四條777番地","kouzui":"0877-75-2317","gake":"http://www.oguni.or.jp/","takashio":"〇","jishin":"〇","tsunami":"内科小児科","kaji":"","naisui":"","kazan":""}}
,{"type":"Feature","geometry":{"type":"Point","coordinates":[133.8607,34.17847]},"properties":{"Name":"大山内科医院","Jusho":"香川県仲多度郡まんのう町吉野1572-1","kouzui":"0877-79-3311","gake":"","takashio":"×","jishin":"〇","tsunami":"内科","kaji":"","naisui":"","kazan":""}}
,{"type":"Feature","geometry":{"type":"Point","coordinates":[133.92439,34.16468]},"properties":{"Name":"まんのう町造田診療所","Jusho":"香川県仲多度郡まんのう町造田1974-1","kouzui":"0877-85-2318","gake":"","takashio":"〇","jishin":"〇","tsunami":"内科","kaji":"","naisui":"","kazan":""}}
,{"type":"Feature","geometry":{"type":"Point","coordinates":[133.97746,34.11119]},"properties":{"Name":"まんのう町立美合診療所","Jusho":"香川県仲多度郡まんのう町川東1493","kouzui":"0877-84-2411","gake":"","takashio":"〇","jishin":"〇","tsunami":"内科","kaji":"","naisui":"","kazan":""}}
]};