var kagoshima={"type":"FeatureCollection","name":"kagoshima","features":[
{"type":"Feature","geometry":{"type":"Point","coordinates":[130.53392,31.61072]},"properties":{"Name":"医療法人一会中野内科医院","Jusho":"鹿児島県鹿児島市下伊敷1丁目5番1号","kouzui":"099-223-3312","gake":"http://www.nakano-naika.com","takashio":"×","jishin":"〇","tsunami":"循環器内科","kaji":"","naisui":"","kazan":""}}
,{"type":"Feature","geometry":{"type":"Point","coordinates":[130.53482,31.6089]},"properties":{"Name":"玉水会病院","Jusho":"鹿児島県鹿児島市下伊敷1丁目1番5号","kouzui":"099-223-3330","gake":"http://www.nakae-group.com","takashio":"×","jishin":"〇","tsunami":"内科循環器科消化器科","kaji":"","naisui":"","kazan":""}}
,{"type":"Feature","geometry":{"type":"Point","coordinates":[130.52766,31.62712]},"properties":{"Name":"外山内科クリニック","Jusho":"鹿児島県鹿児島市伊敷5丁目19-25","kouzui":"099-229-2519","gake":"http://www.kagoshima-med.jp/toyama/","takashio":"×","jishin":"〇","tsunami":"内科","kaji":"鹿児島市医師会病院（鹿児島県鹿児島市鴨池新町7-1）","naisui":"","kazan":""}}
,{"type":"Feature","geometry":{"type":"Point","coordinates":[130.52345,31.62792]},"properties":{"Name":"上片平産婦人科内科","Jusho":"鹿児島市伊敷7丁目8-15","kouzui":"099-220-0381","gake":"http://kamikatahira-lc.webmedipr.jp/","takashio":"×","jishin":"〇","tsunami":"産婦人科内科","kaji":"鹿児島市立病院（鹿児島市上荒田37-1）","naisui":"","kazan":""}}
,{"type":"Feature","geometry":{"type":"Point","coordinates":[130.53925,31.60198]},"properties":{"Name":"医療法人康成会植村病院","Jusho":"鹿児島県鹿児島市草牟田一丁目4番7号","kouzui":"099-222-6925","gake":"http://www.koseikai-uemura.jp","takashio":"×","jishin":"〇","tsunami":"内科","kaji":"鹿児島市医師会病院（市内鴨池新町7-1）鹿児島市夜間急病センター（市内鴨池2-22-18）","naisui":"","kazan":""}}
,{"type":"Feature","geometry":{"type":"Point","coordinates":[130.53419,31.60012]},"properties":{"Name":"メンタルホスピタル鹿児島","Jusho":"鹿児島市永吉1丁目11-1","kouzui":"099-256-4567","gake":"https://mh-kagoshima.jp/","takashio":"×","jishin":"〇","tsunami":"精神科","kaji":"","naisui":"","kazan":""}}
,{"type":"Feature","geometry":{"type":"Point","coordinates":[130.53088,31.57421]},"properties":{"Name":"大坪こどもクリニック","Jusho":"鹿児島市田上2丁目34-15-11","kouzui":"099-286-6121","gake":"https://ssc3.doctorqube.com/o-kodomo/","takashio":"×","jishin":"〇","tsunami":"小児科","kaji":"鹿児島市立病院（鹿児島市上荒田町37-1）","naisui":"","kazan":""}}
,{"type":"Feature","geometry":{"type":"Point","coordinates":[130.54167,31.5911]},"properties":{"Name":"白光会白石病院","Jusho":"鹿児島県鹿児島市薬師1丁目12番22号","kouzui":"099-255-0101","gake":"http://byakkokai.jp","takashio":"×","jishin":"〇","tsunami":"糖尿病内科糖尿病内科腎臓内科腎臓内科腎臓内科","kaji":"天陽会中央病院鹿児島市泉町6-7","naisui":"","kazan":""}}
,{"type":"Feature","geometry":{"type":"Point","coordinates":[130.53473,31.59338]},"properties":{"Name":"なおこ胃腸内科クリニック","Jusho":"鹿児島市薬師2丁目43-32井上ビル2Ｆ","kouzui":"252-5001","gake":"https://naoko-clinic.com/","takashio":"×","jishin":"〇","tsunami":"内科消化器内科","kaji":"鹿児島市立病院","naisui":"","kazan":""}}
,{"type":"Feature","geometry":{"type":"Point","coordinates":[130.54187,31.58564]},"properties":{"Name":"亀井メンタルクリニック","Jusho":"鹿児島市西田2丁目28-132F","kouzui":"099-258-3220","gake":"","takashio":"×","jishin":"〇","tsunami":"精神科心療内科","kaji":"","naisui":"","kazan":""}}
,{"type":"Feature","geometry":{"type":"Point","coordinates":[130.54005,31.58544]},"properties":{"Name":"にいむら病院","Jusho":"鹿児島県鹿児島市西田2丁目26-20","kouzui":"099-256-6200","gake":"http://niimura-hp.or.jp/","takashio":"×","jishin":"〇","tsunami":"泌尿器科","kaji":"鹿児島市立病院（鹿児島市上荒田町37番1号）","naisui":"","kazan":""}}
,{"type":"Feature","geometry":{"type":"Point","coordinates":[130.54431,31.58576]},"properties":{"Name":"山口克也内科","Jusho":"鹿児島市中央町4-34メディカルミュゼビル7","kouzui":"099-210-5811","gake":"http://katsuya-naika.com/","takashio":"×","jishin":"〇","tsunami":"内科循環器内科","kaji":"","naisui":"","kazan":""}}
,{"type":"Feature","geometry":{"type":"Point","coordinates":[130.55052,31.58292]},"properties":{"Name":"納病院","Jusho":"鹿児島市高麗町7番1号","kouzui":"099-257-2171","gake":"","takashio":"×","jishin":"〇","tsunami":"内科","kaji":"","naisui":"","kazan":""}}
,{"type":"Feature","geometry":{"type":"Point","coordinates":[130.54741,31.58075]},"properties":{"Name":"医療法人瑛寿会濵島泌尿器科クリニック","Jusho":"鹿児島県鹿児島市上之園町17-15","kouzui":"099-251-1500","gake":"http://www2.synapse.ne.jp/hamashima-hi/","takashio":"×","jishin":"〇","tsunami":"泌尿器科","kaji":"","naisui":"","kazan":""}}
,{"type":"Feature","geometry":{"type":"Point","coordinates":[130.54262,31.5822]},"properties":{"Name":"勝山クリニック","Jusho":"鹿児島県鹿児島市中央町22-16アエールプラザ3階","kouzui":"099-812-8252","gake":"","takashio":"〇","jishin":"〇","tsunami":"内科消化器内科","kaji":"","naisui":"","kazan":""}}
,{"type":"Feature","geometry":{"type":"Point","coordinates":[130.54228,31.58197]},"properties":{"Name":"医療法人ハヤの会田中矯正歯科","Jusho":"鹿児島市中央町21ー14","kouzui":"099ー257-9052","gake":"https://sites.google.com/view/hayanokai-chronic","takashio":"×","jishin":"〇","tsunami":"歯科口腔外科","kaji":"?鹿児島大学病院口腔外科（鹿児島市桜ヶ丘8-35-1）","naisui":"","kazan":""}}
,{"type":"Feature","geometry":{"type":"Point","coordinates":[130.54338,31.58098]},"properties":{"Name":"鹿児島園田眼科・形成外科","Jusho":"鹿児島県鹿児島市中央町29-4","kouzui":"099-210-5311","gake":"https://www.sonodaeye.jp","takashio":"〇","jishin":"〇","tsunami":"眼科、形成外科","kaji":"","naisui":"","kazan":""}}
,{"type":"Feature","geometry":{"type":"Point","coordinates":[130.54521,31.58526]},"properties":{"Name":"耳鼻咽喉科ミック","Jusho":"鹿児島県鹿児島市中央町6-8メディカルプラザ中央5階","kouzui":"099-822-0319","gake":"http://www.mic-ent.jp/","takashio":"×","jishin":"〇","tsunami":"耳鼻咽喉科","kaji":"","naisui":"","kazan":""}}
,{"type":"Feature","geometry":{"type":"Point","coordinates":[130.55118,31.5707]},"properties":{"Name":"大塚クリニック","Jusho":"鹿児島県鹿児島市荒田2丁目43-5","kouzui":"099-252-9500","gake":"http://www.myclinic.ne.jp/totoro/pc/","takashio":"×","jishin":"〇","tsunami":"内科","kaji":"","naisui":"","kazan":""}}
,{"type":"Feature","geometry":{"type":"Point","coordinates":[130.54536,31.57597]},"properties":{"Name":"新成病院","Jusho":"鹿児島県鹿児島市上荒田町16-30","kouzui":"099-254-3332","gake":"https://sinsei-hp.or.jp/","takashio":"〇","jishin":"〇","tsunami":"内科・外科","kaji":"鹿児島市立病院（鹿児島県鹿児島市上荒田町37-1）","naisui":"","kazan":""}}
,{"type":"Feature","geometry":{"type":"Point","coordinates":[130.54362,31.5755]},"properties":{"Name":"なかのクリニック","Jusho":"鹿児島市上荒田町26-29-101","kouzui":"099-206-0011","gake":"http://www3.synapse.ne.jp/nakanoclinic/","takashio":"〇","jishin":"〇","tsunami":"内科、甲状腺科","kaji":"","naisui":"","kazan":""}}
,{"type":"Feature","geometry":{"type":"Point","coordinates":[130.54671,31.57376]},"properties":{"Name":"たちばないいやまクリニック","Jusho":"鹿児島県鹿児島市上荒田町33番5号","kouzui":"099-251-2528","gake":"","takashio":"〇","jishin":"〇","tsunami":"内科","kaji":"今村総合病院(鹿児島県鹿児島市鴨池新町11-23）","naisui":"","kazan":""}}
,{"type":"Feature","geometry":{"type":"Point","coordinates":[130.54497,31.57506]},"properties":{"Name":"さくらクリニック","Jusho":"鹿児島県鹿児島市上荒田町29-12","kouzui":"099-213-5733","gake":"https://sakura-clnc.com/","takashio":"×","jishin":"〇","tsunami":"内科","kaji":"","naisui":"","kazan":""}}
,{"type":"Feature","geometry":{"type":"Point","coordinates":[130.54588,31.57736]},"properties":{"Name":"かねこクリニック","Jusho":"鹿児島県鹿児島市上荒田町8番6号","kouzui":"099-214-2800","gake":"https://www.kaneko-clinic.or.jp/","takashio":"×","jishin":"〇","tsunami":"乳腺外科甲状腺科","kaji":"金子病院（鹿児島県いちき串木野市照島6002","naisui":"","kazan":""}}
,{"type":"Feature","geometry":{"type":"Point","coordinates":[130.55287,31.5717]},"properties":{"Name":"たばたメンタルクリニック","Jusho":"鹿児島県鹿児島市下荒田3丁目17番32号","kouzui":"099-250-5682","gake":"http://tabatamc.or.jp","takashio":"×","jishin":"〇","tsunami":"精神科、心療内科","kaji":"谷山病院（鹿児島市小原町）、三州脇田丘病院（鹿児島市宇宿）、つかさHCH（鹿児島市中山）、メンタルホスピタル鹿児島（鹿児島市永吉）、尾辻病院（鹿児島市紫原）、今村総合病院（鹿児島市与次郎）など","naisui":"","kazan":""}}
,{"type":"Feature","geometry":{"type":"Point","coordinates":[130.56293,31.57015]},"properties":{"Name":"米盛病院","Jusho":"鹿児島県鹿児島市与次郎一丁目7番1号","kouzui":"099-230-0100","gake":"https://www.yonemorihp.jp","takashio":"×","jishin":"〇","tsunami":"全科","kaji":"整形外科米盛草牟田クリニック","naisui":"","kazan":""}}
,{"type":"Feature","geometry":{"type":"Point","coordinates":[130.55078,31.56242]},"properties":{"Name":"内科・山口アーバンクリニック","Jusho":"鹿児島県鹿児島市鴨池二丁目26番30号","kouzui":"099-258-8853","gake":"","takashio":"〇","jishin":"×","tsunami":"内科・消化器科","kaji":"鹿児島県医師会病院発熱外来鹿児島県鹿児島市鴨池二丁目22-18(鹿児島市夜間急病センター)","naisui":"","kazan":""}}
,{"type":"Feature","geometry":{"type":"Point","coordinates":[130.55652,31.55959]},"properties":{"Name":"鹿児島市医師会病院","Jusho":"鹿児島県鹿児島市鴨池新町7-1","kouzui":"099-254-1125","gake":"https://www.city.kagoshima.med.or.jp/kasiihp/","takashio":"×","jishin":"〇","tsunami":"消化器内科循環器内科脳神経内科外科婦人科ペインクリニック内科緩和ケア内科","kaji":"","naisui":"","kazan":""}}
,{"type":"Feature","geometry":{"type":"Point","coordinates":[130.55594,31.55717]},"properties":{"Name":"鴨池歯科医院","Jusho":"鹿児島県鹿児島市鴨池新町3-2","kouzui":"099-251-8140","gake":"https://kamoike-sika.jimdofree.com/","takashio":"〇","jishin":"〇","tsunami":"歯科","kaji":"","naisui":"","kazan":""}}
,{"type":"Feature","geometry":{"type":"Point","coordinates":[130.55708,31.55122]},"properties":{"Name":"鴨池ハイムクリニック","Jusho":"鹿児島県鹿児島市鴨池新町28-1-106","kouzui":"099-257-3636","gake":"","takashio":"×","jishin":"〇","tsunami":"内科","kaji":"","naisui":"","kazan":""}}
,{"type":"Feature","geometry":{"type":"Point","coordinates":[130.54958,31.56034]},"properties":{"Name":"三愛クリニック","Jusho":"鹿児島県鹿児島市郡元三丁目3番7号","kouzui":"099-812-6433","gake":"http://www.sanaikai.or.jp/","takashio":"〇","jishin":"〇","tsunami":"内科整形外科","kaji":"三愛病院（鹿児島県鹿児島市郡元三丁目14番7号）","naisui":"","kazan":""}}
,{"type":"Feature","geometry":{"type":"Point","coordinates":[130.55003,31.56119]},"properties":{"Name":"川畑隼夫眼科医院","Jusho":"鹿児島県鹿児島市郡元3丁目2番1号","kouzui":"099-822-1110","gake":"https://kawabata-eye.jp/","takashio":"×","jishin":"〇","tsunami":"眼科","kaji":"","naisui":"","kazan":""}}
,{"type":"Feature","geometry":{"type":"Point","coordinates":[130.55112,31.55931]},"properties":{"Name":"清風病院","Jusho":"鹿児島県鹿児島市真砂町73番20号","kouzui":"099-257-1010","gake":"","takashio":"×","jishin":"〇","tsunami":"内科","kaji":"","naisui":"","kazan":""}}
,{"type":"Feature","geometry":{"type":"Point","coordinates":[130.54948,31.55463]},"properties":{"Name":"健翔会病院","Jusho":"鹿児島県鹿児島市東郡元町5-10","kouzui":"099-253-0171","gake":"https://www.kensho-kai.or.jp/","takashio":"〇","jishin":"〇","tsunami":"外科・内科","kaji":"","naisui":"","kazan":""}}
,{"type":"Feature","geometry":{"type":"Point","coordinates":[130.53328,31.54816]},"properties":{"Name":"うすきクリニック","Jusho":"鹿児島県鹿児島市宇宿4丁目30-13","kouzui":"099-201-3-0301","gake":"http://www.11hospital.com/usuki/index.htm","takashio":"×","jishin":"〇","tsunami":"内科・外科・消化器科","kaji":"","naisui":"","kazan":""}}
,{"type":"Feature","geometry":{"type":"Point","coordinates":[130.54115,31.55712]},"properties":{"Name":"尾辻病院","Jusho":"鹿児島市南新町1-29","kouzui":"099-251-2209","gake":"http://jyouseikai.jp/otsuji/","takashio":"×","jishin":"〇","tsunami":"精神科","kaji":"","naisui":"","kazan":""}}
,{"type":"Feature","geometry":{"type":"Point","coordinates":[130.55995,31.56817]},"properties":{"Name":"有馬・藤島内科クリニック","Jusho":"鹿児島県鹿児島市与次郎1丁目3-12","kouzui":"099-251-6336","gake":"https://www.koufuu-kai.com/","takashio":"×","jishin":"〇","tsunami":"内科","kaji":"","naisui":"","kazan":""}}
,{"type":"Feature","geometry":{"type":"Point","coordinates":[130.54601,31.58947]},"properties":{"Name":"西田橋有馬病院","Jusho":"鹿児島県鹿児島市平之町1番27号","kouzui":"099-224-0823","gake":"","takashio":"×","jishin":"〇","tsunami":"内科・脳神経内科","kaji":"小田原病院（鹿児島市山之口町8番1号）","naisui":"","kazan":""}}
,{"type":"Feature","geometry":{"type":"Point","coordinates":[130.5025,31.54962]},"properties":{"Name":"かめざわ整形外科","Jusho":"鹿児島県鹿児島市中山町1225-1","kouzui":"099-269-2011","gake":"","takashio":"〇","jishin":"〇","tsunami":"整形外科","kaji":"鹿児島生協病院（鹿児島県鹿児島市谷山中央五丁目20-10)","naisui":"","kazan":""}}
,{"type":"Feature","geometry":{"type":"Point","coordinates":[130.4998,31.53643]},"properties":{"Name":"ちゅうざん整形外科・内科・胃腸内科","Jusho":"鹿児島県鹿児島市中山町5237-1","kouzui":"099-266-6366","gake":"https://chuzan-hp.jp/","takashio":"×","jishin":"〇","tsunami":"整形外科内科・胃腸内科","kaji":"","naisui":"","kazan":""}}
,{"type":"Feature","geometry":{"type":"Point","coordinates":[130.50432,31.54487]},"properties":{"Name":"中山クリニック","Jusho":"鹿児島県鹿児島市中山町2264番地","kouzui":"099-267-8811","gake":"https://www.tokushukai.or.jp/introduction/facility/cl-nakayama","takashio":"×","jishin":"〇","tsunami":"内科","kaji":"鹿児島徳洲会病院","naisui":"","kazan":""}}
,{"type":"Feature","geometry":{"type":"Point","coordinates":[130.51904,31.52932]},"properties":{"Name":"田原内科・循環器科","Jusho":"鹿児島市東谷山3丁目14-1","kouzui":"099-260-6080","gake":"","takashio":"×","jishin":"〇","tsunami":"内科","kaji":"鹿児島生協病院(鹿児島市谷山中央5丁目20-10)","naisui":"","kazan":""}}
,{"type":"Feature","geometry":{"type":"Point","coordinates":[130.51904,31.52932]},"properties":{"Name":"田原内科・循環器科","Jusho":"鹿児島市東谷山3丁目14-1","kouzui":"099-260-6080","gake":"","takashio":"×","jishin":"〇","tsunami":"内科","kaji":"鹿児島市医師会病院(鹿児島市鴨池新町7-1)鹿児島生協病院(鹿児島市谷山中央5丁目20-10)","naisui":"","kazan":""}}
,{"type":"Feature","geometry":{"type":"Point","coordinates":[130.5351,31.53948]},"properties":{"Name":"医療法人司誠会野上病院","Jusho":"鹿児島市小松原1-4-1","kouzui":"099-250-8850","gake":"","takashio":"×","jishin":"〇","tsunami":"心療内科","kaji":"なし","naisui":"","kazan":""}}
,{"type":"Feature","geometry":{"type":"Point","coordinates":[130.53133,31.5345]},"properties":{"Name":"橋口整形外科","Jusho":"鹿児島県鹿児島市小松原1-41-3","kouzui":"099-266-1721","gake":"https://hashi-seikei.jp/","takashio":"×","jishin":"〇","tsunami":"整形外科リハビリ科リウマチ科","kaji":"三宅病院（鹿児島県鹿児島市谷山中央7-3-1）","naisui":"","kazan":""}}
,{"type":"Feature","geometry":{"type":"Point","coordinates":[130.53586,31.53669]},"properties":{"Name":"医療法人財団光輪会光輪会鹿児島クリニック","Jusho":"鹿児島県鹿児島市東開町5-28","kouzui":"099-268-2351","gake":"https://kagoshimaryouin.jp/cl-info.html","takashio":"×","jishin":"〇","tsunami":"産婦人科内科","kaji":"","naisui":"","kazan":""}}
,{"type":"Feature","geometry":{"type":"Point","coordinates":[130.48268,31.62581]},"properties":{"Name":"三州病院","Jusho":"鹿児島市犬迫町7783-1","kouzui":"099-238-0075","gake":"http://.sansyu-hp.jp","takashio":"×","jishin":"〇","tsunami":"精神科内科心療内科","kaji":"","naisui":"","kazan":""}}
,{"type":"Feature","geometry":{"type":"Point","coordinates":[130.56358,31.61112]},"properties":{"Name":"医療法人善仁会石原山下整形外科内科医院","Jusho":"鹿児島県鹿児島市皷川町4番16号","kouzui":"099-247-3010099-247-3011","gake":"https://ishihara-y.com/","takashio":"〇","jishin":"〇","tsunami":"整形外科内科","kaji":"公益社団法人鹿児島共済会南風病院（鹿児島県鹿児島市長田町14-3）","naisui":"","kazan":""}}
,{"type":"Feature","geometry":{"type":"Point","coordinates":[130.55269,31.61731]},"properties":{"Name":"延寿堂クリニック","Jusho":"鹿児島市玉里団地2-49-8","kouzui":"099-220-6640","gake":"http://www.enjudo.or.jp","takashio":"×","jishin":"〇","tsunami":"小児科内科皮膚科","kaji":"","naisui":"","kazan":""}}
,{"type":"Feature","geometry":{"type":"Point","coordinates":[130.55989,31.59638]},"properties":{"Name":"シモノクリニック","Jusho":"鹿児島県鹿児島市易居町6番4号","kouzui":"099-219-5355","gake":"","takashio":"×","jishin":"〇","tsunami":"内科消化器内科","kaji":"","naisui":"","kazan":""}}
,{"type":"Feature","geometry":{"type":"Point","coordinates":[130.55777,31.59758]},"properties":{"Name":"福元クリニック","Jusho":"鹿児島県鹿児島市山下町12—8","kouzui":"099-222-2783","gake":"http://fukumoto-clinic.jp/","takashio":"〇","jishin":"〇","tsunami":"内科泌尿器科","kaji":"","naisui":"","kazan":""}}
,{"type":"Feature","geometry":{"type":"Point","coordinates":[130.55777,31.59758]},"properties":{"Name":"前田内科消化器科","Jusho":"鹿児島県鹿児島市山下町12番27号","kouzui":"099-227-3220","gake":"","takashio":"×","jishin":"〇","tsunami":"内科消化器科","kaji":"","naisui":"","kazan":""}}
,{"type":"Feature","geometry":{"type":"Point","coordinates":[130.55606,31.59571]},"properties":{"Name":"しぶや甲状腺クリニック","Jusho":"鹿児島県鹿児島市山下町8-3メディカルミュゼビル山下町4階","kouzui":"099-222-1001","gake":"http://shibuya-thyroid.jp/","takashio":"〇","jishin":"〇","tsunami":"甲状腺副甲状腺","kaji":"天陽会中央クリニック（鹿児島市泉町16-1）鹿児島市医師会病院（鹿児島市鴨池新町7?1）","naisui":"","kazan":""}}
,{"type":"Feature","geometry":{"type":"Point","coordinates":[130.56192,31.59981]},"properties":{"Name":"医療法人野間口クリニック","Jusho":"鹿児島市小川町22-6プランドール小川町3","kouzui":"099-219-4556","gake":"","takashio":"×","jishin":"〇","tsunami":"精神科心療内科","kaji":"","naisui":"","kazan":""}}
,{"type":"Feature","geometry":{"type":"Point","coordinates":[130.56007,31.59396]},"properties":{"Name":"天陽会中央クリニック","Jusho":"鹿児島県鹿児島市泉町16番1号","kouzui":"0990-225-8650","gake":"https://www.tenyoukai.jp/","takashio":"×","jishin":"〇","tsunami":"内科","kaji":"中央病院（鹿児島県鹿児島市泉町6番7号）","naisui":"","kazan":""}}
,{"type":"Feature","geometry":{"type":"Point","coordinates":[130.5239,31.62278]},"properties":{"Name":"まつなが耳鼻咽喉科","Jusho":"鹿児島県鹿児島市伊敷6-17-20","kouzui":"090-218-0133","gake":"","takashio":"〇","jishin":"〇","tsunami":"耳鼻咽喉科","kaji":"鹿児島医療センター（鹿児島市山下町8-1）","naisui":"","kazan":""}}
,{"type":"Feature","geometry":{"type":"Point","coordinates":[130.55568,31.59239]},"properties":{"Name":"ゆみレディースクリニック","Jusho":"鹿児島県鹿児島市中町4-6ワンダフルビル2階","kouzui":"222ー8777","gake":"http://www.yumi-ladies.com/","takashio":"×","jishin":"〇","tsunami":"産婦人科","kaji":"","naisui":"","kazan":""}}
,{"type":"Feature","geometry":{"type":"Point","coordinates":[130.55183,31.59147]},"properties":{"Name":"﨑元病院","Jusho":"鹿児島県鹿児島市東千石町4-13","kouzui":"099-224-5650","gake":"http://www.jinaikai.com/sakimoto/index.html","takashio":"×","jishin":"〇","tsunami":"内科循環器内科神経内科","kaji":"仁愛会病院（鹿児島県鹿児島市南栄5丁目10-19花倉病院（鹿児島県鹿児島市吉野町5147）仁愛会クリニック（鹿児島県鹿児島市新栄町2-1）","naisui":"","kazan":""}}
,{"type":"Feature","geometry":{"type":"Point","coordinates":[130.55177,31.58877]},"properties":{"Name":"ながはまクリニック","Jusho":"鹿児島市山之口町1-7南海貿易センタービル","kouzui":"099-223-6677","gake":"http://nagahamaclinic.com/","takashio":"〇","jishin":"〇","tsunami":"内科呼吸器内科","kaji":"児島厚生連病院（鹿児島県鹿児島市与次郎1丁目13番1号","naisui":"","kazan":""}}
,{"type":"Feature","geometry":{"type":"Point","coordinates":[130.55421,31.58822]},"properties":{"Name":"小田原病院","Jusho":"鹿児島県鹿児島市山之口町8番1号","kouzui":"099-223-7531","gake":"http.//www.shouaikai.jp/odawara/","takashio":"×","jishin":"〇","tsunami":"内科・外科","kaji":"鹿児島市立病院（鹿児島県鹿児島市上荒田町37-1）鹿児島大学病院（鹿児島県鹿児島市桜ヶ丘8-35-1）","naisui":"","kazan":""}}
,{"type":"Feature","geometry":{"type":"Point","coordinates":[130.54912,31.59019]},"properties":{"Name":"かごしま高岡病院","Jusho":"鹿児島県鹿児島市西千石町14-12","kouzui":"099-226-1370","gake":"http://www.takaoka-hp.or.jp/","takashio":"×","jishin":"〇","tsunami":"循環器内科呼吸器内科","kaji":"","naisui":"","kazan":""}}
,{"type":"Feature","geometry":{"type":"Point","coordinates":[130.54948,31.5897]},"properties":{"Name":"沖野循環器科病院","Jusho":"鹿児島県鹿児島市西千石町13番30号","kouzui":"099-223-3238","gake":"http://www.okino-hp.or.jp","takashio":"×","jishin":"〇","tsunami":"内科循環器科","kaji":"","naisui":"","kazan":""}}
,{"type":"Feature","geometry":{"type":"Point","coordinates":[130.54735,31.58998]},"properties":{"Name":"夜間休日診療所キタゾノクリニック","Jusho":"鹿児島県鹿児島市平之町9-1","kouzui":"099-213-9200","gake":"http://kitazono-cl.com/","takashio":"〇","jishin":"〇","tsunami":"内科・外科・呼吸器内科・消化器内科・肛門外科・心臓血管外科","kaji":"新成病院（鹿児島県鹿児島市上荒田町16-30）","naisui":"","kazan":""}}
,{"type":"Feature","geometry":{"type":"Point","coordinates":[130.57082,31.64533]},"properties":{"Name":"新牧医院","Jusho":"鹿児島県鹿児島市吉野町3073-147","kouzui":"099-243-0178","gake":"","takashio":"×","jishin":"〇","tsunami":"内科","kaji":"","naisui":"","kazan":""}}
,{"type":"Feature","geometry":{"type":"Point","coordinates":[130.56733,31.65252]},"properties":{"Name":"いぢちこどもクリニック","Jusho":"鹿児島県鹿児島市吉野一丁目43-14","kouzui":"099-246-3400","gake":"http://www.ijichi-cl.jp/","takashio":"×","jishin":"〇","tsunami":"小児科","kaji":"","naisui":"","kazan":""}}
,{"type":"Feature","geometry":{"type":"Point","coordinates":[130.56602,31.65085]},"properties":{"Name":"福祉生活協同組合むぎのめひとむぎ診療所","Jusho":"鹿児島市吉野一丁目40番26号","kouzui":"099-210-7260","gake":"https://muginome.jp/","takashio":"×","jishin":"〇","tsunami":"内科リハビリテーション科","kaji":"","naisui":"","kazan":""}}
,{"type":"Feature","geometry":{"type":"Point","coordinates":[130.55887,31.60314]},"properties":{"Name":"今給黎総合病院","Jusho":"鹿児島市下竜尾町4番16号","kouzui":"099-226-2211","gake":"http://imakiire.jp","takashio":"×","jishin":"〇","tsunami":"全科","kaji":"","naisui":"","kazan":""}}
,{"type":"Feature","geometry":{"type":"Point","coordinates":[130.43598,31.60434]},"properties":{"Name":"川畑歯科クリニック","Jusho":"鹿児島市上谷口町873-1","kouzui":"099-278-7777","gake":"http://kawabatashika.com/","takashio":"〇","jishin":"〇","tsunami":"歯科・小児歯科","kaji":"川畑内科クリニック（鹿児島県鹿児島市上谷口町1003-1","naisui":"","kazan":""}}
,{"type":"Feature","geometry":{"type":"Point","coordinates":[130.86317,31.40163]},"properties":{"Name":"医療法人碧仁会井ノ上病院","Jusho":"鹿児島県鹿屋市王子町3980番地1","kouzui":"0994-42-5275","gake":"https://inouehosp:org","takashio":"×","jishin":"〇","tsunami":"内科","kaji":"","naisui":"","kazan":""}}
,{"type":"Feature","geometry":{"type":"Point","coordinates":[130.85876,31.38631]},"properties":{"Name":"鮫島整形外科病院","Jusho":"鹿児島県鹿屋市寿1丁目1-1","kouzui":"0994-43-2535","gake":"","takashio":"〇","jishin":"〇","tsunami":"整形外科リウマチ科リハビリテーション科","kaji":"","naisui":"","kazan":""}}
,{"type":"Feature","geometry":{"type":"Point","coordinates":[130.86086,31.37725]},"properties":{"Name":"大隅鹿屋病院","Jusho":"鹿児島県鹿屋市新川町6081-1","kouzui":"0994-40-1111","gake":"http://www.kanoya-aishinkai.com","takashio":"×","jishin":"〇","tsunami":"循環器内科","kaji":"","naisui":"","kazan":""}}
,{"type":"Feature","geometry":{"type":"Point","coordinates":[130.29445,31.27681]},"properties":{"Name":"園田病院","Jusho":"鹿児島県枕崎市緑町219","kouzui":"0993-72-0165","gake":"","takashio":"〇","jishin":"〇","tsunami":"眼科","kaji":"","naisui":"","kazan":""}}
,{"type":"Feature","geometry":{"type":"Point","coordinates":[130.1976,32.01789]},"properties":{"Name":"内山病院","Jusho":"鹿児島県阿久根市高松町22番地","kouzui":"0996-73-1551","gake":"http://www.uchimt.com/","takashio":"×","jishin":"〇","tsunami":"内科呼吸器科神経内科","kaji":"","naisui":"","kazan":""}}
,{"type":"Feature","geometry":{"type":"Point","coordinates":[130.19583,32.0141]},"properties":{"Name":"鶴見医院","Jusho":"鹿児島県阿久根市鶴見町119","kouzui":"0996-73-0553","gake":"","takashio":"〇","jishin":"〇","tsunami":"内科","kaji":"出水総合医療センター（鹿児島県出水市明神町520）出水郡医師会広域医療センター（鹿児島県阿久根市赤瀬川4513）","naisui":"","kazan":""}}
,{"type":"Feature","geometry":{"type":"Point","coordinates":[130.3541,32.08776]},"properties":{"Name":"広瀬産婦人科医院","Jusho":"鹿児島県出水市昭和町15番20号","kouzui":"0996-62-1559","gake":"http://www.mediqube.com/hirose/usr/pc/obs.php","takashio":"〇","jishin":"〇","tsunami":"産婦人科","kaji":"","naisui":"","kazan":""}}
,{"type":"Feature","geometry":{"type":"Point","coordinates":[130.32542,32.10806]},"properties":{"Name":"つかさとクリニック","Jusho":"鹿児島県出水市下知識町1518番地-1","kouzui":"0996-67-5560","gake":"","takashio":"×","jishin":"〇","tsunami":"内科神経内科","kaji":"なし","naisui":"","kazan":""}}
,{"type":"Feature","geometry":{"type":"Point","coordinates":[130.33542,32.08303]},"properties":{"Name":"医療法人みらいクリニック","Jusho":"鹿児島県出水市上知識町549","kouzui":"0996-79-3775","gake":"","takashio":"×","jishin":"〇","tsunami":"内科","kaji":"出水市立出水医療センター","naisui":"","kazan":""}}
,{"type":"Feature","geometry":{"type":"Point","coordinates":[130.33104,32.08258]},"properties":{"Name":"さくら通りクリニック","Jusho":"鹿児島県出水市平和町228","kouzui":"0996-62-2311","gake":"http://www5.synapse.ne.jp/sakuradoori/","takashio":"〇","jishin":"〇","tsunami":"脳神経外科","kaji":"出水総合医療センター（鹿児島県出水市明神町520）出水郡医師会広域医療センター（鹿児島県阿久根市赤瀬川4513）","naisui":"","kazan":""}}
,{"type":"Feature","geometry":{"type":"Point","coordinates":[130.33153,32.08373]},"properties":{"Name":"医療法人孝徳会楠元内科医院","Jusho":"出水市平和町224","kouzui":"0996-62-8602","gake":"https://www.kusumotonaika-clinil.com","takashio":"×","jishin":"〇","tsunami":"内科","kaji":"出水総合医療センター出水市明神町520","naisui":"","kazan":""}}
,{"type":"Feature","geometry":{"type":"Point","coordinates":[130.32164,32.0656]},"properties":{"Name":"医療法人結心会友愛クリニック","Jusho":"鹿児島県出水市高尾野町大久保2012-1","kouzui":"0996-64-2101","gake":"https://yuuaiclinic.com/","takashio":"×","jishin":"〇","tsunami":"内科消化器内科リハビリ科","kaji":"","naisui":"","kazan":""}}
,{"type":"Feature","geometry":{"type":"Point","coordinates":[130.56276,31.26502]},"properties":{"Name":"池田診療所","Jusho":"鹿児島県指宿市池田3957","kouzui":"0993?26?2101","gake":"","takashio":"×","jishin":"〇","tsunami":"内科外科小児科","kaji":"指宿医療センター（鹿児島県指宿市十二町4145）","naisui":"","kazan":""}}
,{"type":"Feature","geometry":{"type":"Point","coordinates":[130.64488,31.24655]},"properties":{"Name":"南記念クリニック","Jusho":"鹿児島県指宿市大牟礼3丁目24-15","kouzui":"0993-23-3730","gake":"https://minamikinen-clinic.com/","takashio":"〇","jishin":"〇","tsunami":"内科循環器科精神科","kaji":"南記念クリニック","naisui":"","kazan":""}}
,{"type":"Feature","geometry":{"type":"Point","coordinates":[130.64578,31.24096]},"properties":{"Name":"生駒外科医院","Jusho":"鹿児島県指宿市湊2丁目23-20","kouzui":"0993-22-3059","gake":"http://ikoma-geka.jp/","takashio":"〇","jishin":"〇","tsunami":"外科内科","kaji":"","naisui":"","kazan":""}}
,{"type":"Feature","geometry":{"type":"Point","coordinates":[130.69875,31.49691]},"properties":{"Name":"池田温泉クリニック","Jusho":"鹿児島県垂水市田神3536番地1","kouzui":"0994-32-6161","gake":"http://www.kouaikai.or.jp/","takashio":"×","jishin":"〇","tsunami":"内科","kaji":"","naisui":"","kazan":""}}
,{"type":"Feature","geometry":{"type":"Point","coordinates":[130.42882,31.8175]},"properties":{"Name":"愛宕山診療所","Jusho":"鹿児島県薩摩川内市入来町副田5950-32","kouzui":"0996-44-5603","gake":"http://atago-yama.jp","takashio":"〇","jishin":"〇","tsunami":"内科","kaji":"","naisui":"","kazan":""}}
,{"type":"Feature","geometry":{"type":"Point","coordinates":[130.22923,31.85886]},"properties":{"Name":"医療法人静和会ファミリーＨＰ薩摩","Jusho":"鹿児島県薩摩川内市水引町3247番地1","kouzui":"0996-26-2211","gake":"https://www.fh-satsuma.jp/#","takashio":"×","jishin":"〇","tsunami":"精神科心療内科","kaji":"","naisui":"","kazan":""}}
,{"type":"Feature","geometry":{"type":"Point","coordinates":[130.33865,31.67048]},"properties":{"Name":"医療法人大石医院","Jusho":"鹿児島県日置市東市来町湯田2153","kouzui":"099-274-3211","gake":"","takashio":"×","jishin":"△","tsunami":"科、消化器内","kaji":"大石医院（鹿児島県日置市東市来町湯田2153）鹿児島厚生連病院（鹿児島市与次郎1-13-1）","naisui":"","kazan":""}}
,{"type":"Feature","geometry":{"type":"Point","coordinates":[131.00092,31.72598]},"properties":{"Name":"鮫島クリニック","Jusho":"鹿児島県曽於市財部町南俣1705-7","kouzui":"0986-72-0777","gake":"","takashio":"〇","jishin":"×","tsunami":"外科小児科","kaji":"曽於医師会立病院","naisui":"","kazan":""}}
,{"type":"Feature","geometry":{"type":"Point","coordinates":[130.72577,31.73687]},"properties":{"Name":"隼人尚愛会病院","Jusho":"鹿児島県霧島市隼人町小田240番地","kouzui":"0995-43-2222","gake":"","takashio":"×","jishin":"〇","tsunami":"内科外科","kaji":"","naisui":"","kazan":""}}
,{"type":"Feature","geometry":{"type":"Point","coordinates":[130.68046,31.83042]},"properties":{"Name":"佐藤医院","Jusho":"鹿児島県霧島市溝辺町有川327番地2","kouzui":"0995-59-2607","gake":"","takashio":"〇","jishin":"〇","tsunami":"内科小児科","kaji":"","naisui":"","kazan":""}}
,{"type":"Feature","geometry":{"type":"Point","coordinates":[130.27077,31.71501]},"properties":{"Name":"医療法人さかえ会","Jusho":"鹿児島県いちき串木野市昭和通101-1","kouzui":"0996-32-0080","gake":"","takashio":"〇","jishin":"〇","tsunami":"内科糖尿病内科","kaji":"","naisui":"","kazan":""}}
,{"type":"Feature","geometry":{"type":"Point","coordinates":[131.1032,31.47662]},"properties":{"Name":"藤後クリニック","Jusho":"鹿児島県志布志市志布志町志布志一丁目13番1号","kouzui":"099-472-1237","gake":"http://www.sayuukai.or.jp/clinic/","takashio":"×","jishin":"〇","tsunami":"内科","kaji":"","naisui":"","kazan":""}}
,{"type":"Feature","geometry":{"type":"Point","coordinates":[129.49326,28.39411]},"properties":{"Name":"奄美中央病院","Jusho":"鹿児島県奄美市名瀬長浜町16番5号","kouzui":"0997-52-6565","gake":"http://achweb.amami-hca.or.jp/","takashio":"×","jishin":"〇","tsunami":"内科小児科","kaji":"その都度紹介対応","naisui":"","kazan":""}}
,{"type":"Feature","geometry":{"type":"Point","coordinates":[129.67656,28.45348]},"properties":{"Name":"笠利病院","Jusho":"鹿児島県奄美市笠利町中金久120番地","kouzui":"099-55-2222","gake":"https://kasari-hp.jp/","takashio":"×","jishin":"〇","tsunami":"内科","kaji":"","naisui":"","kazan":""}}
,{"type":"Feature","geometry":{"type":"Point","coordinates":[130.40325,31.39164]},"properties":{"Name":"川辺生協病院","Jusho":"鹿児島県南九州市川辺町両添大正田1118","kouzui":"0993-56-6111","gake":"http://kawanabe-seikyo.jp/","takashio":"×","jishin":"△","tsunami":"内科小児科","kaji":"総合病院鹿児島生協病院（鹿児島県鹿児島市谷山中央5-20-10）","naisui":"","kazan":""}}
,{"type":"Feature","geometry":{"type":"Point","coordinates":[130.62799,31.72521]},"properties":{"Name":"内倉医院","Jusho":"鹿児島県姶良市東餅田2362","kouzui":"0995-65-2548","gake":"http://uchikurageka.com","takashio":"〇","jishin":"〇","tsunami":"外科内科整形外科","kaji":"","naisui":"","kazan":""}}
,{"type":"Feature","geometry":{"type":"Point","coordinates":[129.32237,28.13749]},"properties":{"Name":"瀬戸内徳洲会病院","Jusho":"鹿児島県大島郡瀬戸内町古仁屋字トンキャン原135","kouzui":"0997-73-1111","gake":"http://www.setouchitokushukai.or.jp/","takashio":"×","jishin":"〇","tsunami":"内科","kaji":"瀬戸内徳洲会病院（鹿児島県大島郡瀬戸内町古仁屋字トンキャン原1358-1）","naisui":"","kazan":""}}
]};