var nagasaki={"type":"FeatureCollection","name":"nagasaki","features":[
{"type":"Feature","geometry":{"type":"Point","coordinates":[129.88736,32.726]},"properties":{"Name":"田上病院","Jusho":"長崎県長崎市田上2丁目14番15号","kouzui":"095-826-8186","gake":"http://www.tagami-hp.com","takashio":"×","jishin":"〇","tsunami":"内科外科","kaji":"","naisui":"","kazan":""}}
,{"type":"Feature","geometry":{"type":"Point","coordinates":[129.83224,32.80896]},"properties":{"Name":"いとう内科医院","Jusho":"長崎県長崎市滑石3-25-18","kouzui":"095-856-6010","gake":"","takashio":"〇","jishin":"〇","tsunami":"内科消化器科アレルギー科","kaji":"虹が丘病院（長崎県長崎市虹が丘町1番1号）","naisui":"","kazan":""}}
,{"type":"Feature","geometry":{"type":"Point","coordinates":[129.86226,32.75365]},"properties":{"Name":"いなさ内科・胃腸クリニック","Jusho":"長崎県長崎市弁天町13番12号","kouzui":"095-864-1006","gake":"http://inasa-clinic.com","takashio":"×","jishin":"〇","tsunami":"内科","kaji":"","naisui":"","kazan":""}}
,{"type":"Feature","geometry":{"type":"Point","coordinates":[129.87692,32.75106]},"properties":{"Name":"いわさきJクリニック","Jusho":"長崎県長崎市上町1-27","kouzui":"095-828-5556","gake":"https://www.iwasakijclinic.com","takashio":"×","jishin":"〇","tsunami":"呼吸器内科アレルギー科内科","kaji":"済生会長崎病院（長崎県長崎市片淵2-5-1）","naisui":"","kazan":""}}
,{"type":"Feature","geometry":{"type":"Point","coordinates":[129.8759,32.74278]},"properties":{"Name":"落内科医院","Jusho":"長崎県長崎市銅座町3-24","kouzui":"095-824-2066","gake":"","takashio":"〇","jishin":"〇","tsunami":"内科","kaji":"","naisui":"","kazan":""}}
,{"type":"Feature","geometry":{"type":"Point","coordinates":[129.85667,32.78422]},"properties":{"Name":"医療法人古市外科胃腸科医院","Jusho":"長崎県長崎市緑ヶ丘町2-1","kouzui":"095-844-5555","gake":"","takashio":"〇","jishin":"〇","tsunami":"外科整形外科胃腸科","kaji":"日本赤十字社長崎原爆病院（長崎県長崎市茂里町3番15号）井上病院（長崎県長崎市宝町6番12号）聖フランシスコ病院（長崎県長崎市小峰町9-20）","naisui":"","kazan":""}}
,{"type":"Feature","geometry":{"type":"Point","coordinates":[129.88029,32.79354]},"properties":{"Name":"森こどもクリニック","Jusho":"長崎県長崎市川平町1204","kouzui":"095-843-1155","gake":"","takashio":"〇","jishin":"〇","tsunami":"小児科","kaji":"長崎みなとメディカルセンター（長崎県長崎市新地町6-39）","naisui":"","kazan":""}}
,{"type":"Feature","geometry":{"type":"Point","coordinates":[129.77646,32.82564]},"properties":{"Name":"せいごうクリニック","Jusho":"長崎県長崎市畝刈町1613-85","kouzui":"095-860-9025","gake":"","takashio":"〇","jishin":"〇","tsunami":"内科","kaji":"","naisui":"","kazan":""}}
,{"type":"Feature","geometry":{"type":"Point","coordinates":[129.86145,32.79104]},"properties":{"Name":"みね形成外科・美容皮ふクリニック","Jusho":"長崎県長崎市住吉町2-22武田ビル3階","kouzui":"095-847-0010","gake":"http://www.mlnekelsel.com","takashio":"〇","jishin":"〇","tsunami":"形成外科","kaji":"","naisui":"","kazan":""}}
,{"type":"Feature","geometry":{"type":"Point","coordinates":[129.87602,32.74563]},"properties":{"Name":"医療法人築町クリニック","Jusho":"長崎県長崎市築町3-1","kouzui":"095-827-3333","gake":"http://tsukimachi-cl.com","takashio":"×","jishin":"〇","tsunami":"内科","kaji":"","naisui":"","kazan":""}}
,{"type":"Feature","geometry":{"type":"Point","coordinates":[129.86575,32.77704]},"properties":{"Name":"たかすぎ内科クリニック","Jusho":"長崎県長崎市橋口町3番7号","kouzui":"095-814-0296","gake":"","takashio":"〇","jishin":"〇","tsunami":"内科","kaji":"井上病院（長崎県長崎市宝町6番12号）聖フランシスコ病院（長崎県長崎市小峰町9-20）済生会長崎病院（長崎県長崎市片淵2丁目5番1号）長崎みなとメディカルセンター（長崎県長崎市新地町6-39）","naisui":"","kazan":""}}
,{"type":"Feature","geometry":{"type":"Point","coordinates":[129.87802,32.74458]},"properties":{"Name":"なかやま内科診療所","Jusho":"長崎県長崎市浜町3-20浜町くまビル6階","kouzui":"095-801-1722","gake":"https://nakayama-naika,jp/","takashio":"〇","jishin":"〇","tsunami":"内科循環器科","kaji":"井上病院（長崎県長崎市宝町6番12号）","naisui":"","kazan":""}}
,{"type":"Feature","geometry":{"type":"Point","coordinates":[129.85162,32.73616]},"properties":{"Name":"牧医院","Jusho":"長崎県長崎市東立神町8-13","kouzui":"095-861-5413","gake":"","takashio":"〇","jishin":"〇","tsunami":"内科","kaji":"","naisui":"","kazan":""}}
,{"type":"Feature","geometry":{"type":"Point","coordinates":[129.86296,32.74987]},"properties":{"Name":"医療法人協仁会共立耳鼻咽喉科","Jusho":"長崎県長崎市旭町26番18号","kouzui":"095-862-0001","gake":"http://kyouritu.in.coocan.jp/","takashio":"〇","jishin":"〇","tsunami":"耳鼻咽喉科","kaji":"","naisui":"","kazan":""}}
,{"type":"Feature","geometry":{"type":"Point","coordinates":[129.77194,32.82414]},"properties":{"Name":"医療法人こんどう整形外科","Jusho":"長崎県長崎市京泊3丁目30番11号","kouzui":"095-850-6355","gake":"https://kondou-seikei.jp/","takashio":"×","jishin":"〇","tsunami":"整形外科","kaji":"長崎大学病院（長崎県長崎市坂本1丁目7-1）","naisui":"","kazan":""}}
,{"type":"Feature","geometry":{"type":"Point","coordinates":[129.86087,32.78867]},"properties":{"Name":"医療法人谷川放射線科胃腸科医院","Jusho":"長崎県長崎市若葉町6-1","kouzui":"095-844-0417","gake":"http://tanigawa.clinic/","takashio":"〇","jishin":"〇","tsunami":"内科","kaji":"","naisui":"","kazan":""}}
,{"type":"Feature","geometry":{"type":"Point","coordinates":[129.862,32.78543]},"properties":{"Name":"あきよし都美内科クリニック","Jusho":"長崎県長崎市若葉町1番24号フラワーメイトビル2階","kouzui":"095-845-9801","gake":"http://akiyoshitomi.com","takashio":"×","jishin":"〇","tsunami":"内科心療内科","kaji":"長崎みなとメディカルセンター（長崎県長崎市新地町6-39）日本赤十字社長崎原爆病院（長崎県長崎市茂里町3番15号）井上病院（長崎県長崎市宝町6番12号）","naisui":"","kazan":""}}
,{"type":"Feature","geometry":{"type":"Point","coordinates":[129.83771,32.78043]},"properties":{"Name":"天野内科","Jusho":"長崎県長崎市小江原2丁目35-16","kouzui":"095-894-8800","gake":"","takashio":"×","jishin":"〇","tsunami":"内科","kaji":"井上病院（長崎県長崎市宝町6番12号）","naisui":"","kazan":""}}
,{"type":"Feature","geometry":{"type":"Point","coordinates":[129.82141,32.65956]},"properties":{"Name":"医療法人柴友会晴海台クリニック","Jusho":"長崎県長崎市晴海台町43番5号","kouzui":"095-892-1191","gake":"","takashio":"〇","jishin":"〇","tsunami":"内科","kaji":"長崎みなとメディカルセンター（長崎県長崎市新地町6-39）","naisui":"","kazan":""}}
,{"type":"Feature","geometry":{"type":"Point","coordinates":[129.83975,32.77921]},"properties":{"Name":"竹下内科医院","Jusho":"長崎県長崎市小江原2丁目29番12号","kouzui":"095-847-0707","gake":"","takashio":"〇","jishin":"〇","tsunami":"内科小児科","kaji":"長崎大学病院（長崎県長崎市坂本1丁目7-1）長崎みなとメディカルセンター（長崎県長崎市新地町6-39）","naisui":"","kazan":""}}
,{"type":"Feature","geometry":{"type":"Point","coordinates":[129.87613,32.78122]},"properties":{"Name":"三原台病院","Jusho":"長崎県長崎市三原1丁目8番35号","kouzui":"095-846-8111","gake":"","takashio":"×","jishin":"〇","tsunami":"内科","kaji":"","naisui":"","kazan":""}}
,{"type":"Feature","geometry":{"type":"Point","coordinates":[129.80687,32.82037]},"properties":{"Name":"鳴見台山中クリニック","Jusho":"長崎県長崎市鳴見台1丁目28番地5","kouzui":"095-814-1171","gake":"https://www.yamanakaclinic.jp","takashio":"×","jishin":"〇","tsunami":"消化器内科内科","kaji":"光晴会病院（長崎県長崎市葉山1丁目3番12号）虹が丘病院（長崎県長崎市虹が丘町1番1号）","naisui":"","kazan":""}}
,{"type":"Feature","geometry":{"type":"Point","coordinates":[129.95139,32.77757]},"properties":{"Name":"石川内科クリニック","Jusho":"長崎県長崎市矢上町29番11号","kouzui":"095-813-3933","gake":"","takashio":"〇","jishin":"〇","tsunami":"内科","kaji":"済生会長崎病院（長崎県長崎市片淵2丁目5番1号）長崎みなとメディカルセンター（長崎県長崎市新地町6-39）井上病院（長崎県長崎市宝町6番12号）","naisui":"","kazan":""}}
,{"type":"Feature","geometry":{"type":"Point","coordinates":[129.94194,32.75883]},"properties":{"Name":"医療法人阿保外科医院","Jusho":"長崎県長崎市宿町28-1","kouzui":"095-839-1151","gake":"","takashio":"〇","jishin":"〇","tsunami":"外科","kaji":"済生会長崎病院（長崎県長崎市片淵2丁目5番1号）","naisui":"","kazan":""}}
,{"type":"Feature","geometry":{"type":"Point","coordinates":[129.8741,32.74841]},"properties":{"Name":"中西内科","Jusho":"長崎県長崎市金屋町2-10","kouzui":"095-820-2350","gake":"","takashio":"〇","jishin":"〇","tsunami":"内科","kaji":"","naisui":"","kazan":""}}
,{"type":"Feature","geometry":{"type":"Point","coordinates":[129.87453,32.74422]},"properties":{"Name":"岡本ウーマンズクリニック","Jusho":"長崎県長崎市江戸町7番1号","kouzui":"095-820-2864","gake":"","takashio":"×","jishin":"〇","tsunami":"婦人科","kaji":"","naisui":"","kazan":""}}
,{"type":"Feature","geometry":{"type":"Point","coordinates":[129.86835,32.77683]},"properties":{"Name":"医療法人平田クリニック","Jusho":"長崎県長崎市上野町1-5","kouzui":"095-845-6175","gake":"","takashio":"〇","jishin":"〇","tsunami":"内科循環器科","kaji":"聖フランシスコ病院（長崎県長崎市小峰町9-20）済生会長崎病院（長崎県長崎市片淵2丁目5番1号）日本赤十字社長崎原爆病院（長崎県長崎市茂里町3番15号）","naisui":"","kazan":""}}
,{"type":"Feature","geometry":{"type":"Point","coordinates":[129.85663,32.77002]},"properties":{"Name":"やない小児科医院","Jusho":"長崎県長崎市岩見町5-13","kouzui":"095-861-3711","gake":"https://www.yanai-syounika.or.jp","takashio":"〇","jishin":"〇","tsunami":"小児科","kaji":"","naisui":"","kazan":""}}
,{"type":"Feature","geometry":{"type":"Point","coordinates":[129.84573,32.79845]},"properties":{"Name":"医療法人厚生会道ノ尾病院","Jusho":"長崎県長崎市虹が丘町1-1","kouzui":"095-856-1111","gake":"https://www.michinoo.or.jp","takashio":"×","jishin":"〇","tsunami":"精神科心療内科内科皮膚科","kaji":"みちのおメンタルクリニック（長崎県長崎市松山町3番94号松屋ビル4階）","naisui":"","kazan":""}}
,{"type":"Feature","geometry":{"type":"Point","coordinates":[129.85735,32.78492]},"properties":{"Name":"宮崎内科医院","Jusho":"長崎県長崎市白鳥町3番12号","kouzui":"095-845-0312","gake":"https://www.miyazaki-naika.or.jp","takashio":"×","jishin":"〇","tsunami":"内科","kaji":"","naisui":"","kazan":""}}
,{"type":"Feature","geometry":{"type":"Point","coordinates":[129.88875,32.75334]},"properties":{"Name":"吉田医院","Jusho":"長崎県長崎市桜馬場1丁目10-17","kouzui":"095-822-6817","gake":"","takashio":"〇","jishin":"〇","tsunami":"内科小児科","kaji":"済生会長崎病院（長崎県長崎市片淵2丁目5番1号）","naisui":"","kazan":""}}
,{"type":"Feature","geometry":{"type":"Point","coordinates":[129.83827,32.80782]},"properties":{"Name":"医療法人川原内科クリニック","Jusho":"長崎県長崎市滑石3丁目8-1","kouzui":"095-855-3907","gake":"","takashio":"×","jishin":"〇","tsunami":"内科","kaji":"虹が丘病院（長崎県長崎市虹が丘町1番1号）","naisui":"","kazan":""}}
,{"type":"Feature","geometry":{"type":"Point","coordinates":[129.86647,32.76841]},"properties":{"Name":"医療法人哲翁内科医院","Jusho":"長崎県長崎市浜口町13-9","kouzui":"095-846-5563","gake":"","takashio":"〇","jishin":"〇","tsunami":"内科循環器科","kaji":"日本赤十字社長崎原爆病院（長崎県長崎市茂里町3番15号）井上病院（長崎県長崎市宝町6番12号）","naisui":"","kazan":""}}
,{"type":"Feature","geometry":{"type":"Point","coordinates":[129.88031,32.74039]},"properties":{"Name":"安中外科脳神経外科医院","Jusho":"長崎県長崎市丸山町2番6号","kouzui":"095-823-4813","gake":"http://www.yasunaka.jp","takashio":"〇","jishin":"〇","tsunami":"脳神経外科外科","kaji":"井上病院（長崎県長崎市宝町6番12号）","naisui":"","kazan":""}}
,{"type":"Feature","geometry":{"type":"Point","coordinates":[129.84726,32.82641]},"properties":{"Name":"三浦産婦人科","Jusho":"長崎県西彼杵郡時津町野田郷25番地1","kouzui":"095-882-7000","gake":"","takashio":"〇","jishin":"〇","tsunami":"産婦人科","kaji":"長崎大学病院（長崎県長崎市坂本1丁目7-1）長崎みなとメディカルセンター（長崎県長崎市新地町6-39）","naisui":"","kazan":""}}
,{"type":"Feature","geometry":{"type":"Point","coordinates":[129.86887,32.7582]},"properties":{"Name":"医療法人ふくしまクリニック","Jusho":"長崎県長崎市宝町5-21朝長ビル1F","kouzui":"095-847-5777","gake":"","takashio":"×","jishin":"〇","tsunami":"心療内科精神科","kaji":"","naisui":"","kazan":""}}
,{"type":"Feature","geometry":{"type":"Point","coordinates":[129.87389,32.74116]},"properties":{"Name":"医療法人社団博生会大久保医院","Jusho":"長崎県長崎市新地町4-15","kouzui":"095-823-5996","gake":"","takashio":"〇","jishin":"〇","tsunami":"内科","kaji":"","naisui":"","kazan":""}}
,{"type":"Feature","geometry":{"type":"Point","coordinates":[129.8485,32.80466]},"properties":{"Name":"なかしま内科クリニック","Jusho":"長崎県長崎市葉山1丁目28番15号S＆B葉山ショッピングプラザ2F","kouzui":"095-894-1663","gake":"https://nakashima-naika.com/","takashio":"〇","jishin":"〇","tsunami":"内科","kaji":"","naisui":"","kazan":""}}
,{"type":"Feature","geometry":{"type":"Point","coordinates":[129.95145,32.7803]},"properties":{"Name":"矢上藤尾大坪外科胃腸科","Jusho":"長崎県長崎市矢上町48番3号","kouzui":"095-814-9000","gake":"","takashio":"〇","jishin":"〇","tsunami":"胃腸科外科肛門科","kaji":"","naisui":"","kazan":""}}
,{"type":"Feature","geometry":{"type":"Point","coordinates":[129.87241,32.73495]},"properties":{"Name":"医療法人出口外科医院","Jusho":"長崎県長崎市大浦町9-11","kouzui":"095-824-7890","gake":"http://deguchi-hp.org/","takashio":"〇","jishin":"〇","tsunami":"外科整形外科","kaji":"長崎みなとメディカルセンター（長崎県長崎市新地町6-39）","naisui":"","kazan":""}}
,{"type":"Feature","geometry":{"type":"Point","coordinates":[129.8732,32.74665]},"properties":{"Name":"井手外科医院","Jusho":"長崎県長崎市樺島町4-1","kouzui":"095-822-0670","gake":"","takashio":"〇","jishin":"〇","tsunami":"外科","kaji":"長崎みなとメディカルセンター（長崎県長崎市新地町6-39）","naisui":"","kazan":""}}
,{"type":"Feature","geometry":{"type":"Point","coordinates":[129.87308,32.78162]},"properties":{"Name":"朝長整形外科クリニック","Jusho":"長崎県長崎市小峰町14-3","kouzui":"095-848-7077","gake":"","takashio":"〇","jishin":"〇","tsunami":"整形外科","kaji":"","naisui":"","kazan":""}}
,{"type":"Feature","geometry":{"type":"Point","coordinates":[129.87195,32.74886]},"properties":{"Name":"医療法人あおぞら内科クリニック","Jusho":"長崎県長崎市元船町5-4メディカルモール元船2F","kouzui":"095-829-2100","gake":"","takashio":"×","jishin":"〇","tsunami":"内科","kaji":"井上病院（長崎県長崎市宝町6番12号）","naisui":"","kazan":""}}
,{"type":"Feature","geometry":{"type":"Point","coordinates":[129.88356,32.75007]},"properties":{"Name":"医療法人牟田内科・循環器科医院","Jusho":"長崎県長崎市八幡町4-16","kouzui":"095-823-6089","gake":"","takashio":"〇","jishin":"〇","tsunami":"内科","kaji":"長崎みなとメディカルセンター（長崎県長崎市新地町6-39）済生会長崎病院（長崎県長崎市片淵2丁目5番1号）","naisui":"","kazan":""}}
,{"type":"Feature","geometry":{"type":"Point","coordinates":[129.87772,32.744]},"properties":{"Name":"諸熊医院","Jusho":"長崎県長崎市浜町4-20","kouzui":"095-827-6114","gake":"","takashio":"×","jishin":"〇","tsunami":"内科","kaji":"","naisui":"","kazan":""}}
,{"type":"Feature","geometry":{"type":"Point","coordinates":[129.86371,32.79143]},"properties":{"Name":"社会医療法人健友会花丘診療所","Jusho":"長崎県長崎市花丘町13-19","kouzui":"095-848-9171","gake":"http://www.hanaoka-shinryousyo.com/","takashio":"×","jishin":"〇","tsunami":"内科整形外科リウマチ科","kaji":"上戸町病院（長崎県長崎市上戸町4丁目2-20）","naisui":"","kazan":""}}
,{"type":"Feature","geometry":{"type":"Point","coordinates":[129.87642,32.7454]},"properties":{"Name":"中島川クリニック","Jusho":"長崎県長崎市築町4番15号鈴文ビル5階","kouzui":"095-820-0929","gake":"","takashio":"×","jishin":"〇","tsunami":"精神科心療内科老年精神科","kaji":"西脇病院（長崎県長崎市桜木町3-14）","naisui":"","kazan":""}}
,{"type":"Feature","geometry":{"type":"Point","coordinates":[129.85588,32.7741]},"properties":{"Name":"医療法人やました内科","Jusho":"長崎県長崎市城山町31-14さとみメディカルビル4F","kouzui":"095-861-3070","gake":"","takashio":"〇","jishin":"〇","tsunami":"内科","kaji":"","naisui":"","kazan":""}}
,{"type":"Feature","geometry":{"type":"Point","coordinates":[129.88689,32.75457]},"properties":{"Name":"医療法人白髭内科医院","Jusho":"長崎県長崎市片淵1丁目13-28","kouzui":"095-822-5620","gake":"http://www.shirahige.org","takashio":"〇","jishin":"〇","tsunami":"内科","kaji":"長崎みなとメディカルセンター（長崎県長崎市新地町6-39）済生会長崎病院（長崎県長崎市片淵2丁目5番1号）","naisui":"","kazan":""}}
,{"type":"Feature","geometry":{"type":"Point","coordinates":[129.87125,32.78217]},"properties":{"Name":"あしざわ内科","Jusho":"長崎県長崎市小峰町3-13-2F","kouzui":"095-865-7234","gake":"","takashio":"〇","jishin":"〇","tsunami":"内科腎臓内科","kaji":"","naisui":"","kazan":""}}
,{"type":"Feature","geometry":{"type":"Point","coordinates":[129.83807,32.80675]},"properties":{"Name":"医療法人前川医院","Jusho":"長崎県長崎市大園町5-3","kouzui":"095-856-2800","gake":"","takashio":"〇","jishin":"〇","tsunami":"内科小児科胃腸内科放射線科","kaji":"光晴会病院（長崎県長崎市葉山1丁目3番12号）虹が丘病院（長崎県長崎市虹が丘町1番1号）長崎北病院（西彼杵郡時津町元村郷800番地）","naisui":"","kazan":""}}
,{"type":"Feature","geometry":{"type":"Point","coordinates":[129.87538,32.74305]},"properties":{"Name":"タナカクリニックひふ科・アレルギー科","Jusho":"長崎県長崎市銅座町2番15号ＮＫイリスビル5階","kouzui":"095-816-1590","gake":"http://www1.cncm.ne.jp/~yotanaka/","takashio":"×","jishin":"〇","tsunami":"皮ふ科","kaji":"","naisui":"","kazan":""}}
,{"type":"Feature","geometry":{"type":"Point","coordinates":[129.87465,32.74224]},"properties":{"Name":"松元クリニック","Jusho":"長崎県長崎市新地町1-5","kouzui":"095-811-1035","gake":"","takashio":"〇","jishin":"〇","tsunami":"内科","kaji":"長崎みなとメディカルセンター（長崎県長崎市新地町6-39）","naisui":"","kazan":""}}
,{"type":"Feature","geometry":{"type":"Point","coordinates":[129.84132,32.78201]},"properties":{"Name":"医療法人慈恵会小江原中央病院","Jusho":"長崎県長崎市小江原2丁目1-20","kouzui":"095-846-1010","gake":"https://www,koebaru.com/","takashio":"×","jishin":"〇","tsunami":"内科外科循環器科消化器科呼吸器科整形外科","kaji":"","naisui":"","kazan":""}}
,{"type":"Feature","geometry":{"type":"Point","coordinates":[129.90694,32.7379]},"properties":{"Name":"廣中病院","Jusho":"長崎市田手原町811番地9","kouzui":"095-825-1364","gake":"","takashio":"×","jishin":"〇","tsunami":"精神科心療内科","kaji":"","naisui":"","kazan":""}}
,{"type":"Feature","geometry":{"type":"Point","coordinates":[129.87279,32.74015]},"properties":{"Name":"長崎みなとメディカルセンター","Jusho":"長崎県長崎市新地町6番39号","kouzui":"095-822-3251","gake":"http://shibyo.nmh.jp/","takashio":"×","jishin":"〇","tsunami":"全診療科","kaji":"","naisui":"","kazan":""}}
,{"type":"Feature","geometry":{"type":"Point","coordinates":[129.8727,32.73578]},"properties":{"Name":"医療法人昭和会長崎あじさい病院","Jusho":"長崎県長崎市大浦町10-40","kouzui":"095-828-9700（担当）095-828-9713（担当者直通）","gake":"http://www.ajisai-hospital.jp","takashio":"×","jishin":"〇","tsunami":"内科外科眼科脳神経外科","kaji":"","naisui":"","kazan":""}}
,{"type":"Feature","geometry":{"type":"Point","coordinates":[129.88307,32.7413]},"properties":{"Name":"西田内科胃腸内科医院","Jusho":"長崎県長崎市油屋町6-11","kouzui":"095-826-0982","gake":"","takashio":"×","jishin":"〇","tsunami":"内科","kaji":"長崎みなとメディカルセンター（長崎県長崎市新地町6-39）済生会長崎病院（長崎県長崎市片淵2丁目5番1号）井上病院（長崎県長崎市宝町6番12号）","naisui":"","kazan":""}}
,{"type":"Feature","geometry":{"type":"Point","coordinates":[129.87584,32.75043]},"properties":{"Name":"こもり内科医院","Jusho":"長崎県長崎市恵美須町4-2平野ビル1F","kouzui":"095-820-5393","gake":"","takashio":"×","jishin":"〇","tsunami":"内科呼吸器科","kaji":"十善会病院（長崎県長崎市籠町7番18号）長崎みなとメディカルセンター（長崎県長崎市新地町6-39）","naisui":"","kazan":""}}
,{"type":"Feature","geometry":{"type":"Point","coordinates":[129.87479,32.74534]},"properties":{"Name":"医療法人五省会出島診療所","Jusho":"長崎県長崎市万才町5-22中村ビル1階","kouzui":"095-821-8652","gake":"","takashio":"×","jishin":"〇","tsunami":"精神科心療内科","kaji":"","naisui":"","kazan":""}}
,{"type":"Feature","geometry":{"type":"Point","coordinates":[129.87584,32.75043]},"properties":{"Name":"ながさきハートクリニック","Jusho":"長崎県長崎市恵美須町4番1号","kouzui":"095-818-4199","gake":"http://www.nagasaki-hc.com","takashio":"×","jishin":"〇","tsunami":"循環器内科","kaji":"","naisui":"","kazan":""}}
,{"type":"Feature","geometry":{"type":"Point","coordinates":[129.85432,32.77575]},"properties":{"Name":"医療法人緑風会みどりクリニック","Jusho":"長崎県長崎市城栄町32番20号","kouzui":"095-844-7191","gake":"http://midorimidori.jp/midoriclinic/","takashio":"△","jishin":"〇","tsunami":"内科","kaji":"長崎大学病院（長崎県長崎市坂本1丁目7-1）長崎みなとメディカルセンター（長崎県長崎市新地町6-39）","naisui":"","kazan":""}}
,{"type":"Feature","geometry":{"type":"Point","coordinates":[129.94937,32.77272]},"properties":{"Name":"深沢眼科","Jusho":"長崎県長崎市矢上町4番11号","kouzui":"095-839-2010、090-4588-6850","gake":"","takashio":"×","jishin":"〇","tsunami":"眼科","kaji":"","naisui":"","kazan":""}}
,{"type":"Feature","geometry":{"type":"Point","coordinates":[129.86446,32.76841]},"properties":{"Name":"たがわ内科","Jusho":"長崎県長崎市浜口町1-6TSビル2階","kouzui":"095-843-8002","gake":"","takashio":"×","jishin":"〇","tsunami":"内科","kaji":"","naisui":"","kazan":""}}
,{"type":"Feature","geometry":{"type":"Point","coordinates":[129.88161,32.74332]},"properties":{"Name":"医療法人福曜会福田医院","Jusho":"長崎県長崎市鍛冶屋町6-6","kouzui":"095-823-5071","gake":"","takashio":"〇","jishin":"〇","tsunami":"内科小児科","kaji":"長崎みなとメディカルセンター（長崎県長崎市新地町6-39）済生会長崎病院（長崎県長崎市片淵2丁目5番1号）十善会病院（長崎県長崎市籠町7番18号）","naisui":"","kazan":""}}
,{"type":"Feature","geometry":{"type":"Point","coordinates":[129.8638,32.76839]},"properties":{"Name":"医療法人長寿会清原龍内科","Jusho":"長崎県長崎市川口町8番20号","kouzui":"095-813-0005","gake":"http://kiyohararyu-naika.com","takashio":"×","jishin":"〇","tsunami":"精神科内科心療内科リハビリ科","kaji":"","naisui":"","kazan":""}}
,{"type":"Feature","geometry":{"type":"Point","coordinates":[129.86507,32.77545]},"properties":{"Name":"医療法人原田医院","Jusho":"長崎県長崎市平和町11-11","kouzui":"095-844-0594","gake":"","takashio":"〇","jishin":"〇","tsunami":"内科","kaji":"聖フランシスコ病院（長崎県長崎市小峰町9-20）","naisui":"","kazan":""}}
,{"type":"Feature","geometry":{"type":"Point","coordinates":[129.86069,32.79013]},"properties":{"Name":"赤司内科消化器科医院","Jusho":"長崎県長崎市若葉町14-8","kouzui":"095-848-2525","gake":"","takashio":"×","jishin":"〇","tsunami":"内科","kaji":"","naisui":"","kazan":""}}
,{"type":"Feature","geometry":{"type":"Point","coordinates":[129.85558,32.78866]},"properties":{"Name":"医療法人友愛会田川療養所","Jusho":"長崎県長崎市錦2丁目1番1号","kouzui":"095-845-2188","gake":"https://www.youi-med-psychiatry.com/","takashio":"×","jishin":"〇","tsunami":"精神科","kaji":"","naisui":"","kazan":""}}
,{"type":"Feature","geometry":{"type":"Point","coordinates":[129.87547,32.74431]},"properties":{"Name":"医療法人木下内科医院","Jusho":"長崎県長崎市江戸町5番14号","kouzui":"095-822-9266","gake":"","takashio":"×","jishin":"〇","tsunami":"内科","kaji":"","naisui":"","kazan":""}}
,{"type":"Feature","geometry":{"type":"Point","coordinates":[129.86696,32.76839]},"properties":{"Name":"ヨゼフクリニック","Jusho":"長崎県長崎市坂本1丁目6番1号","kouzui":"095-814-0212","gake":"http://maple.life.coocan.jp/","takashio":"〇","jishin":"〇","tsunami":"心臓血管外科","kaji":"日本赤十字社長崎原爆病院（長崎県長崎市茂里町3番15号）長崎みなとメディカルセンター（長崎県長崎市新地町6-39）聖フランシスコ病院（長崎県長崎市小峰町9-20）国立長崎病院（長崎県長崎市桜木町6-41）","naisui":"","kazan":""}}
,{"type":"Feature","geometry":{"type":"Point","coordinates":[129.87987,32.73974]},"properties":{"Name":"武藤内科循環器内科","Jusho":"長崎県長崎市寄合町3-41","kouzui":"095-823-1822","gake":"","takashio":"×","jishin":"〇","tsunami":"内科循環器内科","kaji":"","naisui":"","kazan":""}}
,{"type":"Feature","geometry":{"type":"Point","coordinates":[129.86263,32.75171]},"properties":{"Name":"岩永クリニック","Jusho":"長崎県長崎市旭町21-12","kouzui":"095-862-3211","gake":"","takashio":"×","jishin":"〇","tsunami":"外科内科","kaji":"井上病院（長崎県長崎市宝町6-12）","naisui":"","kazan":""}}
,{"type":"Feature","geometry":{"type":"Point","coordinates":[129.77194,32.82414]},"properties":{"Name":"医療法人長谷川医院","Jusho":"長崎県長崎市京泊3-30-17","kouzui":"095-850-2000","gake":"","takashio":"×","jishin":"〇","tsunami":"外科内科","kaji":"","naisui":"","kazan":""}}
,{"type":"Feature","geometry":{"type":"Point","coordinates":[129.86285,32.783]},"properties":{"Name":"医療法人社団堀皮膚科医院","Jusho":"長崎県長崎市大橋町16-7","kouzui":"095-843-8883","gake":"","takashio":"×","jishin":"〇","tsunami":"皮膚科","kaji":"","naisui":"","kazan":""}}
,{"type":"Feature","geometry":{"type":"Point","coordinates":[129.95184,32.77688]},"properties":{"Name":"おおくぼ乳腺クリニック","Jusho":"長崎県長崎市矢上町25-1","kouzui":"095-839-8811","gake":"http://breast-okubo.net/","takashio":"〇","jishin":"〇","tsunami":"外科","kaji":"","naisui":"","kazan":""}}
,{"type":"Feature","geometry":{"type":"Point","coordinates":[129.85359,32.77554]},"properties":{"Name":"医療法人三宅脳神経外科医院","Jusho":"長崎県長崎市若草町3-21","kouzui":"095-846-0008","gake":"","takashio":"×","jishin":"〇","tsunami":"脳外科","kaji":"","naisui":"","kazan":""}}
,{"type":"Feature","geometry":{"type":"Point","coordinates":[129.87538,32.74305]},"properties":{"Name":"やすひウィメンズ・ヘルスクリニック","Jusho":"長崎県長崎市銅座町2番15号NKイリスビル5F","kouzui":"095-825-9700","gake":"http://www.y-yasuhi.com","takashio":"×","jishin":"〇","tsunami":"婦人科","kaji":"","naisui":"","kazan":""}}
,{"type":"Feature","geometry":{"type":"Point","coordinates":[129.85194,32.80386]},"properties":{"Name":"光晴会病院","Jusho":"長崎県長崎市葉山1丁目3番12号","kouzui":"095-857-3533","gake":"http://kouseikai.org","takashio":"×","jishin":"〇","tsunami":"内科外科","kaji":"","naisui":"","kazan":""}}
,{"type":"Feature","geometry":{"type":"Point","coordinates":[129.87096,32.73534]},"properties":{"Name":"医療法人社団春秋会南長崎クリニック","Jusho":"長崎県長崎市松が枝町3番20号","kouzui":"095-827-3606","gake":"https://www.syunjyu-kai.or.jp/","takashio":"×","jishin":"〇","tsunami":"内科","kaji":"","naisui":"","kazan":""}}
,{"type":"Feature","geometry":{"type":"Point","coordinates":[129.8786,32.74513]},"properties":{"Name":"有高クリニック","Jusho":"長崎県長崎市万屋町4-19","kouzui":"095-828-3770","gake":"","takashio":"〇","jishin":"〇","tsunami":"消化器科内科","kaji":"","naisui":"","kazan":""}}
,{"type":"Feature","geometry":{"type":"Point","coordinates":[129.95485,32.77757]},"properties":{"Name":"宝マタニティクリニック","Jusho":"長崎県長崎市東町1732-1","kouzui":"095-838-7117","gake":"https://takaramaternity.com","takashio":"×","jishin":"〇","tsunami":"産婦人科","kaji":"","naisui":"","kazan":""}}
,{"type":"Feature","geometry":{"type":"Point","coordinates":[129.83292,32.80629]},"properties":{"Name":"滑石まごころクリニック","Jusho":"長崎県長崎市滑石5丁目5番24号","kouzui":"095-894-8891","gake":"http://website2.infomity.net/8370000066/","takashio":"〇","jishin":"〇","tsunami":"内科","kaji":"虹が丘病院（長崎市虹が丘町1-1）光晴会病院（長崎市葉山町1-3-12）長崎北徳洲会病院（長崎市滑石1丁目12-5）","naisui":"","kazan":""}}
,{"type":"Feature","geometry":{"type":"Point","coordinates":[129.78867,32.88139]},"properties":{"Name":"大石共立病院","Jusho":"長崎県長崎市琴海村松町246","kouzui":"095-884-1111","gake":"http://oh-ishihospital.jp/","takashio":"×","jishin":"〇","tsunami":"外科内科","kaji":"","naisui":"","kazan":""}}
,{"type":"Feature","geometry":{"type":"Point","coordinates":[129.86974,32.72061]},"properties":{"Name":"上戸町病院","Jusho":"長崎県長崎市上戸町4丁目2-20","kouzui":"095-879-0705","gake":"http://www.kenyukai.or.jp/","takashio":"〇","jishin":"〇","tsunami":"内科整形外科","kaji":"","naisui":"","kazan":""}}
,{"type":"Feature","geometry":{"type":"Point","coordinates":[129.86443,32.76984]},"properties":{"Name":"医療法人福田ゆたか外科医院","Jusho":"長崎県長崎市浜口町3-5","kouzui":"095-848-7151","gake":"https://www.fukudayutaka-geka.or.jp","takashio":"〇","jishin":"〇","tsunami":"外科内科","kaji":"","naisui":"","kazan":""}}
,{"type":"Feature","geometry":{"type":"Point","coordinates":[129.83859,32.80798]},"properties":{"Name":"わたなべ小児科医院","Jusho":"長崎県長崎市滑石3丁目7-4","kouzui":"095-857-3075","gake":"","takashio":"〇","jishin":"〇","tsunami":"内科小児科","kaji":"済生会長崎病院（長崎県長崎市片淵2丁目5?1）長崎みなとメディカルセンター（長崎県長崎市新地町6?39）長崎大学病院（長崎県長崎市坂本1-7-1）","naisui":"","kazan":""}}
,{"type":"Feature","geometry":{"type":"Point","coordinates":[129.85118,32.77253]},"properties":{"Name":"つるた医院","Jusho":"長崎県長崎市花園町7-7","kouzui":"095-861-2221","gake":"","takashio":"〇","jishin":"〇","tsunami":"内科","kaji":"井上病院（長崎県長崎市宝町6-12）","naisui":"","kazan":""}}
,{"type":"Feature","geometry":{"type":"Point","coordinates":[129.8678,32.75901]},"properties":{"Name":"井上病院","Jusho":"長崎県長崎市宝町6番12号","kouzui":"095-844-1281","gake":"","takashio":"×","jishin":"〇","tsunami":"","kaji":"","naisui":"","kazan":""}}
,{"type":"Feature","geometry":{"type":"Point","coordinates":[129.94649,32.75597]},"properties":{"Name":"たちばなベイクリニック","Jusho":"長崎県長崎市網場町487-8","kouzui":"095-830-1188","gake":"http://tachibana-bay.com","takashio":"×","jishin":"〇","tsunami":"消化器内科循環器内科内科整形外科眼科","kaji":"済生会長崎病院（長崎県長崎市片淵2丁目5?1）","naisui":"","kazan":""}}
,{"type":"Feature","geometry":{"type":"Point","coordinates":[129.88075,32.74428]},"properties":{"Name":"ゆずクリニック","Jusho":"長崎県長崎市鍛冶屋町2番11号銀嶺ビル3Ｆ・4Ｆ","kouzui":"精神科095-822-3415糖尿病内分泌内科095-895-5560","gake":"http://clinic.yuzuriha.or.jp/","takashio":"△","jishin":"〇","tsunami":"精神科糖尿病内分泌内科","kaji":"","naisui":"","kazan":""}}
,{"type":"Feature","geometry":{"type":"Point","coordinates":[129.87297,32.74633]},"properties":{"Name":"長崎掖済会病院","Jusho":"長崎県長崎市樺島町5-16","kouzui":"095-824-0610","gake":"http://ekisaikai-nagasaki.jp/","takashio":"×","jishin":"〇","tsunami":"内科外科整形外科皮膚科泌尿器科","kaji":"","naisui":"","kazan":""}}
,{"type":"Feature","geometry":{"type":"Point","coordinates":[129.87692,32.74071]},"properties":{"Name":"かご町サトウ医院","Jusho":"長崎県長崎市籠町8-41","kouzui":"095-823-2365","gake":"","takashio":"×","jishin":"〇","tsunami":"外科","kaji":"長崎みなとメディカルセンター（長崎県長崎市新地町6-39）十善会病院（長崎県長崎市籠町7番18号）","naisui":"","kazan":""}}
,{"type":"Feature","geometry":{"type":"Point","coordinates":[129.8867,32.75603]},"properties":{"Name":"社会福祉法人恩賜財団済生会支部済生会長崎病院","Jusho":"長崎県長崎市片淵2丁目5番1号","kouzui":"095-826-9236","gake":"http://www.nsaisei.or.jp","takashio":"×","jishin":"〇","tsunami":"呼吸器内科消化器内科循環器内科内分泌糖尿病内科小児科総合診療科腎臓内科","kaji":"","naisui":"","kazan":""}}
,{"type":"Feature","geometry":{"type":"Point","coordinates":[129.89044,32.72867]},"properties":{"Name":"国立病院機構長崎病院","Jusho":"長崎県長崎市桜木町6-41","kouzui":"095-823-2261","gake":"https://nagasaki-hp.hosp.go.jp/","takashio":"×","jishin":"〇","tsunami":"内科外科小児科整形外科リハビリテーション科","kaji":"","naisui":"","kazan":""}}
,{"type":"Feature","geometry":{"type":"Point","coordinates":[129.85262,32.77127]},"properties":{"Name":"かわはら内科循環器科","Jusho":"長崎県長崎市花園町1番5号","kouzui":"095-861-6111","gake":"","takashio":"〇","jishin":"〇","tsunami":"内科循環器科","kaji":"井上病院（長崎県長崎市宝町6番12号）","naisui":"","kazan":""}}
,{"type":"Feature","geometry":{"type":"Point","coordinates":[129.85469,32.77308]},"properties":{"Name":"医療法人緑風会長崎みどり病院","Jusho":"長崎県長崎市富士見町18番24号","kouzui":"095-833-1350","gake":"","takashio":"〇","jishin":"〇","tsunami":"内科","kaji":"","naisui":"","kazan":""}}
,{"type":"Feature","geometry":{"type":"Point","coordinates":[129.86668,32.71131]},"properties":{"Name":"医療法人大輪会愛育小児科医院","Jusho":"長崎県長崎市新戸町3丁目17-27中山ビル1F","kouzui":"095-879-3812","gake":"","takashio":"〇","jishin":"〇","tsunami":"小児科","kaji":"長崎みなとメディカルセンター（長崎県長崎市新地町6-39）","naisui":"","kazan":""}}
,{"type":"Feature","geometry":{"type":"Point","coordinates":[129.87743,32.74501]},"properties":{"Name":"野田消化器クリニック","Jusho":"長崎県長崎市浜町2-18クリエート長崎ビル2F","kouzui":"095-826-9252","gake":"","takashio":"〇","jishin":"〇","tsunami":"","kaji":"","naisui":"","kazan":""}}
,{"type":"Feature","geometry":{"type":"Point","coordinates":[129.87202,32.74641]},"properties":{"Name":"髙村耳鼻咽喉科・アレルギー科","Jusho":"長崎県長崎市元船町13-102階","kouzui":"095-829-3387","gake":"","takashio":"×","jishin":"〇","tsunami":"耳鼻咽喉科","kaji":"","naisui":"","kazan":""}}
,{"type":"Feature","geometry":{"type":"Point","coordinates":[129.87665,32.74252]},"properties":{"Name":"たかお内科クリニック","Jusho":"長崎県長崎市銅座町7番29号","kouzui":"095-811-0077","gake":"","takashio":"×","jishin":"〇","tsunami":"内科","kaji":"長崎みなとメディカルセンター（長崎県長崎市新地町6-39）十善会病院（長崎県長崎市籠町7番18号）","naisui":"","kazan":""}}
,{"type":"Feature","geometry":{"type":"Point","coordinates":[129.86893,32.76924]},"properties":{"Name":"長崎大学病院","Jusho":"長崎県長崎市坂本1丁目7番1号","kouzui":"095-819-7231","gake":"http://www.mh.nagasaki-u.ac.jp","takashio":"×","jishin":"〇","tsunami":"精神科小児科皮膚科泌尿器科・腎移植外科眼科麻酔科耳鼻いんこう科放射線科産婦人科心臓血管外科整形外科脳神経外科形成外科歯科小児歯科矯正歯科歯科口腔外科消化器内科消化器外科呼吸器内科循環器内科血液内科内分泌・代謝内科腎臓内科感染症内科呼吸器外科小児外科乳腺・内分泌外科リウマチ科病理診断科救急科移植外科脳神経内科胃・食道外科大腸・肛門外科肝胆膵外科・肝移植外科","kaji":"","naisui":"","kazan":""}}
,{"type":"Feature","geometry":{"type":"Point","coordinates":[129.88446,32.75191]},"properties":{"Name":"医療法人陽蘭会広瀬クリニック","Jusho":"長崎県長崎市伊勢町2番31号","kouzui":"095-828-1355","gake":"https;//hirose-yourankai.jp","takashio":"×","jishin":"〇","tsunami":"腎臓内科","kaji":"","naisui":"","kazan":""}}
,{"type":"Feature","geometry":{"type":"Point","coordinates":[129.87666,32.74342]},"properties":{"Name":"サイノオ耳鼻咽喉科医院","Jusho":"長崎県長崎市銅座町5-7","kouzui":"095-822-1515","gake":"","takashio":"×","jishin":"〇","tsunami":"耳鼻咽喉科アレルギー科","kaji":"","naisui":"","kazan":""}}
,{"type":"Feature","geometry":{"type":"Point","coordinates":[129.72244,33.17157]},"properties":{"Name":"医療法人博雅会田中医院","Jusho":"長崎県佐世保市本島町2-11","kouzui":"0956-23-5308","gake":"","takashio":"×","jishin":"〇","tsunami":"内科外科胃腸科皮膚科","kaji":"","naisui":"","kazan":""}}
,{"type":"Feature","geometry":{"type":"Point","coordinates":[129.71884,33.171549]},"properties":{"Name":"野口内科","Jusho":"長崎県佐世保市奏町2-8石井海陸興業ビル4階","kouzui":"0956-23-3100","gake":"http://noguchi-naika,jp","takashio":"×","jishin":"〇","tsunami":"内科","kaji":"佐世保市総合医療センタ-（長崎県佐世保市平瀬町9-3）佐世保共済病院（長崎県佐世保市島地町10-17）佐世保中央病院（長崎県佐世保市大和町15）","naisui":"","kazan":""}}
,{"type":"Feature","geometry":{"type":"Point","coordinates":[129.71979,33.17323]},"properties":{"Name":"医療法人栄秀会まきの整形外科医院","Jusho":"長崎県佐世保市栄町5番9号サンクル2番館2F","kouzui":"0956-59-5777","gake":"","takashio":"×","jishin":"〇","tsunami":"整形外科","kaji":"","naisui":"","kazan":""}}
,{"type":"Feature","geometry":{"type":"Point","coordinates":[129.75446,33.25528]},"properties":{"Name":"世知原クリニック","Jusho":"長崎県佐世保市世知原町粟迎155-1","kouzui":"0956-78-2110","gake":"","takashio":"〇","jishin":"〇","tsunami":"内科外科リウマチ科","kaji":"佐世保市総合医療センター（長崎県佐世保市平瀬町）北松中央病院（長崎県佐世保市江迎町赤坂299）","naisui":"","kazan":""}}
,{"type":"Feature","geometry":{"type":"Point","coordinates":[129.80087,33.13014]},"properties":{"Name":"医療法人社団平世会村上医院","Jusho":"長崎県佐世保市広田1丁目5番25号","kouzui":"0956-38-1026","gake":"","takashio":"×","jishin":"〇","tsunami":"内科胃腸科","kaji":"佐世保市総合医療センタ-（長崎県佐世保市平瀬町9-3）佐世保中央病院（長崎県佐世保市大和町15）","naisui":"","kazan":""}}
,{"type":"Feature","geometry":{"type":"Point","coordinates":[129.72362,33.16909]},"properties":{"Name":"武井内科クリニック","Jusho":"長崎県佐世保市下京町9-19","kouzui":"0956-22-8733","gake":"http://www.takeinaikacl.jp","takashio":"×","jishin":"〇","tsunami":"内科","kaji":"","naisui":"","kazan":""}}
,{"type":"Feature","geometry":{"type":"Point","coordinates":[129.77788,33.14799]},"properties":{"Name":"とも眼科クリニック","Jusho":"長崎県佐世保市大塔町14-2イオン大塔ショッピングセンター2階","kouzui":"0956-76-7626","gake":"http://www.sasebo-tomoeyeclinic.com/","takashio":"×","jishin":"〇","tsunami":"眼科","kaji":"","naisui":"","kazan":""}}
,{"type":"Feature","geometry":{"type":"Point","coordinates":[129.71593,33.26856]},"properties":{"Name":"松瀬医院","Jusho":"長崎県佐世保市吉井町橋川内474の6","kouzui":"0956-64-3225","gake":"","takashio":"×","jishin":"〇","tsunami":"内科","kaji":"","naisui":"","kazan":""}}
,{"type":"Feature","geometry":{"type":"Point","coordinates":[129.73413,33.16762]},"properties":{"Name":"山祇診療所","Jusho":"長崎県佐世保市山祇町19-36","kouzui":"0956-31-3633","gake":"","takashio":"×","jishin":"〇","tsunami":"内科小児科","kaji":"","naisui":"","kazan":""}}
,{"type":"Feature","geometry":{"type":"Point","coordinates":[129.65242,33.20665]},"properties":{"Name":"最勝寺内科医院","Jusho":"長崎県佐世保市光町1-18","kouzui":"0956-47-2613","gake":"","takashio":"〇","jishin":"〇","tsunami":"内科小児科皮ふ科","kaji":"","naisui":"","kazan":""}}
,{"type":"Feature","geometry":{"type":"Point","coordinates":[129.71605,33.17664]},"properties":{"Name":"えんどうファミリークリニック","Jusho":"長崎県佐世保市相生町2-29","kouzui":"0956-23-7007","gake":"http://www.kenzokai.com","takashio":"〇","jishin":"〇","tsunami":"内科小児科","kaji":"千住病院（長崎県佐世保市宮地町5番5号）","naisui":"","kazan":""}}
,{"type":"Feature","geometry":{"type":"Point","coordinates":[129.7352,33.15902]},"properties":{"Name":"福田内科胃腸科医院","Jusho":"長崎県佐世保市稲荷町27-38","kouzui":"0956-32-6712","gake":"","takashio":"×","jishin":"〇","tsunami":"内科胃腸科放射線科","kaji":"","naisui":"","kazan":""}}
,{"type":"Feature","geometry":{"type":"Point","coordinates":[129.71494,33.17722]},"properties":{"Name":"医療法人小西外科脳神経外科","Jusho":"長崎県佐世保市天満町3-1","kouzui":"0956-22-2387","gake":"","takashio":"×","jishin":"〇","tsunami":"脳神経外科","kaji":"佐世保市総合医療センター（長崎県佐世保市平瀬町9番地3）","naisui":"","kazan":""}}
,{"type":"Feature","geometry":{"type":"Point","coordinates":[129.73076,33.15967]},"properties":{"Name":"犬塚医院","Jusho":"長崎県佐世保市福石町17-37","kouzui":"0956-31-1168","gake":"","takashio":"×","jishin":"〇","tsunami":"内科外科","kaji":"佐世保中央病院（長崎県佐世保市大和町15）","naisui":"","kazan":""}}
,{"type":"Feature","geometry":{"type":"Point","coordinates":[129.68318,33.20287]},"properties":{"Name":"医療法人愛生会医院","Jusho":"長崎県佐世保市中里町342-3","kouzui":"0956-47-6070","gake":"","takashio":"×","jishin":"〇","tsunami":"内科小児科","kaji":"","naisui":"","kazan":""}}
,{"type":"Feature","geometry":{"type":"Point","coordinates":[129.71844,33.17411]},"properties":{"Name":"まさこクリニック","Jusho":"長崎県佐世保市常盤町7-13パークサイドパル2F","kouzui":"0956-59-6868","gake":"","takashio":"×","jishin":"〇","tsunami":"糖尿病内分泌内科","kaji":"佐世保市総合医療センター（長崎県佐世保市平瀬町9番地3）佐世保中央病院（長崎県佐世保市大和町15）","naisui":"","kazan":""}}
,{"type":"Feature","geometry":{"type":"Point","coordinates":[129.69061,33.27899]},"properties":{"Name":"おおさと整形外科リハビリテーション科","Jusho":"長崎県佐世保市吉井町直谷1260","kouzui":"0956-64-3110","gake":"","takashio":"×","jishin":"〇","tsunami":"整形外科","kaji":"","naisui":"","kazan":""}}
,{"type":"Feature","geometry":{"type":"Point","coordinates":[129.73181,33.16024]},"properties":{"Name":"医療法人むかい医院","Jusho":"長崎県佐世保市若葉町1-17","kouzui":"0956-31-8573","gake":"","takashio":"×","jishin":"〇","tsunami":"外科胃腸科","kaji":"佐世保市総合医療センター（長崎県佐世保市平瀬町9番地3）佐世保中央病院（長崎県佐世保市大和町15）","naisui":"","kazan":""}}
,{"type":"Feature","geometry":{"type":"Point","coordinates":[129.71957,33.20826]},"properties":{"Name":"たかさきクリニック耳鼻いんこう科・アレルギー科","Jusho":"長崎県佐世保市田原町17-10","kouzui":"0956-76-7379","gake":"http://takasaki-clinic.org","takashio":"×","jishin":"〇","tsunami":"耳鼻咽喉科アレルギー科","kaji":"","naisui":"","kazan":""}}
,{"type":"Feature","geometry":{"type":"Point","coordinates":[129.71861,33.18835]},"properties":{"Name":"俵町浜野病院","Jusho":"長崎県佐世保市俵町22-1","kouzui":"0956-22-6548","gake":"http://wakabakai.or.jp","takashio":"×","jishin":"〇","tsunami":"内科外科","kaji":"佐世保市総合医療センター（長崎県佐世保市平瀬町9-3）長崎労災病院（長崎県佐世保市瀬戸越2丁目12-5）","naisui":"","kazan":""}}
,{"type":"Feature","geometry":{"type":"Point","coordinates":[129.79843,33.13729]},"properties":{"Name":"森山小児科内科医院","Jusho":"長崎県佐世保市早岐1丁目13-17","kouzui":"0956-38-2345","gake":"","takashio":"〇","jishin":"〇","tsunami":"小児科","kaji":"佐世保市総合医療センター（長崎県佐世保市平瀬町9番地3）","naisui":"","kazan":""}}
,{"type":"Feature","geometry":{"type":"Point","coordinates":[129.80016,33.12885]},"properties":{"Name":"松本脳神経外科医院","Jusho":"長崎県佐世保市広田1丁目10-7","kouzui":"0956-39-1157","gake":"http://www2s.biglobe.ne.jp/~takashi/index.htm","takashio":"×","jishin":"〇","tsunami":"脳神経外科内科リハビリテーション科","kaji":"佐世保中央病院（長崎県佐世保市大和町15）","naisui":"","kazan":""}}
,{"type":"Feature","geometry":{"type":"Point","coordinates":[129.74048,33.16134]},"properties":{"Name":"福田外科病院","Jusho":"長崎県佐世保市藤原町38-3","kouzui":"0956-34-0151","gake":"http://fukudageka.or.jp","takashio":"×","jishin":"〇","tsunami":"外科","kaji":"佐世保市総合医療センター（長崎県佐世保市平瀬町9番地3）佐世保中央病院（長崎県佐世保市大和町15）佐世保共済病院（長崎県佐世保市島地町10-17）長崎労災病院（長崎県佐世保市瀬戸越2丁目12-5）","naisui":"","kazan":""}}
,{"type":"Feature","geometry":{"type":"Point","coordinates":[129.72224,33.20119]},"properties":{"Name":"山口医院","Jusho":"長崎県佐世保市春日町29-14","kouzui":"0956-22-8610","gake":"https://yamaguchi-clinic.org/","takashio":"×","jishin":"〇","tsunami":"内科外科","kaji":"","naisui":"","kazan":""}}
,{"type":"Feature","geometry":{"type":"Point","coordinates":[129.72144,33.16655]},"properties":{"Name":"しらはえ町クリニック","Jusho":"長崎県佐世保市塩浜町6番22号Sビル2階","kouzui":"0956-76-7876","gake":"https://www.shirahae-cho-cl.com/","takashio":"×","jishin":"〇","tsunami":"心療内科精神科","kaji":"","naisui":"","kazan":""}}
,{"type":"Feature","geometry":{"type":"Point","coordinates":[129.80048,33.14043]},"properties":{"Name":"医療法人篤信会杏林病院","Jusho":"長崎県佐世保市早苗町491-14","kouzui":"0956-38-3373","gake":"","takashio":"×","jishin":"〇","tsunami":"内科","kaji":"","naisui":"","kazan":""}}
,{"type":"Feature","geometry":{"type":"Point","coordinates":[129.77139,33.1511]},"properties":{"Name":"石坂脳神経外科","Jusho":"長崎県佐世保市卸本町30-42","kouzui":"0956-34-0606","gake":"http://www.ishizaka-neurosurgery.com/","takashio":"×","jishin":"〇","tsunami":"脳神経外科","kaji":"","naisui":"","kazan":""}}
,{"type":"Feature","geometry":{"type":"Point","coordinates":[129.7054,33.16992]},"properties":{"Name":"医療法人社団真友会藤井医院","Jusho":"長崎県佐世保市金比良町7-20","kouzui":"0956-22-4577","gake":"","takashio":"〇","jishin":"〇","tsunami":"外科胃腸科内科","kaji":"佐世保市総合医療センター（長崎県佐世保市平瀬町9番地3）","naisui":"","kazan":""}}
,{"type":"Feature","geometry":{"type":"Point","coordinates":[129.72321,33.17163]},"properties":{"Name":"医療法人社団松添胃腸科外科総合診療クリニック","Jusho":"長崎県佐世保市光月町1-26","kouzui":"0956-22-6334","gake":"","takashio":"〇","jishin":"〇","tsunami":"内科","kaji":"佐世保中央病院（長崎県佐世保市大和町15）","naisui":"","kazan":""}}
,{"type":"Feature","geometry":{"type":"Point","coordinates":[129.72144,33.20719]},"properties":{"Name":"久保内科病院","Jusho":"長崎県佐世保市田原町11-9","kouzui":"0956-49-3377","gake":"https://kubonaika.or.jp/","takashio":"×","jishin":"〇","tsunami":"内科","kaji":"","naisui":"","kazan":""}}
,{"type":"Feature","geometry":{"type":"Point","coordinates":[129.72478,33.17129]},"properties":{"Name":"森本耳鼻咽喉科医院","Jusho":"長崎県佐世保市宮崎町4-6","kouzui":"0956-22-1781","gake":"","takashio":"×","jishin":"〇","tsunami":"耳鼻科","kaji":"佐世保共済病院（長崎県佐世保市島地町10-17）京町内科病院（長崎県佐世保市本島町1番20号）","naisui":"","kazan":""}}
,{"type":"Feature","geometry":{"type":"Point","coordinates":[129.72609,33.17138]},"properties":{"Name":"医療法人恒明会ほかお眼科","Jusho":"長崎県佐世保市松川町4-10","kouzui":"0956-22-8838","gake":"http://www.hokao-ganka.com","takashio":"〇","jishin":"〇","tsunami":"眼科","kaji":"佐世保市総合医療センター（長崎県佐世保市平瀬町9番地3）","naisui":"","kazan":""}}
,{"type":"Feature","geometry":{"type":"Point","coordinates":[129.72627,33.16402]},"properties":{"Name":"医療法人双葉会宇野眼科医院","Jusho":"長崎県佐世保市白南風町1-13JR九州佐世保ビル1F","kouzui":"0956-76-7700","gake":"http://uno-ganka.com","takashio":"×","jishin":"〇","tsunami":"眼科","kaji":"","naisui":"","kazan":""}}
,{"type":"Feature","geometry":{"type":"Point","coordinates":[129.63968,33.29769]},"properties":{"Name":"北松中央病院","Jusho":"長崎県佐世保市江迎町赤坂299番地","kouzui":"0956-65-3101","gake":"http://www.hokusho.dr-clinic.jp/","takashio":"×","jishin":"〇","tsunami":"内科外科","kaji":"","naisui":"","kazan":""}}
,{"type":"Feature","geometry":{"type":"Point","coordinates":[129.76801,33.1605]},"properties":{"Name":"横尾内科医院","Jusho":"長崎県佐世保市日宇町2564","kouzui":"0956-31-7788","gake":"","takashio":"×","jishin":"〇","tsunami":"内科小児科","kaji":"佐世保中央病院（長崎県佐世保市大和町15）佐世保市総合医療センター（長崎県佐世保市平瀬町9番地3）佐世保共済病院（長崎県佐世保市島地町10-17）","naisui":"","kazan":""}}
,{"type":"Feature","geometry":{"type":"Point","coordinates":[129.72282,33.17108]},"properties":{"Name":"京町内科病院","Jusho":"長崎県佐世保市本島町1番20号","kouzui":"0956-25-2255","gake":"","takashio":"×","jishin":"〇","tsunami":"内科循環器科","kaji":"","naisui":"","kazan":""}}
,{"type":"Feature","geometry":{"type":"Point","coordinates":[129.7271,33.16543]},"properties":{"Name":"千住博内科","Jusho":"長崎県佐世保市白南風町6-2","kouzui":"0956-22-8632","gake":"","takashio":"〇","jishin":"〇","tsunami":"内科","kaji":"佐世保中央病院（長崎県佐世保市大和町15）佐世保市総合医療センター（長崎県佐世保市平瀬町9番地3）佐世保共済病院（長崎県佐世保市島地町10-17）長崎労災病院（長崎県佐世保市瀬戸越2丁目12-5）千住病院（長崎県佐世保市宮地町5番5号）","naisui":"","kazan":""}}
,{"type":"Feature","geometry":{"type":"Point","coordinates":[129.80119,33.12178]},"properties":{"Name":"むらはし循環器科内科","Jusho":"長崎県佐世保市広田3丁目24番7号","kouzui":"0956-39-5727","gake":"","takashio":"×","jishin":"〇","tsunami":"内科循環器科呼吸器科","kaji":"","naisui":"","kazan":""}}
,{"type":"Feature","geometry":{"type":"Point","coordinates":[129.71689,33.17425]},"properties":{"Name":"医療法人原口消化器内科","Jusho":"長崎県佐世保市松浦町5-28","kouzui":"0956-37-3777","gake":"","takashio":"×","jishin":"〇","tsunami":"内科消化器内科","kaji":"","naisui":"","kazan":""}}
,{"type":"Feature","geometry":{"type":"Point","coordinates":[129.73267,33.20974]},"properties":{"Name":"長崎労災病院","Jusho":"長崎県佐世保市瀬戸越2丁目12-5","kouzui":"0956-49-2191","gake":"http://www.nagasakih.johas.go.jp/","takashio":"×","jishin":"〇","tsunami":"内科循環器内科外科整形外科形成外科脳神経外科泌尿器科眼科麻酔科","kaji":"","naisui":"","kazan":""}}
,{"type":"Feature","geometry":{"type":"Point","coordinates":[129.77861,33.16026]},"properties":{"Name":"まつむらクリニック","Jusho":"長崎県佐世保市もみじが丘町40-39","kouzui":"0956-33-6788","gake":"http://www.matsumura-clinic.net/","takashio":"×","jishin":"〇","tsunami":"内科","kaji":"佐世保中央病院（佐世保市大和町15番地）","naisui":"","kazan":""}}
,{"type":"Feature","geometry":{"type":"Point","coordinates":[129.72144,33.16655]},"properties":{"Name":"スヲヤ耳鼻咽喉科医院","Jusho":"長崎県佐世保市塩浜町6-22","kouzui":"0956-22-5413","gake":"","takashio":"×","jishin":"〇","tsunami":"耳鼻咽喉科","kaji":"","naisui":"","kazan":""}}
,{"type":"Feature","geometry":{"type":"Point","coordinates":[129.71579,33.17892]},"properties":{"Name":"医療法人増田整形外科","Jusho":"長崎県佐世保市高砂町4-21","kouzui":"0956-24-0056","gake":"https://masudaseikeigeka.com/","takashio":"〇","jishin":"〇","tsunami":"整形外科リウマチ科","kaji":"平戸市国民健康保険大島診療所（長崎県平戸市大島村神浦154番地）平戸市国民健康保険度島診療所（長崎県平戸市度島町1673番地）佐世保市総合医療センター宇久診療所（長崎県佐世保市宇久町平2344）国民健康保険直営松浦市立鷹島診療所（長崎県松浦市鷹島町神崎免352-1）佐世保市総合医療センター黒島診療所（長崎県佐世保市黒島町3175）佐世保市総合医療センター高島診療所（長崎県佐世保市高島町626番地3）平戸市立生月病院（長崎県平戸市生月町山田免2965番地）青洲会病院（長崎県平戸市田平町山内免612-4）平戸市民病院（長崎県平戸市草積町1125-12）田中医院（長崎県西海市西海町黒口郷1491番地第1）小値賀町国民健康保険診療所（長崎県北松浦郡小値賀町笛吹郷1757番地8）長崎県上五島病院（長崎県南松浦郡新上五島町青方郷1549-11）柿添病院（長崎県平戸市鏡川町278）押渕医院（長崎県松浦市御厨町里免37番地の1）北松中央病院（長崎県佐世保市江迎町赤坂299番地）","naisui":"","kazan":""}}
,{"type":"Feature","geometry":{"type":"Point","coordinates":[129.68185,33.20635]},"properties":{"Name":"医療法人まつお内科医院","Jusho":"長崎県佐世保市下本山町1316-4","kouzui":"0956-48-6500","gake":"","takashio":"×","jishin":"〇","tsunami":"内科泌尿器科人口透析内科","kaji":"","naisui":"","kazan":""}}
,{"type":"Feature","geometry":{"type":"Point","coordinates":[129.69344,33.1597]},"properties":{"Name":"医療法人翠山会いちょうクリニック","Jusho":"長崎県佐世保市赤崎町298","kouzui":"0956-26-8181","gake":"","takashio":"〇","jishin":"〇","tsunami":"内科","kaji":"","naisui":"","kazan":""}}
,{"type":"Feature","geometry":{"type":"Point","coordinates":[129.71837,33.17514]},"properties":{"Name":"村上きんしろう循環器内科","Jusho":"長崎県佐世保市松浦町2-21九十九島ビル3階","kouzui":"0956-56-7060","gake":"","takashio":"×","jishin":"〇","tsunami":"内科循環器科","kaji":"国家公務員共済組合連合会佐世保共済病院（長崎県佐世保市島地町10-17）","naisui":"","kazan":""}}
,{"type":"Feature","geometry":{"type":"Point","coordinates":[129.74133,33.1577]},"properties":{"Name":"医療法人社団音琴クリニック","Jusho":"長崎県佐世保市大宮町29-5","kouzui":"0956-31-1230","gake":"","takashio":"〇","jishin":"〇","tsunami":"内科","kaji":"","naisui":"","kazan":""}}
,{"type":"Feature","geometry":{"type":"Point","coordinates":[130.37047,32.7826]},"properties":{"Name":"柴田長庚堂病院","Jusho":"長崎県島原市中堀町68","kouzui":"0957-64-1111","gake":"http://www.saikakai.jp/","takashio":"×","jishin":"〇","tsunami":"内科","kaji":"","naisui":"","kazan":""}}
,{"type":"Feature","geometry":{"type":"Point","coordinates":[130.36839,32.7861]},"properties":{"Name":"医療法人雄心会たかお循環器内科","Jusho":"長崎県島原市桜町953番地1","kouzui":"0957-62-6300","gake":"","takashio":"〇","jishin":"〇","tsunami":"内科循環器内科","kaji":"長崎県島原病院（長崎県島原市下川尻町7895番地）","naisui":"","kazan":""}}
,{"type":"Feature","geometry":{"type":"Point","coordinates":[130.37346,32.77279]},"properties":{"Name":"医療法人翔南会山崎産婦人科医院","Jusho":"長崎県島原市湊町350","kouzui":"0957-64-1103","gake":"http://www.yamasaki-iin.com","takashio":"×","jishin":"〇","tsunami":"産婦人科","kaji":"","naisui":"","kazan":""}}
,{"type":"Feature","geometry":{"type":"Point","coordinates":[130.36932,32.78954]},"properties":{"Name":"医療法人宮崎医院","Jusho":"長崎県島原市上の町869番地","kouzui":"0957-62-2258","gake":"","takashio":"×","jishin":"〇","tsunami":"泌尿器科皮膚科","kaji":"諫早総合病院（長崎県諫早市永昌東町24番1号）長崎県島原病院（長崎県島原市下川尻町7895番地）国立病院機構長崎医療センター（長崎県大村市久原2丁目1001-1）","naisui":"","kazan":""}}
,{"type":"Feature","geometry":{"type":"Point","coordinates":[130.36664,32.76071]},"properties":{"Name":"医療法人慈眼会坂本医院内科婦人科","Jusho":"長崎県島原市親和町丁2670番地10","kouzui":"0957-63-4641","gake":"","takashio":"〇","jishin":"〇","tsunami":"内科婦人科","kaji":"","naisui":"","kazan":""}}
,{"type":"Feature","geometry":{"type":"Point","coordinates":[130.3688,32.78893]},"properties":{"Name":"医療法人城内会八尾病院","Jusho":"長崎県島原市城内1丁目1193","kouzui":"0957-62-5131","gake":"https://www.yao-hp.jp/","takashio":"×","jishin":"〇","tsunami":"内科形成外科","kaji":"","naisui":"","kazan":""}}
,{"type":"Feature","geometry":{"type":"Point","coordinates":[130.04356,32.85369]},"properties":{"Name":"医療法人松角会マムレディースクリニック","Jusho":"長崎県諫早市永昌東町20-23","kouzui":"0957-22-0678","gake":"","takashio":"〇","jishin":"〇","tsunami":"産婦人科","kaji":"諫早総合病院（長崎県諫早市永昌東町24番1号）","naisui":"","kazan":""}}
,{"type":"Feature","geometry":{"type":"Point","coordinates":[130.06174,32.83851]},"properties":{"Name":"医療法人浩愛会コムタ外科・整形外科医院","Jusho":"長崎県諫早市幸町25番7号","kouzui":"0957-22-2597","gake":"https://komuta-geka.com","takashio":"〇","jishin":"〇","tsunami":"胃腸科外科整形外科リハビリテーション科","kaji":"JCHO諫早総合病院（長崎県諫早市永昌東町24番1号）","naisui":"","kazan":""}}
,{"type":"Feature","geometry":{"type":"Point","coordinates":[130.04242,32.85359]},"properties":{"Name":"医療法人中島内科・神経内科","Jusho":"長崎県諫早市永昌東町19番28号ピュア211F","kouzui":"0957-21-3746","gake":"","takashio":"〇","jishin":"〇","tsunami":"内科神経内科","kaji":"諫早総合病院（長崎県諫早市永昌東町24番1号）","naisui":"","kazan":""}}
,{"type":"Feature","geometry":{"type":"Point","coordinates":[130.05766,32.84026]},"properties":{"Name":"医療法人ごんどう循環器内科医院","Jusho":"長崎県諫早市厚生町6番1号","kouzui":"0957-22-8850","gake":"","takashio":"〇","jishin":"〇","tsunami":"内科循環器科脳神経内科","kaji":"諫早総合病院（長崎県諫早市永昌東町24番1号）","naisui":"","kazan":""}}
,{"type":"Feature","geometry":{"type":"Point","coordinates":[130.01248,32.848]},"properties":{"Name":"諫早そよかぜクリニック","Jusho":"長崎県諫早市津水町160番地","kouzui":"0957-49-8855","gake":"http://www.soyoclin.com/","takashio":"〇","jishin":"〇","tsunami":"内科消化器内科","kaji":"","naisui":"","kazan":""}}
,{"type":"Feature","geometry":{"type":"Point","coordinates":[130.05254,32.83249]},"properties":{"Name":"たにおか脳神経外科","Jusho":"長崎県諫早市小川町1263-1","kouzui":"0957-47-8733","gake":"http://t-nc.com","takashio":"×","jishin":"〇","tsunami":"脳神経外科","kaji":"諫早総合病院（長崎県諫早市永昌東町24番1号）宮崎病院（長崎県諫早市久山町1575番地1）","naisui":"","kazan":""}}
,{"type":"Feature","geometry":{"type":"Point","coordinates":[129.99569,32.76291]},"properties":{"Name":"鬼塚内科医院","Jusho":"長崎県諫早市飯盛町里179番地2","kouzui":"0957-49-1301","gake":"","takashio":"〇","jishin":"〇","tsunami":"内科","kaji":"諫早総合病院（長崎県諫早市永昌東町24番1号）日本赤十字社長崎原爆病院（長崎県長崎市茂里町3番15号）","naisui":"","kazan":""}}
,{"type":"Feature","geometry":{"type":"Point","coordinates":[130.00215,32.83057]},"properties":{"Name":"社会医療法人三佼会宮崎病院","Jusho":"長崎県諫早市久山町1575番地1","kouzui":"0957-25-4800","gake":"http://www.sankoukai.net","takashio":"×","jishin":"〇","tsunami":"腎臓内科泌尿器科消化器内科循環器内科内科外科脳神経外科","kaji":"","naisui":"","kazan":""}}
,{"type":"Feature","geometry":{"type":"Point","coordinates":[129.996,32.82845]},"properties":{"Name":"社会医療法人三佼会宮崎診療所","Jusho":"長崎県諫早市久山台9番地10","kouzui":"0957-25-2050","gake":"http://www.sankoukai.net/miyazaki-s","takashio":"×","jishin":"〇","tsunami":"泌尿器科消化器内科循環器内科内科脳神経外科整形外科皮膚科","kaji":"","naisui":"","kazan":""}}
,{"type":"Feature","geometry":{"type":"Point","coordinates":[130.04126,32.84527]},"properties":{"Name":"医療法人吉田内科クリニック","Jusho":"長崎県諫早市宇都町19番16号","kouzui":"0957-22-2962","gake":"","takashio":"〇","jishin":"〇","tsunami":"内科","kaji":"諫早総合病院（長崎県諫早市永昌東町24番1号）","naisui":"","kazan":""}}
,{"type":"Feature","geometry":{"type":"Point","coordinates":[130.04289,32.8513]},"properties":{"Name":"医療法人ふじえクリニック","Jusho":"長崎県諫早市永昌東町9番26号ニューウインドビル3Ｆ","kouzui":"0957-21-5070","gake":"","takashio":"〇","jishin":"〇","tsunami":"内科麻酔科","kaji":"諫早記念病院（長崎県諫早市天満町2番21号）杉原病院（佐賀県佐賀市鍋島町大字八戸溝1629-1）","naisui":"","kazan":""}}
,{"type":"Feature","geometry":{"type":"Point","coordinates":[130.04466,32.84888]},"properties":{"Name":"一ノ瀬皮膚科医院","Jusho":"長崎県諫早市天満町5-15","kouzui":"0957-21-5501","gake":"","takashio":"×","jishin":"〇","tsunami":"皮膚科","kaji":"ＪＣＨＯ諫早総合病院（長崎県諫早市永昌東町24-1）","naisui":"","kazan":""}}
,{"type":"Feature","geometry":{"type":"Point","coordinates":[130.05687,32.84455]},"properties":{"Name":"三村医院","Jusho":"長崎県諫早市東本町3番13号","kouzui":"0957-22-0120","gake":"","takashio":"〇","jishin":"〇","tsunami":"内科眼科","kaji":"","naisui":"","kazan":""}}
,{"type":"Feature","geometry":{"type":"Point","coordinates":[130.02811,32.8573]},"properties":{"Name":"医療法人宮本外科","Jusho":"長崎県諫早市西栄田町683","kouzui":"0957-25-0024","gake":"https://www.miyamotogeka.com","takashio":"〇","jishin":"〇","tsunami":"外科","kaji":"長崎原爆諫早病院（長崎県諫早市多良見町化屋986-2）","naisui":"","kazan":""}}
,{"type":"Feature","geometry":{"type":"Point","coordinates":[130.02452,32.84688]},"properties":{"Name":"たけした内科小児科医院","Jusho":"長崎県諫早市山川町2-13","kouzui":"0957-26-6200","gake":"","takashio":"〇","jishin":"〇","tsunami":"内科小児科","kaji":"諫早総合病院（長崎県諫早市永昌東町24番1号）長崎医療センター（長崎県大村市久原2丁目1001-1）","naisui":"","kazan":""}}
,{"type":"Feature","geometry":{"type":"Point","coordinates":[130.04225,32.85636]},"properties":{"Name":"長崎県立こども医療福祉センター","Jusho":"長崎県諫早市永昌東町24-3","kouzui":"0957-22-1300","gake":"http://www.pref.nagasaki.jp/section/kodomo-iryo-c/index.html","takashio":"×","jishin":"〇","tsunami":"小児科","kaji":"","naisui":"","kazan":""}}
,{"type":"Feature","geometry":{"type":"Point","coordinates":[129.95721,32.92015]},"properties":{"Name":"むたクリニック","Jusho":"長崎県大村市古町2丁目533-6","kouzui":"0957-52-4501","gake":"","takashio":"×","jishin":"〇","tsunami":"外科整形外科","kaji":"長崎医療センター（長崎県大村市久原2丁目1001-1）市立大村市民病院（長崎県大村市古賀島133番地22）","naisui":"","kazan":""}}
,{"type":"Feature","geometry":{"type":"Point","coordinates":[129.96489,32.92193]},"properties":{"Name":"小松内科","Jusho":"長崎県大村市上諏訪町883-1","kouzui":"0957-48-6000","gake":"","takashio":"〇","jishin":"〇","tsunami":"内科","kaji":"市立大村市民病院（長崎県大村市古賀島町133-22）長崎医療センター（長崎県大村市久原2丁目1001-1）","naisui":"","kazan":""}}
,{"type":"Feature","geometry":{"type":"Point","coordinates":[129.9767,32.89432]},"properties":{"Name":"社会福祉法人みさかえの園あゆみの家","Jusho":"長崎県大村市久原2丁目1346番地1","kouzui":"0957-27-3115","gake":"http://misakae.or.jp/facility/ayuminoie/","takashio":"〇","jishin":"〇","tsunami":"小児科精神科内科","kaji":"","naisui":"","kazan":""}}
,{"type":"Feature","geometry":{"type":"Point","coordinates":[129.9744,32.89975]},"properties":{"Name":"神田クリニック","Jusho":"長崎県大村市木場1丁目947-3","kouzui":"0957-48-5648","gake":"http://kandaclinic.jp/","takashio":"×","jishin":"〇","tsunami":"内科外科","kaji":"長崎医療センター（長崎県大村市久原2丁目1001-1）","naisui":"","kazan":""}}
,{"type":"Feature","geometry":{"type":"Point","coordinates":[129.95436,32.93908]},"properties":{"Name":"医療法人澤田胃腸科内科医院","Jusho":"長崎県大村市小路口本町330番地1","kouzui":"0957-55-1507","gake":"","takashio":"〇","jishin":"〇","tsunami":"胃腸科内科","kaji":"","naisui":"","kazan":""}}
,{"type":"Feature","geometry":{"type":"Point","coordinates":[129.96558,32.90136]},"properties":{"Name":"医療法人十慶会くしま記念クリニック","Jusho":"長崎県大村市玖島2丁目338-21","kouzui":"0957-51-1256","gake":"","takashio":"〇","jishin":"〇","tsunami":"内科","kaji":"市立大村市民病院（長崎県大村市古賀島町133-22）","naisui":"","kazan":""}}
,{"type":"Feature","geometry":{"type":"Point","coordinates":[129.96083,32.90482]},"properties":{"Name":"医療法人おび産婦人科医院","Jusho":"長崎県大村市本町223-2","kouzui":"0957-54-1103","gake":"","takashio":"〇","jishin":"〇","tsunami":"産婦人科","kaji":"国立病院機構長崎医療センター（長崎県大村市久原2丁目1001-1）","naisui":"","kazan":""}}
,{"type":"Feature","geometry":{"type":"Point","coordinates":[129.96185,32.93542]},"properties":{"Name":"医療法人うえき心療内科クリニック","Jusho":"長崎県大村市坂口町374番地6","kouzui":"0957-54-6000","gake":"http://www.uekiclinic.com","takashio":"×","jishin":"〇","tsunami":"心療内科精神科","kaji":"長崎医療センター（長崎県大村市久原2丁目1001-1）長崎県精神医療センター（長崎県大村市西部町1575番地2）","naisui":"","kazan":""}}
,{"type":"Feature","geometry":{"type":"Point","coordinates":[129.94141,32.93647]},"properties":{"Name":"医療法人みね内科クリニック","Jusho":"長崎県大村市富の原1丁目1101番地3","kouzui":"0957-55-5070","gake":"","takashio":"〇","jishin":"〇","tsunami":"内科","kaji":"市立大村市民病院（長崎県大村市古賀島町133-22）長崎医療センター（長崎県大村市久原2丁目1001-1）","naisui":"","kazan":""}}
,{"type":"Feature","geometry":{"type":"Point","coordinates":[129.96283,32.90664]},"properties":{"Name":"医療法人フジイ胃腸科クリニック","Jusho":"長崎県大村市東本町8番地1","kouzui":"0957-54-8686","gake":"","takashio":"〇","jishin":"〇","tsunami":"内科胃腸科呼吸器科","kaji":"","naisui":"","kazan":""}}
,{"type":"Feature","geometry":{"type":"Point","coordinates":[129.96892,32.89614]},"properties":{"Name":"医療法人北村理子クリニック皮ふ形成外科","Jusho":"長崎県大村市久原2丁目902-1","kouzui":"0957-47-5515","gake":"http://www.kitamurariko.com","takashio":"×","jishin":"〇","tsunami":"皮ふ形成外科","kaji":"","naisui":"","kazan":""}}
,{"type":"Feature","geometry":{"type":"Point","coordinates":[129.9744,32.89975]},"properties":{"Name":"医療法人ありやま小児科","Jusho":"長崎県大村市木場1丁目947番地4","kouzui":"0957-49-6410","gake":"http://park.paa.jp/park2/clinics/1752","takashio":"〇","jishin":"〇","tsunami":"小児科","kaji":"長崎医療センター（長崎県大村市久原2丁目1001-1）","naisui":"","kazan":""}}
,{"type":"Feature","geometry":{"type":"Point","coordinates":[129.9539,32.91486]},"properties":{"Name":"医療法人ともなが内科クリニック","Jusho":"長崎県大村市杭出津2丁目555番地","kouzui":"0957-54-5000","gake":"","takashio":"〇","jishin":"〇","tsunami":"内科呼吸器科胃腸科","kaji":"市立大村市民病院（長崎県大村市古賀島町133-22）","naisui":"","kazan":""}}
,{"type":"Feature","geometry":{"type":"Point","coordinates":[129.96135,32.91479]},"properties":{"Name":"医療法人おおつか内科医院","Jusho":"長崎県大村市西三城町15-13","kouzui":"0957-53-8080","gake":"","takashio":"×","jishin":"〇","tsunami":"内科","kaji":"市立大村市民病院（長崎県大村市古賀島町133-22）国立長崎医療センター（長崎県大村市久原2丁目1001-1）","naisui":"","kazan":""}}
,{"type":"Feature","geometry":{"type":"Point","coordinates":[129.9612,32.90746]},"properties":{"Name":"佐伯皮ふ科医院","Jusho":"長崎県大村市東本町543","kouzui":"0957-52-4330","gake":"","takashio":"×","jishin":"〇","tsunami":"皮膚科","kaji":"国立長崎医療センター（長崎県大村市久原2丁目1001-1）市立大村市民病院（長崎県大村市古賀島町133-22）","naisui":"","kazan":""}}
,{"type":"Feature","geometry":{"type":"Point","coordinates":[129.94775,32.93948]},"properties":{"Name":"橋口整形外科医院","Jusho":"長崎県大村市竹松本町936","kouzui":"0957-55-8739","gake":"","takashio":"×","jishin":"〇","tsunami":"整形外科","kaji":"市立大村市民病院（大村市古賀島町133番地22）","naisui":"","kazan":""}}
,{"type":"Feature","geometry":{"type":"Point","coordinates":[129.95981,32.93752]},"properties":{"Name":"つねとう内科・循環器内科","Jusho":"長崎県大村市小路口町258番地4","kouzui":"0957-55-8855","gake":"https://tsuneto-clinic.com/","takashio":"〇","jishin":"〇","tsunami":"内科循環器内科","kaji":"長崎医療センター（長崎県大村市久原2丁目1001-1）","naisui":"","kazan":""}}
,{"type":"Feature","geometry":{"type":"Point","coordinates":[129.9612,32.90746]},"properties":{"Name":"田川小児科","Jusho":"長崎県大村市東本町542番地","kouzui":"0957-52-4000","gake":"","takashio":"〇","jishin":"〇","tsunami":"小児科","kaji":"長崎医療センター（長崎県大村市久原2丁目1001-1）","naisui":"","kazan":""}}
,{"type":"Feature","geometry":{"type":"Point","coordinates":[129.95905,32.92286]},"properties":{"Name":"出口小児科医院","Jusho":"長崎県大村市諏訪3丁目78番地","kouzui":"0957-52-2252","gake":"https://www.deguchi-pc.com/","takashio":"×","jishin":"〇","tsunami":"小児科精神科","kaji":"長崎医療センター（長崎県大村市久原2丁目1001-1）","naisui":"","kazan":""}}
,{"type":"Feature","geometry":{"type":"Point","coordinates":[129.58058,33.36298]},"properties":{"Name":"谷川病院","Jusho":"長崎県平戸市田平町山内免400番地","kouzui":"0950-57-0045","gake":"http://tanigawa-hospital.jp","takashio":"×","jishin":"〇","tsunami":"内科皮膚科","kaji":"","naisui":"","kazan":""}}
,{"type":"Feature","geometry":{"type":"Point","coordinates":[129.57443,33.36563]},"properties":{"Name":"青洲会病院","Jusho":"長崎県平戸市田平町山内免612-4","kouzui":"0950-57-2155","gake":"http://n-seisyukai.jp","takashio":"×","jishin":"〇","tsunami":"内科","kaji":"","naisui":"","kazan":""}}
,{"type":"Feature","geometry":{"type":"Point","coordinates":[129.55238,33.37214]},"properties":{"Name":"医療法人光佑会北川病院","Jusho":"長崎県平戸市浦ノ町737番地","kouzui":"0950-22-2344","gake":"","takashio":"×","jishin":"〇","tsunami":"内科小児科","kaji":"佐世保市総合医療センター（長崎県佐世保市平瀬町9番地3）北松中央病院（長崎県佐世保市江迎町赤坂299番地）","naisui":"","kazan":""}}
,{"type":"Feature","geometry":{"type":"Point","coordinates":[129.55197,33.36929]},"properties":{"Name":"医療法人医理会柿添病院","Jusho":"長崎県平戸市鏡川町278","kouzui":"0950-23-2151","gake":"https://kakizoehospital.or.jp/","takashio":"×","jishin":"〇","tsunami":"外科内科小児科整形外科皮膚科","kaji":"医療法人医理科会附属中野診療所（長崎県平戸市山中町696番地3）医療法人医理会木引田健康クリニック（平戸市木引田町414番地）","naisui":"","kazan":""}}
,{"type":"Feature","geometry":{"type":"Point","coordinates":[129.55032,33.36346]},"properties":{"Name":"ごとう耳鼻咽喉科・整形外科医院","Jusho":"長崎県平戸市戸石川町964番地","kouzui":"0950-22-4377","gake":"https://www.gotoujibika.com/","takashio":"〇","jishin":"〇","tsunami":"耳鼻咽喉科","kaji":"","naisui":"","kazan":""}}
,{"type":"Feature","geometry":{"type":"Point","coordinates":[129.5075,33.34348]},"properties":{"Name":"柿添病院附属中野診療所","Jusho":"長崎県平戸市山中町696番地3","kouzui":"0950-20-4100","gake":"","takashio":"×","jishin":"〇","tsunami":"内科耳鼻咽喉科","kaji":"柿添病院（長崎県平戸市鏡川町278）","naisui":"","kazan":""}}
,{"type":"Feature","geometry":{"type":"Point","coordinates":[129.70445,33.34161]},"properties":{"Name":"菊地病院","Jusho":"長崎県松浦市志佐町浦免1765-4","kouzui":"0956-72-0151","gake":"http://www.kikuchi-hp.com","takashio":"×","jishin":"〇","tsunami":"内科","kaji":"","naisui":"","kazan":""}}
,{"type":"Feature","geometry":{"type":"Point","coordinates":[129.6878,33.41174]},"properties":{"Name":"松浦市立青島診療所","Jusho":"長崎県松浦市星鹿町青島免651","kouzui":"0956-75-0782","gake":"","takashio":"×","jishin":"〇","tsunami":"内科外科","kaji":"","naisui":"","kazan":""}}
,{"type":"Feature","geometry":{"type":"Point","coordinates":[129.36276,34.41848]},"properties":{"Name":"梅野眼科医院対馬診療所","Jusho":"長崎県対馬市豊玉町大字曽800","kouzui":"0920-58-1023","gake":"","takashio":"〇","jishin":"〇","tsunami":"眼科","kaji":"","naisui":"","kazan":""}}
,{"type":"Feature","geometry":{"type":"Point","coordinates":[129.75771,33.79285]},"properties":{"Name":"しらかわ内科クリニック","Jusho":"長崎県壱岐市芦辺町諸吉仲触4-1","kouzui":"0920-40-0566","gake":"","takashio":"〇","jishin":"〇","tsunami":"内科","kaji":"長崎県壱岐病院（長崎県壱岐市郷ノ浦町東触1626番地）","naisui":"","kazan":""}}
,{"type":"Feature","geometry":{"type":"Point","coordinates":[129.69106,33.74793]},"properties":{"Name":"光武内科循環器科病院","Jusho":"長崎県壱岐市郷ノ浦町郷ノ浦15番地3","kouzui":"0920-47-0023","gake":"http://www.gensyukai.or.jp","takashio":"〇","jishin":"〇","tsunami":"循環器内科","kaji":"壱岐病院（長崎県壱岐市郷ノ浦町東触1626番地）","naisui":"","kazan":""}}
,{"type":"Feature","geometry":{"type":"Point","coordinates":[129.70888,33.75682]},"properties":{"Name":"長崎県壱岐病院","Jusho":"長崎県壱岐市郷ノ浦町東触1626番地","kouzui":"0920-47-1131","gake":"http://iki-hospital.jp/","takashio":"△","jishin":"〇","tsunami":"","kaji":"","naisui":"","kazan":""}}
,{"type":"Feature","geometry":{"type":"Point","coordinates":[128.83656,32.69379]},"properties":{"Name":"医療法人みどりが丘クリニック","Jusho":"長崎県五島市木場町570-4","kouzui":"0959-75-0620","gake":"","takashio":"×","jishin":"〇","tsunami":"内科","kaji":"","naisui":"","kazan":""}}
,{"type":"Feature","geometry":{"type":"Point","coordinates":[128.84317,32.7006]},"properties":{"Name":"聖マリア病院","Jusho":"長崎県五島市松山町133番地2","kouzui":"0959-72-5101","gake":"http://www.g-maria.jp/","takashio":"×","jishin":"〇","tsunami":"内科小児科","kaji":"","naisui":"","kazan":""}}
,{"type":"Feature","geometry":{"type":"Point","coordinates":[128.61445,32.61628]},"properties":{"Name":"五島市国民健康保険玉之浦診療所","Jusho":"長崎県五島市玉之浦町玉之浦1397-1","kouzui":"0959-87-2241","gake":"","takashio":"×","jishin":"〇","tsunami":"内科外科小児科","kaji":"","naisui":"","kazan":""}}
,{"type":"Feature","geometry":{"type":"Point","coordinates":[128.84062,32.69211]},"properties":{"Name":"社会医療法人健友会五島ふれあい診療所","Jusho":"長崎県五島市三尾野2丁目1番29号","kouzui":"0959-75-0717","gake":"","takashio":"×","jishin":"〇","tsunami":"内科外科リハビリテーション科","kaji":"","naisui":"","kazan":""}}
,{"type":"Feature","geometry":{"type":"Point","coordinates":[128.81754,32.69062]},"properties":{"Name":"長崎県五島中央病院","Jusho":"長崎県五島市吉久木町205番地","kouzui":"0959-72-3181","gake":"http://www.gotocyuoh-hospital.jp/","takashio":"×","jishin":"〇","tsunami":"内科外科小児科整形外科産婦人科泌尿器科眼科精神科","kaji":"","naisui":"","kazan":""}}
,{"type":"Feature","geometry":{"type":"Point","coordinates":[129.67649,33.06222]},"properties":{"Name":"田中医院","Jusho":"長崎県西海市西海町黒口郷1491番地","kouzui":"0959-32-0033","gake":"","takashio":"〇","jishin":"〇","tsunami":"内科耳鼻科整形外科","kaji":"佐世保市総合医療センター（長崎県佐世保市平瀬町9番地3）佐世保中央病院（長崎県佐世保市大和町15）","naisui":"","kazan":""}}
,{"type":"Feature","geometry":{"type":"Point","coordinates":[129.74639,33.05568]},"properties":{"Name":"医療法人萌愛会長崎セント・ノーヴァ病院","Jusho":"長崎県西海市西彼町伊ノ浦郷127番地","kouzui":"0959-28-1185","gake":"https://sentnova.jp/","takashio":"×","jishin":"〇","tsunami":"内科循環器内科老年内科外科整形外科リハビリテーション科","kaji":"佐世保市総合医療センター（長崎県佐世保市平瀬町9番地3）長崎大学病院（長崎県長崎市坂本1丁目7-1）","naisui":"","kazan":""}}
,{"type":"Feature","geometry":{"type":"Point","coordinates":[129.73262,33.0149]},"properties":{"Name":"真珠園療養所","Jusho":"長崎県西海市西彼町八木原郷3453-1","kouzui":"0959-28-0038","gake":"http://www.sinjyuen.com","takashio":"×","jishin":"〇","tsunami":"精神科内科","kaji":"","naisui":"","kazan":""}}
,{"type":"Feature","geometry":{"type":"Point","coordinates":[129.35009,33.00384]},"properties":{"Name":"西海市国民健康保険江島診療所","Jusho":"長崎県西海市崎戸町江島2275番地1","kouzui":"0959-36-2006","gake":"","takashio":"〇","jishin":"〇","tsunami":"内科外科","kaji":"西彼保健所（長崎市滑石1-9-5）","naisui":"","kazan":""}}
,{"type":"Feature","geometry":{"type":"Point","coordinates":[129.74897,32.99091]},"properties":{"Name":"せいひ中央クリニック","Jusho":"長崎県西海市西彼町鳥加郷2201番地2","kouzui":"0959-28-1190","gake":"http://www.seihikai.jp/","takashio":"〇","jishin":"〇","tsunami":"内科","kaji":"","naisui":"","kazan":""}}
,{"type":"Feature","geometry":{"type":"Point","coordinates":[130.20261,32.72247]},"properties":{"Name":"雲仙・南島原保健組合公立新小浜病院","Jusho":"長崎県雲仙市小浜町マリーナ3番地2","kouzui":"0975-74-2211","gake":"http://obama-byoin.com/","takashio":"×","jishin":"〇","tsunami":"内科","kaji":"","naisui":"","kazan":""}}
,{"type":"Feature","geometry":{"type":"Point","coordinates":[130.14754,32.81008]},"properties":{"Name":"愛野診療所","Jusho":"長崎県雲仙市愛野町乙330番地","kouzui":"0957-36-0009","gake":"","takashio":"〇","jishin":"〇","tsunami":"内科小児科","kaji":"愛野記念病院（長崎県雲仙市愛野町甲3838-1）","naisui":"","kazan":""}}
,{"type":"Feature","geometry":{"type":"Point","coordinates":[130.29875,32.65718]},"properties":{"Name":"永田内科泌尿器科医院","Jusho":"長崎県南島原市西有家町須川61-2","kouzui":"0957-82-0832","gake":"","takashio":"×","jishin":"△","tsunami":"内科","kaji":"長崎県島原病院（長崎県島原市下川尻町7895番地）泉川病院（長崎県南島原市深江町丁2405）","naisui":"","kazan":""}}
,{"type":"Feature","geometry":{"type":"Point","coordinates":[130.30424,32.66588]},"properties":{"Name":"医療法人大志会つねおかクリニック","Jusho":"長崎県南島原市有家町久保字寺之前21番地1","kouzui":"0957-82-2248","gake":"","takashio":"〇","jishin":"〇","tsunami":"外科内科乳腺外科消化器内科","kaji":"長崎県島原病院（長崎県島原市下川尻町7895番地）泉川病院（長崎県南島原市深江町丁2405）長崎医療センター（長崎県大村市久原2丁目1001-1）","naisui":"","kazan":""}}
,{"type":"Feature","geometry":{"type":"Point","coordinates":[130.3534,32.6945]},"properties":{"Name":"明島整形外科医院","Jusho":"長崎県南島原市布津町乙1859-2","kouzui":"0957-72-2023","gake":"","takashio":"×","jishin":"〇","tsunami":"整形外科","kaji":"長崎県島原病院（長崎県島原市下川尻町7895番地）泉川病院（長崎県南島原市深江町丁2405）","naisui":"","kazan":""}}
,{"type":"Feature","geometry":{"type":"Point","coordinates":[130.30481,32.66305]},"properties":{"Name":"小嶺整形外科クリニック","Jusho":"長崎県南島原市有家町中須川196-1","kouzui":"0957-82-1755","gake":"http://www.komine-seikei.com","takashio":"×","jishin":"〇","tsunami":"整形外科","kaji":"","naisui":"","kazan":""}}
,{"type":"Feature","geometry":{"type":"Point","coordinates":[129.87273,32.83111]},"properties":{"Name":"モロキ内科","Jusho":"長崎県西彼杵郡長与町嬉野1085","kouzui":"095-883-1105","gake":"","takashio":"〇","jishin":"〇","tsunami":"内科小児科","kaji":"長崎みなとメディカルセンター（長崎県長崎市新地町6-39）","naisui":"","kazan":""}}
,{"type":"Feature","geometry":{"type":"Point","coordinates":[129.85199,32.8049]},"properties":{"Name":"たかの耳鼻咽喉科","Jusho":"長崎県西彼杵郡長与町高田郷8-35","kouzui":"095-857-8733","gake":"https://takano-jibi.com","takashio":"×","jishin":"〇","tsunami":"耳鼻咽喉科","kaji":"長崎大学病院（長崎県長崎市坂本1丁目7-1）日本赤十字社長崎原爆病院（長崎県長崎市茂里町3番15号）長崎みなとメディカルセンター（長崎県長崎市新地町6-39）","naisui":"","kazan":""}}
,{"type":"Feature","geometry":{"type":"Point","coordinates":[129.87207,32.82513]},"properties":{"Name":"こが内科外科クリニック","Jusho":"長崎県西彼杵郡長与町嬉里郷378番地1","kouzui":"095-883-4535","gake":"http://www.kogaclinic.or.jp/","takashio":"〇","jishin":"〇","tsunami":"内科","kaji":"長崎大学病院（長崎県長崎市坂本1丁目7-1）日本赤十字社長崎原爆病院（長崎県長崎市茂里町3番15号）長崎みなとメディカルセンター（長崎県長崎市新地町6-39）済生会長崎病院（長崎県長崎市片淵2丁目5番1号）光晴会病院（長崎県長崎市葉山1丁目3番12号）長崎百合野病院（長崎県西彼杵郡時津町元村郷1155-2）","naisui":"","kazan":""}}
,{"type":"Feature","geometry":{"type":"Point","coordinates":[129.8724076,32.8225948]},"properties":{"Name":"かたやまハートケアクリニック","Jusho":"長崎県西彼杵郡長与町北陽台1丁目2-1","kouzui":"095-865-7064","gake":"https://katayama-heartcare.jp","takashio":"〇","jishin":"〇","tsunami":"内科","kaji":"長崎みなとメディカルセンター（長崎県長崎市新地町6-39）光晴会病院（長崎県長崎市葉山1丁目3番12号）","naisui":"","kazan":""}}
,{"type":"Feature","geometry":{"type":"Point","coordinates":[129.87392,32.82968]},"properties":{"Name":"長沢医院","Jusho":"長崎県西彼杵郡長与町嬉里郷715番地","kouzui":"095-883-5622","gake":"","takashio":"〇","jishin":"〇","tsunami":"内科小児科","kaji":"","naisui":"","kazan":""}}
,{"type":"Feature","geometry":{"type":"Point","coordinates":[129.87617,32.80686]},"properties":{"Name":"医療法人平成会女の都病院","Jusho":"長崎県西彼杵郡長与町高田郷849番地18","kouzui":"095-847-8383","gake":"https://menotobyoin.jp/","takashio":"〇","jishin":"〇","tsunami":"内科小児科総合診療科","kaji":"","naisui":"","kazan":""}}
,{"type":"Feature","geometry":{"type":"Point","coordinates":[129.87343,32.81087]},"properties":{"Name":"立石往診診療所","Jusho":"長崎県西彼杵郡長与町まなび野2丁目9-1-102","kouzui":"070-5681-7143","gake":"http://tateishi.iccc.nagasaki.jp/index.html","takashio":"〇","jishin":"〇","tsunami":"内科","kaji":"","naisui":"","kazan":""}}
,{"type":"Feature","geometry":{"type":"Point","coordinates":[130.3277289,33.9541383]},"properties":{"Name":"黒崎医院","Jusho":"長崎県時津町","kouzui":"096-882-2125","gake":"","takashio":"〇","jishin":"〇","tsunami":"内科小児科","kaji":"","naisui":"","kazan":""}}
,{"type":"Feature","geometry":{"type":"Point","coordinates":[129.84697,32.82462]},"properties":{"Name":"しらいし胃腸クリニック","Jusho":"長崎県西彼杵郡時津町野田郷48-2","kouzui":"095-881-2828","gake":"http://shiraishiclinic.com","takashio":"〇","jishin":"〇","tsunami":"内科外科肛門外科","kaji":"長崎大学病院（長崎県長崎市坂本1丁目7-1）日本赤十字社長崎原爆病院（長崎県長崎市茂里町3番15号）光晴会病院（長崎県長崎市葉山1丁目3番12号）虹が丘病院（長崎県長崎市虹が丘町1番1号）長崎百合野病院（長崎県西彼杵郡時津町元村郷1155-2）","naisui":"","kazan":""}}
,{"type":"Feature","geometry":{"type":"Point","coordinates":[129.85768,32.83555]},"properties":{"Name":"山中内科消化器科医院","Jusho":"長崎県西彼杵郡時津町西時津郷466番地1","kouzui":"095-860-8811","gake":"","takashio":"×","jishin":"〇","tsunami":"内科","kaji":"","naisui":"","kazan":""}}
,{"type":"Feature","geometry":{"type":"Point","coordinates":[129.82585,32.84855]},"properties":{"Name":"医療法人近藤医院","Jusho":"長崎県西彼杵郡時津町日並郷1325番地8","kouzui":"095-882-7060","gake":"http://kondo-clinic.org/","takashio":"〇","jishin":"〇","tsunami":"内科","kaji":"光晴会病院（長崎県長崎市葉山1丁目3番12号）","naisui":"","kazan":""}}
,{"type":"Feature","geometry":{"type":"Point","coordinates":[129.85408,32.83493]},"properties":{"Name":"鍬先医院","Jusho":"長崎県西彼杵郡時津町浜田郷520-5","kouzui":"095-882-2622","gake":"http://www.kuwasaki-clinic.com","takashio":"〇","jishin":"〇","tsunami":"内科外科","kaji":"光晴会病院（長崎県長崎市葉山1丁目3番12号）","naisui":"","kazan":""}}
,{"type":"Feature","geometry":{"type":"Point","coordinates":[129.84935,32.81473]},"properties":{"Name":"長崎百合野病院","Jusho":"長崎県西彼杵郡時津町元村郷1155-2","kouzui":"095-857-3366","gake":"http://www.yurinohp.jp/","takashio":"×","jishin":"〇","tsunami":"内科整形外科外科脳神経外科","kaji":"","naisui":"","kazan":""}}
,{"type":"Feature","geometry":{"type":"Point","coordinates":[129.94676,33.01574]},"properties":{"Name":"松村内科・消化器科","Jusho":"長崎県東彼杵郡東彼杵町駄地郷39-3","kouzui":"0957-47-0709","gake":"","takashio":"〇","jishin":"〇","tsunami":"内科","kaji":"長崎川棚医療センター（長崎県東彼杵郡川棚町下組郷2005-1）市立大村市民病院（長崎県大村市古賀島町133-22）","naisui":"","kazan":""}}
,{"type":"Feature","geometry":{"type":"Point","coordinates":[129.93822,33.02111]},"properties":{"Name":"岩永医院","Jusho":"長崎県東彼杵郡東彼杵町瀬戸郷1179-3","kouzui":"0957-47-0014","gake":"","takashio":"×","jishin":"〇","tsunami":"内科消化器内科","kaji":"長崎川棚医療センター（長崎県東彼杵郡川棚町下組郷2005番地1）","naisui":"","kazan":""}}
,{"type":"Feature","geometry":{"type":"Point","coordinates":[129.9292,33.02901]},"properties":{"Name":"鈴木病院","Jusho":"長崎県東彼杵郡東彼杵町彼杵宿郷1085番地","kouzui":"0957-46-0145","gake":"http://www.sazanami.or.jp/","takashio":"×","jishin":"〇","tsunami":"精神科","kaji":"","naisui":"","kazan":""}}
,{"type":"Feature","geometry":{"type":"Point","coordinates":[129.91452,33.03614]},"properties":{"Name":"山川医院","Jusho":"長崎県東彼杵郡東彼杵町彼杵宿郷93","kouzui":"0957-46-0340","gake":"","takashio":"〇","jishin":"〇","tsunami":"内科","kaji":"","naisui":"","kazan":""}}
,{"type":"Feature","geometry":{"type":"Point","coordinates":[129.86084,33.07347]},"properties":{"Name":"医療法人紫雲会本川内科歯科医院","Jusho":"長崎県東彼杵郡川棚町中組郷1489-1","kouzui":"0956-82-2010","gake":"","takashio":"〇","jishin":"〇","tsunami":"内科消化器科","kaji":"","naisui":"","kazan":""}}
,{"type":"Feature","geometry":{"type":"Point","coordinates":[129.85323,33.06282]},"properties":{"Name":"医療法人社団田渕医院","Jusho":"長崎県東彼杵郡川棚町白石郷7-8","kouzui":"0956-82-2111","gake":"","takashio":"×","jishin":"〇","tsunami":"外科消化器科内科","kaji":"長崎川棚医療センター（長崎県東彼杵郡川棚町下組郷2005-1）","naisui":"","kazan":""}}
,{"type":"Feature","geometry":{"type":"Point","coordinates":[129.85938,33.06967]},"properties":{"Name":"医療法人カナザワ内科クリニック","Jusho":"長崎県東彼杵郡川棚町下組郷391番地2","kouzui":"0956-83-3727","gake":"","takashio":"×","jishin":"〇","tsunami":"内科","kaji":"","naisui":"","kazan":""}}
,{"type":"Feature","geometry":{"type":"Point","coordinates":[129.86832,33.11626]},"properties":{"Name":"藤下内科医院","Jusho":"長崎県東彼杵郡波佐見町長野郷538番地1","kouzui":"0956-85-7325","gake":"","takashio":"〇","jishin":"〇","tsunami":"内科","kaji":"長崎川棚医療センター（長崎県東彼杵郡川棚町下組郷2005-1）","naisui":"","kazan":""}}
,{"type":"Feature","geometry":{"type":"Point","coordinates":[129.90916,33.14054]},"properties":{"Name":"西の原野中医院","Jusho":"長崎県東彼杵郡波佐見町井石郷2234-1","kouzui":"0956-85-3054","gake":"","takashio":"〇","jishin":"〇","tsunami":"内科","kaji":"長崎川棚医療センター（長崎県東彼杵郡川棚町下組郷2005-1）嬉野医療センター（佐賀県嬉野市嬉野町大字下宿甲4279-3）","naisui":"","kazan":""}}
,{"type":"Feature","geometry":{"type":"Point","coordinates":[129.05991,33.19207]},"properties":{"Name":"小値賀町国民健康保険診療所","Jusho":"長崎県北松浦郡小値賀町笛吹郷1757番地8","kouzui":"0959-56-4111","gake":"","takashio":"×","jishin":"〇","tsunami":"内科","kaji":"","naisui":"","kazan":""}}
,{"type":"Feature","geometry":{"type":"Point","coordinates":[129.64764,33.23468]},"properties":{"Name":"前田外科胃腸科医院","Jusho":"長崎県北松浦郡佐々町市場免15番地1","kouzui":"0956-62-6868","gake":"","takashio":"〇","jishin":"〇","tsunami":"内科外科","kaji":"佐世保市総合医療センタ-（長崎県佐世保市平瀬町9-3）","naisui":"","kazan":""}}
,{"type":"Feature","geometry":{"type":"Point","coordinates":[129.64914,33.23566]},"properties":{"Name":"医療法人社団博友会徳田医院","Jusho":"長崎県北松浦郡佐々町本田原免228","kouzui":"0956-62-2025","gake":"","takashio":"×","jishin":"〇","tsunami":"内科","kaji":"","naisui":"","kazan":""}}
,{"type":"Feature","geometry":{"type":"Point","coordinates":[129.6515,33.23931]},"properties":{"Name":"医療法人やまぐち小児科","Jusho":"長崎県北松浦郡佐々町本田原免112番地1","kouzui":"0956-41-1661","gake":"","takashio":"×","jishin":"〇","tsunami":"小児科","kaji":"佐世保市総合医療センター（長崎県佐世保市平瀬町9番地3）佐世保共済病院（長崎県佐世保市島地町10-17）","naisui":"","kazan":""}}
,{"type":"Feature","geometry":{"type":"Point","coordinates":[129.11682,32.98032]},"properties":{"Name":"長崎県上五島病院附属診療所有川医療センター","Jusho":"長崎県南松浦郡新上五島町有川郷2255番地","kouzui":"0959-42-0320","gake":"https://www.kamigoto-hospital.jp/arikawa-mc/","takashio":"×","jishin":"〇","tsunami":"内科小児科外科整形外科","kaji":"長崎県上五島病院（長崎県南松浦郡新上五島町青方郷1549-11）","naisui":"","kazan":""}}
]};