var tokyo={"type":"FeatureCollection","name":"tokyo","features":[
{"type":"Feature","geometry":{"type":"Point","coordinates":[139.76956,35.68267]},"properties":{"Name":"医療法人社団恒正会そねクリニック丸の内","Jusho":"東京都千代田区丸の内一丁目8番2号?鋼ビルディング地下1階","kouzui":"03-6212-3888","gake":"https://www.soneclinic-marunouchi.com/","takashio":"×","jishin":"〇","tsunami":"内科","kaji":"","naisui":"","kazan":""}}
,{"type":"Feature","geometry":{"type":"Point","coordinates":[139.76959,35.69511]},"properties":{"Name":"神田すこやかクリニック","Jusho":"東京都千代田区神田須田町1-30-1-104","kouzui":"03-6206-0153","gake":"http://www.kanda-sukoyaka.com","takashio":"〇","jishin":"×","tsunami":"内科小児科","kaji":"国立国際医療研究センター病院（新宿区戸山1-21-1）","naisui":"","kazan":""}}
,{"type":"Feature","geometry":{"type":"Point","coordinates":[139.73875,35.68281]},"properties":{"Name":"麹町皮ふ科・形成外科クリニック","Jusho":"東京都千代田区平河町1-4-5平和第一ビル地下1階","kouzui":"03-6261-2458","gake":"https://kojihifu.com/","takashio":"〇","jishin":"〇","tsunami":"皮膚科","kaji":"","naisui":"","kazan":""}}
,{"type":"Feature","geometry":{"type":"Point","coordinates":[139.75159,35.69438]},"properties":{"Name":"国家公務員共済組合連合会九段坂病院","Jusho":"東京都千代田区九段南1-6-12","kouzui":"03-3262-9191","gake":"http://www.kudanzaka.com/","takashio":"×","jishin":"〇","tsunami":"内科外科整形外科皮膚科泌尿器科婦人科耳鼻咽喉科眼科","kaji":"自院にて対応","naisui":"","kazan":""}}
,{"type":"Feature","geometry":{"type":"Point","coordinates":[139.74129,35.68009]},"properties":{"Name":"東京シーサイドクリニック","Jusho":"東京都千代田区平河町2-14-7YUKEN平河町ビル3F","kouzui":"03-6272-6616","gake":"http://www.ts-clinic.jp/","takashio":"〇","jishin":"〇","tsunami":"内科/循環器内科","kaji":"東京逓信病院（千代田区富士見2-14-23）東京高輪病院（港区高輪3-10-11）","naisui":"","kazan":""}}
,{"type":"Feature","geometry":{"type":"Point","coordinates":[139.76994,35.69174]},"properties":{"Name":"三木内科クリニック","Jusho":"東京都千代田区内神田3-14-8ニシザワビル1Ｆ","kouzui":"03-5298-4120","gake":"","takashio":"×","jishin":"〇","tsunami":"内科","kaji":"","naisui":"","kazan":""}}
,{"type":"Feature","geometry":{"type":"Point","coordinates":[139.77853,35.69018]},"properties":{"Name":"医療法人社団倖祐舎東京シティメディカルクリニック","Jusho":"東京都中央区日本橋大伝馬町4-5凰ビル3階","kouzui":"03-5623-2888","gake":"http://www.tokyocity-mc.com/","takashio":"〇","jishin":"〇","tsunami":"内科皮膚科","kaji":"","naisui":"","kazan":""}}
,{"type":"Feature","geometry":{"type":"Point","coordinates":[139.77292,35.68243]},"properties":{"Name":"医療法人社団頌栄会上田診療所","Jusho":"東京都中央区日本橋2-1-10柳屋ビル地下1回","kouzui":"03-3271-2775","gake":"https://www.ueda.com","takashio":"×","jishin":"〇","tsunami":"内科小児科","kaji":"","naisui":"","kazan":""}}
,{"type":"Feature","geometry":{"type":"Point","coordinates":[139.77921,35.67915]},"properties":{"Name":"医療法人社団千秋双葉会日本橋茅場町耳鼻咽喉科","Jusho":"東京都中央区日本橋茅場町2-8-10碧山ビル3階","kouzui":"03-3669-2085","gake":"http://www.nihonbashi-ent.com/sp/","takashio":"〇","jishin":"〇","tsunami":"耳鼻咽喉科","kaji":"日本大学病院（〒101-8309東京都千代田区神田駿河台1-6）三井記念病院（〒101-8643東京都千代田区神田和泉町1番地）","naisui":"","kazan":""}}
,{"type":"Feature","geometry":{"type":"Point","coordinates":[139.77446,35.68596]},"properties":{"Name":"医療法人社団桃仁日本橋レディースクリニック","Jusho":"東京都中央区日本橋室町1-5-28階","kouzui":"03-3516-3150","gake":"http://www.nl-clinic.jp","takashio":"×","jishin":"〇","tsunami":"胃腸科肛門科","kaji":"","naisui":"","kazan":""}}
,{"type":"Feature","geometry":{"type":"Point","coordinates":[139.78699,35.68779]},"properties":{"Name":"医療法人社団墨水会浜町センタービルクリニック","Jusho":"東京都中央区日本橋浜町2-31-1","kouzui":"03-3664-6858","gake":"http://hamacho-cc.or.jp/","takashio":"〇","jishin":"〇","tsunami":"内科外科消化器科循環器科呼吸器科糖尿病科脳神経科","kaji":"","naisui":"","kazan":""}}
,{"type":"Feature","geometry":{"type":"Point","coordinates":[139.76872,35.67582]},"properties":{"Name":"亀田京橋クリニック","Jusho":"東京都中央区京橋三丁目1番1号東京スクエアガーデン4階・6階","kouzui":"0570-018-000","gake":"http://www.kameda-kyobashi.com","takashio":"×","jishin":"〇","tsunami":"内科","kaji":"亀田総合病院（千葉県鴨川市東町929）亀田クリニック（千葉県鴨川市東町1344）","naisui":"","kazan":""}}
,{"type":"Feature","geometry":{"type":"Point","coordinates":[139.77756,35.67942]},"properties":{"Name":"茅場町パークサイドクリニック","Jusho":"東京都中央区日本橋茅場町2-2-1東石ビル1階","kouzui":"03-3666-2212","gake":"https://www.dr-sakurai.com/","takashio":"×","jishin":"〇","tsunami":"内科","kaji":"","naisui":"","kazan":""}}
,{"type":"Feature","geometry":{"type":"Point","coordinates":[139.76682,35.6655]},"properties":{"Name":"国立がん研究センター中央病院","Jusho":"東京都中央区築地5-1-1","kouzui":"03-3542-2511","gake":"https://www.ncc.go.jp/jp/ncch/index.html","takashio":"×","jishin":"〇","tsunami":"概ね全診療科（再診患者の追加処方のみ）ただし、処方薬不足等に対して、処方箋を追加発行し、FAX送信を行う際の電話診療に限る","kaji":"","naisui":"","kazan":""}}
,{"type":"Feature","geometry":{"type":"Point","coordinates":[139.78094,35.69084]},"properties":{"Name":"さいとう内科・循環器クリニック","Jusho":"東京都中央区日本橋大伝馬町13-8-3F","kouzui":"03-3639-3110","gake":"https://saito-heart.com/","takashio":"〇","jishin":"〇","tsunami":"内科循環器内科糖尿病内科","kaji":"","naisui":"","kazan":""}}
,{"type":"Feature","geometry":{"type":"Point","coordinates":[139.77722,35.66739]},"properties":{"Name":"聖路加国際病院","Jusho":"東京都中央区明石町9-1","kouzui":"03-3541-5151","gake":"http://hospital.luke.ac.jp/","takashio":"×","jishin":"〇","tsunami":"呼吸器外科、呼吸器内科、感染症科、皮膚科、神経内科、脳神経外科、神経血管内治療科、整形外科、アレルギー・膠原病科、血液内科、小児科、眼科、循環器内科、心臓血管外科、乳腺外科、緩和ケア科、歯科口腔外科、精神科、心療内科、耳鼻咽喉科、消化器内科、女性総合診療部、内分泌・代謝科","kaji":"","naisui":"","kazan":""}}
,{"type":"Feature","geometry":{"type":"Point","coordinates":[139.78255,35.68492]},"properties":{"Name":"東京心臓血管・内科クリニック","Jusho":"東京都中央区日本橋人形町1-7-7笠原ビルディング3階","kouzui":"03-5641-1177","gake":"https://shinzo-kekkan.clinic/","takashio":"〇","jishin":"〇","tsunami":"循環器内科内科","kaji":"","naisui":"","kazan":""}}
,{"type":"Feature","geometry":{"type":"Point","coordinates":[139.78218,35.68471]},"properties":{"Name":"内科総合クリニック人形町","Jusho":"東京都中央区日本橋人形町1丁目6-10ユニコム人形町ビル1階","kouzui":"03-5843-6714","gake":"https://ningyocho-cl.com/","takashio":"〇","jishin":"〇","tsunami":"内科","kaji":"三井記念病院(東京都千代田区神田和泉町1番地）聖路加国際病院(東京都中央区明石町9-1)東京大学医学部付属病院(東京都文京区本郷7-3-1)メデイカルスキャニング","naisui":"","kazan":""}}
,{"type":"Feature","geometry":{"type":"Point","coordinates":[139.77223,35.68414]},"properties":{"Name":"日本橋えがわクリニック","Jusho":"東京都中央区八重洲1-1-3寿ビル2階","kouzui":"03-5204-0311","gake":"https://nihonbashi-egawacl.com/","takashio":"〇","jishin":"〇","tsunami":"内科整形外科","kaji":"聖路加国際病院（東京都中央区明石町9-1）慈恵会医科大学病院（東京都港区西新橋3-19-18）順天堂医院（東京都文京区本郷3-1-3）","naisui":"","kazan":""}}
,{"type":"Feature","geometry":{"type":"Point","coordinates":[139.77192,35.68966]},"properties":{"Name":"日本橋・重田クリニック","Jusho":"東京都中央区日本橋室町4?2?13ー5F","kouzui":"03-3241-4045","gake":"","takashio":"×","jishin":"〇","tsunami":"内科胃腸科消化器科皮膚科泌尿器科肛門科","kaji":"","naisui":"","kazan":""}}
,{"type":"Feature","geometry":{"type":"Point","coordinates":[139.78256,35.69314]},"properties":{"Name":"日本橋馬喰町クリニック","Jusho":"東京都中央区日本橋馬喰町1-6-1JUSKYTOWER日本橋3F","kouzui":"03-5843-6275","gake":"http://www.nb-clinic.jp/","takashio":"×","jishin":"〇","tsunami":"内科糖尿病内科","kaji":"","naisui":"","kazan":""}}
,{"type":"Feature","geometry":{"type":"Point","coordinates":[139.78493,35.69075]},"properties":{"Name":"日本橋むらやまクリニック","Jusho":"東京都中央区東日本橋1-1-4","kouzui":"03-3851-2473","gake":"https://www.junseikai-nmc.or.jp/","takashio":"〇","jishin":"〇","tsunami":"内科整形外科麻酔科","kaji":"","naisui":"","kazan":""}}
,{"type":"Feature","geometry":{"type":"Point","coordinates":[139.78409,35.68471]},"properties":{"Name":"みんなの内科クリニック人形町・水天宮","Jusho":"東京都中央区日本橋人形町2-2-3アライヴ人形町6階","kouzui":"03-3668-2200","gake":"https://minnano-naika.com","takashio":"〇","jishin":"〇","tsunami":"内科腎臓内科","kaji":"","naisui":"","kazan":""}}
,{"type":"Feature","geometry":{"type":"Point","coordinates":[139.76961,35.67986]},"properties":{"Name":"八重洲大島眼科","Jusho":"東京都中央区八重洲2-1八重洲地下街","kouzui":"03-6262-3996","gake":"http://www.yaesuoshima.com/","takashio":"×","jishin":"〇","tsunami":"眼科","kaji":"","naisui":"","kazan":""}}
,{"type":"Feature","geometry":{"type":"Point","coordinates":[139.77223,35.68206]},"properties":{"Name":"八重洲街診療所","Jusho":"東京都中央区日本橋2-2-20日本橋仲通りビル3階","kouzui":"03-3271-1828","gake":"http://www.yaesugai.msn.gr.jp/","takashio":"×","jishin":"〇","tsunami":"内科泌尿器科","kaji":"昭和大学江東豊洲病院（東京都江東区豊洲5-1-38）聖路加国際病院（東京都中央区明石町9-1）","naisui":"","kazan":""}}
,{"type":"Feature","geometry":{"type":"Point","coordinates":[139.75143,35.66368]},"properties":{"Name":"あおいクリニック","Jusho":"東京都港区西新橋3-19-12メディコ西新橋ビル4階","kouzui":"03-6453-0039","gake":"https://aoiclinic.jp/","takashio":"〇","jishin":"〇","tsunami":"糖尿病内科内科","kaji":"","naisui":"","kazan":""}}
,{"type":"Feature","geometry":{"type":"Point","coordinates":[139.71266,35.66435]},"properties":{"Name":"青山・表参道睡眠ストレスクリニック","Jusho":"東京都港区南青山5-1-22青山ライズスクエア3階","kouzui":"03-6427-6062","gake":"https://omotesando-sleep.com","takashio":"×","jishin":"〇","tsunami":"心療内科精神科","kaji":"","naisui":"","kazan":""}}
,{"type":"Feature","geometry":{"type":"Point","coordinates":[139.73517,35.67256]},"properties":{"Name":"赤坂おだやかクリニック","Jusho":"東京都港区赤坂5-3-1赤坂BIZタワー2階","kouzui":"03-6234-511","gake":"http://www.junreikai.com","takashio":"〇","jishin":"〇","tsunami":"内科循環器内科呼吸器科","kaji":"","naisui":"","kazan":""}}
,{"type":"Feature","geometry":{"type":"Point","coordinates":[139.73434,35.67817]},"properties":{"Name":"赤坂見附前田病院","Jusho":"東京都港区元赤坂1-1-5","kouzui":"03-3408-1136","gake":"http://www.maeda-hospital.or.jp/","takashio":"×","jishin":"〇","tsunami":"外科内科整形外科","kaji":"","naisui":"","kazan":""}}
,{"type":"Feature","geometry":{"type":"Point","coordinates":[139.71762,35.65684]},"properties":{"Name":"ガーデンクリニック広尾","Jusho":"東京都港区南青山7-14-7-2F","kouzui":"03-6427-9198","gake":"http://www.gardenclinic-hiroo.com","takashio":"〇","jishin":"〇","tsunami":"皮膚科アレルギー科","kaji":"","naisui":"","kazan":""}}
,{"type":"Feature","geometry":{"type":"Point","coordinates":[139.74548,35.66904]},"properties":{"Name":"国家公務員共済組合連合会虎の門病院","Jusho":"東京都港区虎ノ門2-2-2","kouzui":"03-3588-1111","gake":"https://www.toranomon.gr.jp/","takashio":"×","jishin":"〇","tsunami":"全診療科","kaji":"","naisui":"","kazan":""}}
,{"type":"Feature","geometry":{"type":"Point","coordinates":[139.74931,35.64196]},"properties":{"Name":"芝浦クリニック","Jusho":"東京都港区芝浦3-16-1中野興産ビル1階","kouzui":"03-5765-5264","gake":"http://shibaura-clinic.net","takashio":"×","jishin":"〇","tsunami":"内科皮膚科整形外科","kaji":"","naisui":"","kazan":""}}
,{"type":"Feature","geometry":{"type":"Point","coordinates":[139.73627,35.67711]},"properties":{"Name":"心療内科・神経科赤坂クリニック","Jusho":"東京都港区赤坂3-9-18B.I.C赤坂ビル6F","kouzui":"03-5575-8198","gake":"http://fuanclinic.com/akasaka/","takashio":"×","jishin":"〇","tsunami":"心療内科精神科小児神経科","kaji":"","naisui":"","kazan":""}}
,{"type":"Feature","geometry":{"type":"Point","coordinates":[139.73317,35.67231]},"properties":{"Name":"菅原クリニック東京脳ドック","Jusho":"東京都港区赤坂5-2-20赤坂パークビル2階","kouzui":"03-5573-8822","gake":"https://tokyo-noudock.jp/","takashio":"〇","jishin":"〇","tsunami":"内科脳神経外科","kaji":"","naisui":"","kazan":""}}
,{"type":"Feature","geometry":{"type":"Point","coordinates":[139.75089,35.64871]},"properties":{"Name":"東京シティクリニック三田","Jusho":"東京都港区芝4-5-8池藤ビル2F","kouzui":"03-5439-5566","gake":"https://www.tokyocityclinic-mita.com/","takashio":"〇","jishin":"〇","tsunami":"小児科アレルギー科内科","kaji":"","naisui":"","kazan":""}}
,{"type":"Feature","geometry":{"type":"Point","coordinates":[139.75143,35.66368]},"properties":{"Name":"東京慈恵会医科大学附属病院","Jusho":"東京都港区西新橋3-19-18","kouzui":"03-3433-1111","gake":"https://www.hosp.jikei.ac.jp/","takashio":"×","jishin":"△","tsunami":"全診療科","kaji":"","naisui":"","kazan":""}}
,{"type":"Feature","geometry":{"type":"Point","coordinates":[139.74274,35.65316]},"properties":{"Name":"東京都済生会中央病院","Jusho":"東京都港区三田1-4-17","kouzui":"03-3451-8211","gake":"http://www.saichu.jp","takashio":"×","jishin":"〇","tsunami":"全診療科","kaji":"","naisui":"","kazan":""}}
,{"type":"Feature","geometry":{"type":"Point","coordinates":[139.71133,35.66523]},"properties":{"Name":"ピンクリボンブレストケアクリニック表参道","Jusho":"東京都港区北青山3-6-19バイナリー北青山2階","kouzui":"03-3407-7373","gake":"http://pinkribbon-breastcare.com/","takashio":"〇","jishin":"〇","tsunami":"乳腺外科産婦人科","kaji":"","naisui":"","kazan":""}}
,{"type":"Feature","geometry":{"type":"Point","coordinates":[139.7356,35.64799]},"properties":{"Name":"古川橋病院","Jusho":"東京都港区南麻布2-10-21","kouzui":"03-3453-5011","gake":"http://www.zai-kouseikai.or.jp","takashio":"×","jishin":"〇","tsunami":"内科整形外科","kaji":"","naisui":"","kazan":""}}
,{"type":"Feature","geometry":{"type":"Point","coordinates":[139.73251,35.65749]},"properties":{"Name":"ホロン鳥居坂クリニック耳鼻咽喉科アレルギー科","Jusho":"東京都港区麻布十番1-5-8ヴェスタビル4F","kouzui":"03-5770-8733","gake":"https://holon-cl.com","takashio":"〇","jishin":"〇","tsunami":"耳鼻咽喉科アレルギー科","kaji":"ホロン鳥居坂クリニック耳鼻咽喉科アレルギー科（東京都港区麻布十番1-5-8ヴェスタビル4Ｆ）","naisui":"","kazan":""}}
,{"type":"Feature","geometry":{"type":"Point","coordinates":[139.75273,35.6515]},"properties":{"Name":"みなと芝クリニック","Jusho":"東京都港区芝2-12-12F","kouzui":"070-1313-0555","gake":"http://www.minatoshiba-cl.com/","takashio":"〇","jishin":"〇","tsunami":"内科","kaji":"","naisui":"","kazan":""}}
,{"type":"Feature","geometry":{"type":"Point","coordinates":[139.71758,35.67107]},"properties":{"Name":"山川耳鼻咽喉科医院","Jusho":"東京都港区北青山2-7-21青山アイアイビル3F","kouzui":"03-5772-6450","gake":"http://www.yamakawa-clinic.com","takashio":"〇","jishin":"〇","tsunami":"耳鼻咽喉科","kaji":"順天堂大学医学部附属順天堂医院（東京都文京区本郷3-1-3）","naisui":"","kazan":""}}
,{"type":"Feature","geometry":{"type":"Point","coordinates":[139.75989,35.71027]},"properties":{"Name":"ゆき医院","Jusho":"東京都文京区本郷5-26-2東大赤門前ビル3階","kouzui":"03-5840-8660","gake":"http://www.yuki-mcl.jp/","takashio":"〇","jishin":"〇","tsunami":"内科","kaji":"東京大学附属病院（東京都文京区本郷7-3-1）駒込病院(東京都文京区本駒込3-18-22）日本医科大学（東京都文京区千駄木1-1-5）","naisui":"","kazan":""}}
,{"type":"Feature","geometry":{"type":"Point","coordinates":[139.74068,35.62649]},"properties":{"Name":"医療法人社団IHL品川イーストワンメディカルクリニック","Jusho":"東京都港区港南2-16-1品川イーストワンタワー3F","kouzui":"03-6718-2898","gake":"","takashio":"〇","jishin":"〇","tsunami":"内科","kaji":"NTT東日本関東病院（東京都品川区東五反田5-9-22）","naisui":"","kazan":""}}
,{"type":"Feature","geometry":{"type":"Point","coordinates":[139.72504,35.69212]},"properties":{"Name":"あけぼの診療所","Jusho":"東京都新宿区片町2-3菱和ビル","kouzui":"03-6457-7237","gake":"https://www.akebonoclinic.net/","takashio":"〇","jishin":"〇","tsunami":"内科循環器内科腎臓内科皮膚科形成外科リハビリテーション科","kaji":"","naisui":"","kazan":""}}
,{"type":"Feature","geometry":{"type":"Point","coordinates":[139.72084,35.69587]},"properties":{"Name":"曙ホームクリニック","Jusho":"東京都新宿区河田町3-8THEDENS曙橋204","kouzui":"03-5357-7656","gake":"http://akebono-home.jp","takashio":"〇","jishin":"〇","tsunami":"脳神経内科内科","kaji":"","naisui":"","kazan":""}}
,{"type":"Feature","geometry":{"type":"Point","coordinates":[139.72728,35.68731]},"properties":{"Name":"阿蘇医院","Jusho":"東京都新宿区四谷三栄町1-5","kouzui":"03-3351-3224","gake":"http://www.aso.iin.com/","takashio":"×","jishin":"〇","tsunami":"内科","kaji":"","naisui":"","kazan":""}}
,{"type":"Feature","geometry":{"type":"Point","coordinates":[139.73645,35.70826]},"properties":{"Name":"あべメディカルクリニック","Jusho":"東京都新宿区水道町4ー29宝ビル1階","kouzui":"03ー6228ー1783","gake":"https://abemc.jp/","takashio":"×","jishin":"〇","tsunami":"内科皮膚科","kaji":"","naisui":"","kazan":""}}
,{"type":"Feature","geometry":{"type":"Point","coordinates":[139.70404,35.69012]},"properties":{"Name":"アルバ・メンタルクリニック","Jusho":"東京都新宿区新宿3-32-5日原ビル7階","kouzui":"03-5360-7119","gake":"http://www.alba-mental.jp","takashio":"×","jishin":"〇","tsunami":"精神科心療内科","kaji":"","naisui":"","kazan":""}}
,{"type":"Feature","geometry":{"type":"Point","coordinates":[139.6967066,35.6948219]},"properties":{"Name":"いしい内科・外科クリニック","Jusho":"東京都新宿西新宿7-1-10守矢ビル4F","kouzui":"03-5937-3361","gake":"https://ishii-cl.net/","takashio":"〇","jishin":"〇","tsunami":"内科外科","kaji":"","naisui":"","kazan":""}}
,{"type":"Feature","geometry":{"type":"Point","coordinates":[139.73587,35.69296]},"properties":{"Name":"一般社団法人日本家族計画協会市谷クリニック","Jusho":"東京都新宿区市谷田町1-10保健会館新館2階","kouzui":"03-3235-2694","gake":"http://www.jfpa-clinic.org/","takashio":"×","jishin":"〇","tsunami":"婦人科","kaji":"","naisui":"","kazan":""}}
,{"type":"Feature","geometry":{"type":"Point","coordinates":[139.70454,35.70951]},"properties":{"Name":"いなげ眼科","Jusho":"東京都新宿区高田馬場1-21-10豊電ビル3階いなげ眼科","kouzui":"03-6380-2668","gake":"http://inage-ganka.com/","takashio":"×","jishin":"〇","tsunami":"眼科小児眼科","kaji":"","naisui":"","kazan":""}}
,{"type":"Feature","geometry":{"type":"Point","coordinates":[139.73645,35.70826]},"properties":{"Name":"いやま眼科","Jusho":"東京都新宿区水道町4-13三晃ビル3Fクリニックステーション江戸川橋","kouzui":"03-5946-8188","gake":"https://www.iyama-eyeclinic.com/","takashio":"×","jishin":"〇","tsunami":"眼科","kaji":"","naisui":"","kazan":""}}
,{"type":"Feature","geometry":{"type":"Point","coordinates":[139.70758,35.70277]},"properties":{"Name":"医療法人財団東京勤労者医療会おおくぼ戸山診療所","Jusho":"東京都新宿区大久保2-8-2","kouzui":"03-5272-2585","gake":"http://www.tokyo-kinikai.com/02jigyosyo/jigyosyo_02.html","takashio":"×","jishin":"〇","tsunami":"内科","kaji":"","naisui":"","kazan":""}}
,{"type":"Feature","geometry":{"type":"Point","coordinates":[139.69728,35.69154]},"properties":{"Name":"医療法人社団石川記念会新宿石川クリニック","Jusho":"東京都新宿区西新宿1-7-1松岡セントラルビル6・7階","kouzui":"03-3340-1751","gake":"https://ishikawa-hp.com/shinjuku/","takashio":"×","jishin":"〇","tsunami":"糖尿内科泌尿器科移植外来内分泌科腎臓内科循環器科","kaji":"","naisui":"","kazan":""}}
,{"type":"Feature","geometry":{"type":"Point","coordinates":[139.70419,35.69896]},"properties":{"Name":"医療法人社団医進会小田クリニック","Jusho":"東京都新宿区大久保1-11-3大東ビル2階","kouzui":"03-5273-0770","gake":"https://www.ishinkai-mc.net","takashio":"×","jishin":"〇","tsunami":"内科","kaji":"国立国際医療研究センター病院国立国際医療研究センター病院","naisui":"","kazan":""}}
,{"type":"Feature","geometry":{"type":"Point","coordinates":[139.69478,35.68827]},"properties":{"Name":"医療法人社団慶潤会ＫＤＤＩビルクリニック","Jusho":"東京都新宿区西新宿2-3-2KDDIビル1階","kouzui":"03-6386-0123","gake":"http://www.keijunkai-kddi.jp","takashio":"×","jishin":"〇","tsunami":"内科","kaji":"","naisui":"","kazan":""}}
,{"type":"Feature","geometry":{"type":"Point","coordinates":[139.68648,35.69387]},"properties":{"Name":"医療法人社団慶潤会新都心十二社クリニック","Jusho":"東京都新宿区西新宿5-5-1-203ザ・パークハウス西新宿タワー60","kouzui":"03-3377-3033","gake":"http://www.keijunkai.or.jp","takashio":"×","jishin":"〇","tsunami":"内科","kaji":"","naisui":"","kazan":""}}
,{"type":"Feature","geometry":{"type":"Point","coordinates":[139.70404,35.69012]},"properties":{"Name":"医療法人社団恒正会そねクリニック新宿","Jusho":"東京都新宿区新宿三丁目32番8号新宿中央口ビル3階","kouzui":"03-3356-3888","gake":"https://www.soneclinic.com/","takashio":"×","jishin":"〇","tsunami":"内科","kaji":"","naisui":"","kazan":""}}
,{"type":"Feature","geometry":{"type":"Point","coordinates":[139.70692,35.68931]},"properties":{"Name":"医療法人社団順正会ヒロオカクリニック","Jusho":"東京都新宿区新宿2丁目5番12号3Ｆ","kouzui":"03-3225-1666","gake":"http://www.h-cl.org/","takashio":"×","jishin":"〇","tsunami":"内科","kaji":"","naisui":"","kazan":""}}
,{"type":"Feature","geometry":{"type":"Point","coordinates":[139.69434,35.68999]},"properties":{"Name":"医療法人社団新友会プラザ30階クリニック","Jusho":"東京都新宿区西新宿2-2-1京王プラザホテル本館30階","kouzui":"03-5323-4330","gake":"","takashio":"×","jishin":"〇","tsunami":"内科婦人科眼科皮膚科","kaji":"","naisui":"","kazan":""}}
,{"type":"Feature","geometry":{"type":"Point","coordinates":[139.6982,35.69771]},"properties":{"Name":"医療法人社団菱秀会金内メディカルクリニック","Jusho":"東京都新宿区西新宿7-5-25-2階","kouzui":"080-4166-9341","gake":"http://www.kmc.or.jp","takashio":"〇","jishin":"〇","tsunami":"内科","kaji":"大久保病院（東京都新宿区歌舞伎町2-44-1","naisui":"","kazan":""}}
,{"type":"Feature","geometry":{"type":"Point","coordinates":[139.70021,35.7031]},"properties":{"Name":"医療法人双葉会新大久保文化通り診療所","Jusho":"東京都新宿区百人町2丁目5-8科研ビル1F","kouzui":"03-5937-0610","gake":"http:www.shinookubo-bunkadori.clinic/","takashio":"×","jishin":"〇","tsunami":"内科","kaji":"JCHO東京山手メディカルセンター","naisui":"","kazan":""}}
,{"type":"Feature","geometry":{"type":"Point","coordinates":[139.73645,35.70826]},"properties":{"Name":"えどがわ橋内科・内視鏡クリニック","Jusho":"東京都新宿区水道町4-13三晃ビル3階","kouzui":"03-5228-0750","gake":"https://edogawabashi-naishikyo.com/","takashio":"〇","jishin":"〇","tsunami":"内科消化器内科","kaji":"","naisui":"","kazan":""}}
,{"type":"Feature","geometry":{"type":"Point","coordinates":[139.6991,35.70225]},"properties":{"Name":"大内クリニックおおくぼ","Jusho":"東京都新宿区百人町2-11-24染矢グロービル3階","kouzui":"03-6279-2277","gake":"http://www.oouchihp.net/ookubo/","takashio":"×","jishin":"〇","tsunami":"精神科","kaji":"","naisui":"","kazan":""}}
,{"type":"Feature","geometry":{"type":"Point","coordinates":[139.72566,35.68777]},"properties":{"Name":"太田医院","Jusho":"東京都新宿区四谷三栄町9-6","kouzui":"03-5366-3213","gake":"","takashio":"〇","jishin":"〇","tsunami":"内科","kaji":"","naisui":"","kazan":""}}
,{"type":"Feature","geometry":{"type":"Point","coordinates":[139.69461,35.71503]},"properties":{"Name":"落合パークサイドクリニック","Jusho":"東京都新宿区上落合1-1-4鈴木ビル4F","kouzui":"03-5338-4976","gake":"http://parkside-clinic.com","takashio":"〇","jishin":"〇","tsunami":"内科","kaji":"新宿区内の医療機関","naisui":"","kazan":""}}
,{"type":"Feature","geometry":{"type":"Point","coordinates":[139.68993,35.68604]},"properties":{"Name":"かおり内科クリニック","Jusho":"東京都新宿区西新宿3-7-1新宿パークタワーB1F","kouzui":"03-5321-6677","gake":"https://www.kaoriclinic.jp/","takashio":"〇","jishin":"〇","tsunami":"内科リウマチ科","kaji":"","naisui":"","kazan":""}}
,{"type":"Feature","geometry":{"type":"Point","coordinates":[139.7357,35.70333]},"properties":{"Name":"神楽坂内科脳神経内科クリニック","Jusho":"東京都新宿区神楽坂6-42神楽坂喜多川ビル1階","kouzui":"03-6280-7582","gake":"https://kagurazakanaika.wixsite.com/kagurazakaclinic","takashio":"〇","jishin":"〇","tsunami":"内科脳神経内科","kaji":"JCHO東京新宿メディカルセンター（東京都新宿区）国立国際医療研究センター（東京都新宿区）","naisui":"","kazan":""}}
,{"type":"Feature","geometry":{"type":"Point","coordinates":[139.73788,35.70229]},"properties":{"Name":"神楽坂みなみの眼科","Jusho":"東京都新宿区神楽坂5-21-1長谷川ビル2階","kouzui":"03-6280-7690","gake":"http://www.minamino-ganka.com","takashio":"×","jishin":"〇","tsunami":"眼科","kaji":"","naisui":"","kazan":""}}
,{"type":"Feature","geometry":{"type":"Point","coordinates":[139.68336,35.72128]},"properties":{"Name":"久木田医院","Jusho":"東京都新宿区西落合1-9-8","kouzui":"03-3952-5550","gake":"http://kukita-clinic.com/","takashio":"△","jishin":"〇","tsunami":"耳鼻咽喉科","kaji":"","naisui":"","kazan":""}}
,{"type":"Feature","geometry":{"type":"Point","coordinates":[139.72151,35.70468]},"properties":{"Name":"栗原隆ウェルネスクリニック","Jusho":"東京都新宿区喜久井町4-1新宿印刷会館4階","kouzui":"03-6457-6572","gake":"https://www.dr-taka.jp/","takashio":"〇","jishin":"〇","tsunami":"内科","kaji":"","naisui":"","kazan":""}}
,{"type":"Feature","geometry":{"type":"Point","coordinates":[139.71622,35.70399]},"properties":{"Name":"国立国際医療研究センター病院","Jusho":"東京都新宿区戸山1-21-1","kouzui":"03-3202-7181","gake":"http://www.hosp.ncgm.go.jp/index.html","takashio":"×","jishin":"〇","tsunami":"呼吸器内科、消化器内科（消化管）、消化器内科（肝臓）、循環器内科、腎臓内科、神経内科、小児科、精神科、心療内科、糖尿病内分泌代謝科、膠原病科、血液内科、食道胃外科、大腸肛門外科、肝胆膵外科、乳腺内分泌外科、乳腺腫瘍内科、胸部外科、心臓血管外科、脳神経外科、産婦人科、整形外科、眼科、耳鼻いんこう科、皮膚科、形成外科、歯科・口腔外科、泌尿器科、麻酔科、緩和ケア科、ＡＣＣ、総合感染症科、総合診療科","kaji":"","naisui":"","kazan":""}}
,{"type":"Feature","geometry":{"type":"Point","coordinates":[139.70421,35.71083]},"properties":{"Name":"紫藤クリニック","Jusho":"東京都新宿区高田馬場1-29-21みかどビル2階","kouzui":"03-3232-1622","gake":"https://www.shido-clinic.com/","takashio":"×","jishin":"〇","tsunami":"精神科","kaji":"","naisui":"","kazan":""}}
,{"type":"Feature","geometry":{"type":"Point","coordinates":[139.72256,35.70812]},"properties":{"Name":"耳鼻いんこう科山西クリニック","Jusho":"東京都新宿区早稲田鶴巻町518第一石川ビル2Ｆ","kouzui":"03-5155-0822","gake":"http://www.yamanishiclinic.jp/","takashio":"〇","jishin":"〇","tsunami":"耳鼻咽喉科","kaji":"国立国際医療研究センター（東京都新宿区戸山1-21-1）","naisui":"","kazan":""}}
,{"type":"Feature","geometry":{"type":"Point","coordinates":[139.6981,35.69385]},"properties":{"Name":"湘南AGAクリニック新宿オーガード院","Jusho":"東京都新宿区西新宿7-10-1O-GUARD新宿7F","kouzui":"0120-541-488","gake":"https://www.s-b-c.net/","takashio":"〇","jishin":"〇","tsunami":"美容皮膚科","kaji":"湘南AGAクリニック新宿本院(東京都渋谷区代々木2-2-13新宿TRビル4階)湘南AGAクリニック大阪院（大阪府大阪市北区曽根崎新地1-4-12桜橋プラザビル6F）湘南AGAクリニック仙台院（宮城県仙台市宮城野区榴丘2-2-12アーバンライフ橋本2F）湘南AGAクリニック福岡院（福岡県福岡市中央区天神3-3-14ホテルアセント福岡2F）","naisui":"","kazan":""}}
,{"type":"Feature","geometry":{"type":"Point","coordinates":[139.69333,35.69299]},"properties":{"Name":"湘南美容クリニック新宿本院","Jusho":"東京都新宿区西新宿6-5-1アイランドタワー24階","kouzui":"0120-548-940","gake":"https://www.s-b-c.net/clinic/branch/shinjuku/","takashio":"〇","jishin":"〇","tsunami":"美容皮膚科","kaji":"","naisui":"","kazan":""}}
,{"type":"Feature","geometry":{"type":"Point","coordinates":[139.69037,35.69351]},"properties":{"Name":"新宿オークタワークリニック","Jusho":"東京都新宿区西新宿6-8-1住友不動産新宿オークタワー2階","kouzui":"03-5381-0551","gake":"http://oaktowerclinic.com","takashio":"〇","jishin":"〇","tsunami":"内科循環器内科呼吸器内科消化器内科外科","kaji":"東京大学医学部附属病院(東京都文京区本郷6-8-1)東京逓信病院(東京都千代田区富士見2-14-23)東京医科大学病院(東京都新宿区西新宿6-7-1)JR東京総合病院(東京都渋谷区代々木)大久保病院(東京都新宿区歌舞伎町2-44-1)","naisui":"","kazan":""}}
,{"type":"Feature","geometry":{"type":"Point","coordinates":[139.69333,35.69299]},"properties":{"Name":"新宿睡眠・呼吸器内科クリニック","Jusho":"東京都新宿区西新宿6-5-1新宿アイランドタワー12階","kouzui":"03-5909-5588","gake":"http://www.shinjuku-sleep.jp","takashio":"×","jishin":"〇","tsunami":"内科呼吸器内科","kaji":"","naisui":"","kazan":""}}
,{"type":"Feature","geometry":{"type":"Point","coordinates":[139.69543,35.69171]},"properties":{"Name":"新宿センタービル遠藤眼科","Jusho":"東京都新宿区西新宿1-25-1新宿センタービル5F","kouzui":"03-3344-4146","gake":"","takashio":"〇","jishin":"〇","tsunami":"眼科","kaji":"新宿区内の総合病院","naisui":"","kazan":""}}
,{"type":"Feature","geometry":{"type":"Point","coordinates":[139.69543,35.69171]},"properties":{"Name":"新宿センタービルクリニック","Jusho":"東京都新宿区西新宿1-25-1新宿センタービル5階","kouzui":"03-3346-1151","gake":"http://www.center-clinic.jp/","takashio":"×","jishin":"〇","tsunami":"内科","kaji":"","naisui":"","kazan":""}}
,{"type":"Feature","geometry":{"type":"Point","coordinates":[139.70135,35.69265]},"properties":{"Name":"新宿東口クリニック","Jusho":"東京都新宿区新宿3-24-1新宿M-SQUARE10F","kouzui":"03-5366-3389","gake":"http://www.shinjukuc.com/","takashio":"×","jishin":"〇","tsunami":"内科皮膚科","kaji":"","naisui":"","kazan":""}}
,{"type":"Feature","geometry":{"type":"Point","coordinates":[139.71519,35.68504]},"properties":{"Name":"新宿ホームクリニック","Jusho":"東京都新宿区内藤町1","kouzui":"03-6273-2109","gake":"https://shinjuku-home-clinic.com/","takashio":"〇","jishin":"〇","tsunami":"内科整形外科","kaji":"さくらクリニック（東京都世田谷区桜新町1-14-22-101）レッツメディカルガーデンクリニック（東京都葛飾区細田5-15-6アポロサンズビル1階）九段下駅前まめクリニック（東京都千代田区九段北1丁目3-2大橋ビル3階）池袋東口まめクリニック（東京都豊島区東池袋1丁目42-12ステーションサイドビル3Ｆ）きくなエミールクリニック（神奈川県横浜市港北区大豆戸町210-32階）","naisui":"","kazan":""}}
,{"type":"Feature","geometry":{"type":"Point","coordinates":[139.69392,35.69166]},"properties":{"Name":"新宿三井ビルクリニック","Jusho":"東京都新宿区西新宿2-1-1新宿三井ビル4階","kouzui":"03-3344-3311","gake":"https://www.sakakibarakouseikai.com/mitsui/","takashio":"×","jishin":"〇","tsunami":"内科呼吸器科","kaji":"東京女子医科大学病院（東京都新宿区河和田町8-1）榊原記念病院（東京都府中市朝日町3-16-1）国立国際研究医療センター（東京都新宿区戸山町1-21-1）","naisui":"","kazan":""}}
,{"type":"Feature","geometry":{"type":"Point","coordinates":[139.69807,35.68857]},"properties":{"Name":"新宿南口皮膚科","Jusho":"東京都新宿区西新宿1-18-7-3F","kouzui":"03-3343-4103","gake":"https://www.hifuka.com/","takashio":"×","jishin":"〇","tsunami":"皮膚科","kaji":"","naisui":"","kazan":""}}
,{"type":"Feature","geometry":{"type":"Point","coordinates":[139.70839,35.71109]},"properties":{"Name":"助川クリニック","Jusho":"東京都新宿区高田馬場1-5-10","kouzui":"03-3209-3333","gake":"https://sukegawa-clinic.com/","takashio":"〇","jishin":"〇","tsunami":"整形外科内科皮膚科","kaji":"","naisui":"","kazan":""}}
,{"type":"Feature","geometry":{"type":"Point","coordinates":[139.72307,35.68867]},"properties":{"Name":"住友内科クリニック","Jusho":"東京都新宿区荒木町4-4森初ビル2階","kouzui":"03-5362-3288","gake":"http://sumitomo-clinic.jp/","takashio":"×","jishin":"〇","tsunami":"内科","kaji":"国立国際医療研究センター病院（新宿区戸山1-21-1）","naisui":"","kazan":""}}
,{"type":"Feature","geometry":{"type":"Point","coordinates":[139.68878,35.70323]},"properties":{"Name":"高橋医院","Jusho":"東京都新宿区北新宿3-21-8","kouzui":"03-3371-8064","gake":"","takashio":"〇","jishin":"〇","tsunami":"内科","kaji":"国立国際医療研究センター病院（東京都新宿区戸山1-21-1）","naisui":"","kazan":""}}
,{"type":"Feature","geometry":{"type":"Point","coordinates":[139.72693,35.68829]},"properties":{"Name":"田中内科医院","Jusho":"東京都新宿区四谷三栄町4-11YSビル1階","kouzui":"03-3351-1815","gake":"","takashio":"〇","jishin":"〇","tsunami":"内科小児科","kaji":"","naisui":"","kazan":""}}
,{"type":"Feature","geometry":{"type":"Point","coordinates":[139.69704,35.7064]},"properties":{"Name":"寺尾クリニカ","Jusho":"東京都新宿区百人町3-25-5グランドヒルズA","kouzui":"03-5338-9955","gake":"","takashio":"〇","jishin":"〇","tsunami":"内科心療内科アレルギー科呼吸器科","kaji":"","naisui":"","kazan":""}}
,{"type":"Feature","geometry":{"type":"Point","coordinates":[139.71344,35.6919]},"properties":{"Name":"富久こどもハート・アレルギークリニック","Jusho":"東京都新宿区富久町17‐2","kouzui":"03-5362-1810","gake":"https://kodomo-heart.com/tomi/","takashio":"〇","jishin":"〇","tsunami":"小児科アレルギー科小児循環器内科","kaji":"国立国際医療研究センター（東京都新宿区戸山1-21-1）","naisui":"","kazan":""}}
,{"type":"Feature","geometry":{"type":"Point","coordinates":[139.70892,35.70892]},"properties":{"Name":"なでしこ女性診療所","Jusho":"東京都新宿区高田馬場1-1-1メトロシティ西早稲田2F","kouzui":"03-6233-8228","gake":"https://nadeshiko-women.com/","takashio":"×","jishin":"〇","tsunami":"婦人科皮膚科","kaji":"国立国際医療研究センター東京山手メディカルセンター東京女子医大病院東大病院","naisui":"","kazan":""}}
,{"type":"Feature","geometry":{"type":"Point","coordinates":[139.68724,35.69353]},"properties":{"Name":"西新宿コンシェリアクリニック","Jusho":"東京都新宿区西新宿6-20-7コンシェリア西新宿タワーズウエスト2階","kouzui":"03-5323-8112","gake":"http://www.concieria-clinic.com","takashio":"×","jishin":"〇","tsunami":"精神科","kaji":"東京医大病院（東京都新宿区西新宿6-7-1）","naisui":"","kazan":""}}
,{"type":"Feature","geometry":{"type":"Point","coordinates":[139.70892,35.70892]},"properties":{"Name":"西早稲田眼科","Jusho":"東京都新宿区高田馬場1-1-1メトロシティ西早稲田2F","kouzui":"03-6380-2466","gake":"https://wwec.jp","takashio":"×","jishin":"〇","tsunami":"眼科","kaji":"","naisui":"","kazan":""}}
,{"type":"Feature","geometry":{"type":"Point","coordinates":[139.69507,35.70132]},"properties":{"Name":"丹羽クリニック","Jusho":"東京都新宿区北新宿1-8-17ヒジカタビル2Ｆ","kouzui":"03-3368-7587","gake":"","takashio":"〇","jishin":"〇","tsunami":"内科アレルギー科消化器内科","kaji":"東京山手メディカルセンター（東京都新宿区百人町3-22-1）大久保病院（東京都新宿区歌舞伎町2-44-1）","naisui":"","kazan":""}}
,{"type":"Feature","geometry":{"type":"Point","coordinates":[139.71326,35.69759]},"properties":{"Name":"抜弁天クリニック","Jusho":"東京都新宿区余丁町8-7抜弁天ビル1階","kouzui":"03-5919-1522","gake":"http://www.nukebenten-clinic.com","takashio":"〇","jishin":"〇","tsunami":"内科小児科","kaji":"国立国際医療研究センター（東京都新宿区戸山1-21-1）","naisui":"","kazan":""}}
,{"type":"Feature","geometry":{"type":"Point","coordinates":[139.70021,35.7031]},"properties":{"Name":"光眼科医院","Jusho":"東京都新宿区百人町2-5-8科研ビル203","kouzui":"03-3360-2240","gake":"","takashio":"〇","jishin":"〇","tsunami":"眼科","kaji":"","naisui":"","kazan":""}}
,{"type":"Feature","geometry":{"type":"Point","coordinates":[139.68376,35.71558]},"properties":{"Name":"ほそかわ内科クリニック","Jusho":"東京都新宿区中井2-20-7","kouzui":"03-3952-4181","gake":"http://hosokawa‐naika‐clinic.blogspot.jp/","takashio":"〇","jishin":"〇","tsunami":"内科","kaji":"大久保病院（東京都新宿区歌舞伎町2-44-1）聖母病院（東京都新宿区中落合2-5-1）","naisui":"","kazan":""}}
,{"type":"Feature","geometry":{"type":"Point","coordinates":[139.72914,35.68619]},"properties":{"Name":"まさご眼科","Jusho":"東京都新宿区四谷1-3高増屋ビル4F","kouzui":"03-3350-3681","gake":"https://yotsuya.ganka.jp","takashio":"×","jishin":"〇","tsunami":"眼科","kaji":"","naisui":"","kazan":""}}
,{"type":"Feature","geometry":{"type":"Point","coordinates":[139.69584,35.69027]},"properties":{"Name":"三越診療所","Jusho":"東京都新宿区西新宿1?24?1エステック情報ビル","kouzui":"03-3348-5791","gake":"http://www.mhwf.or.jp/clinic/","takashio":"〇","jishin":"〇","tsunami":"内科","kaji":"国立国際医療研究センター病院（東京都新宿区戸山1-21-1）日本医科大学付属病院（東京都文京区千駄木1-1-5）","naisui":"","kazan":""}}
,{"type":"Feature","geometry":{"type":"Point","coordinates":[139.70192,35.69031]},"properties":{"Name":"ミラザ新宿つるかめクリニック","Jusho":"東京都新宿区新宿3-36-10ミラザ新宿7階","kouzui":"03-6300-0063","gake":"https://mirrazatsurukamekai.jp/index.html","takashio":"×","jishin":"〇","tsunami":"内科消化器内科糖尿病内科婦人科","kaji":"","naisui":"","kazan":""}}
,{"type":"Feature","geometry":{"type":"Point","coordinates":[139.70087,35.72293]},"properties":{"Name":"目白ブライトクリニック","Jusho":"東京都新宿区下落合3-21-3Ｍコート目白1Ｆ","kouzui":"03-3565-5788","gake":"http://mejiro-br.com","takashio":"〇","jishin":"〇","tsunami":"内科外科肛門科消化器科","kaji":"","naisui":"","kazan":""}}
,{"type":"Feature","geometry":{"type":"Point","coordinates":[139.6989,35.72157]},"properties":{"Name":"目白よしみクリニック","Jusho":"東京都新宿区下落合3-12-23豊ビル1F","kouzui":"03-5988-7667","gake":"http://yoshimi-clinic.com/","takashio":"×","jishin":"〇","tsunami":"内科","kaji":"","naisui":"","kazan":""}}
,{"type":"Feature","geometry":{"type":"Point","coordinates":[139.72656,35.68574]},"properties":{"Name":"もりた眼科小児科","Jusho":"東京都新宿区若葉1-10-67、1階2階","kouzui":"03-6380-5363","gake":"https://www.morita-eye.com/","takashio":"〇","jishin":"〇","tsunami":"小児科","kaji":"","naisui":"","kazan":""}}
,{"type":"Feature","geometry":{"type":"Point","coordinates":[139.73721,35.70717]},"properties":{"Name":"もりのぶ小児科","Jusho":"東京都新宿区西五軒町8-10","kouzui":"03-6280-7158","gake":"https://www.nobu-kids.jp/","takashio":"〇","jishin":"〇","tsunami":"小児科","kaji":"国立国際医療センター病院（東京都新宿区戸山1-21-1）","naisui":"","kazan":""}}
,{"type":"Feature","geometry":{"type":"Point","coordinates":[139.726,35.69756]},"properties":{"Name":"薬王寺アイクリニック","Jusho":"東京都新宿区市谷薬王寺町70アルス市ヶ谷薬王寺1F","kouzui":"03-5227-7230","gake":"http://www.yakuoji-ic.jp/","takashio":"×","jishin":"〇","tsunami":"眼科","kaji":"国立国際医療研究センター病院（東京都新宿区戸山1-21-1）JCHO東京新宿メディカルセンター（東京都新宿区津久戸町5-1）","naisui":"","kazan":""}}
,{"type":"Feature","geometry":{"type":"Point","coordinates":[139.7282,35.68651]},"properties":{"Name":"四谷・血管クリニック","Jusho":"東京都新宿区四谷1-8-14四谷1丁目ビル2階","kouzui":"03-6380-6252","gake":"https://www.yotsuya-kekkanclinic.com/","takashio":"〇","jishin":"〇","tsunami":"内科血管外科","kaji":"","naisui":"","kazan":""}}
,{"type":"Feature","geometry":{"type":"Point","coordinates":[139.71794,35.69818]},"properties":{"Name":"若松河田クリニック","Jusho":"東京都新宿区河田町10-7-201","kouzui":"03-6457-8351","gake":"http://wakamatsukawadac.sakura.ne.jp/clinic/","takashio":"×","jishin":"〇","tsunami":"内科小児科","kaji":"東京女子医科大学病院（東京都新宿区河田町8-1）国立国際医療研究センター（東京都新宿区戸山1-21-1）","naisui":"","kazan":""}}
,{"type":"Feature","geometry":{"type":"Point","coordinates":[139.71918,35.70605]},"properties":{"Name":"早稲田クリニック","Jusho":"東京都新宿区馬場下町10早稲田レストハイツ2F","kouzui":"03-3208-2007","gake":"http://www.waseda-clinic.com","takashio":"〇","jishin":"〇","tsunami":"内科","kaji":"","naisui":"","kazan":""}}
,{"type":"Feature","geometry":{"type":"Point","coordinates":[139.74217,35.72916]},"properties":{"Name":"赤池耳鼻咽喉科","Jusho":"東京都文京区千石4-40-2","kouzui":"03-5976-3355","gake":"https://www.akaike-jibika.com…","takashio":"〇","jishin":"〇","tsunami":"耳鼻咽喉科","kaji":"","naisui":"","kazan":""}}
,{"type":"Feature","geometry":{"type":"Point","coordinates":[139.76427,35.71849]},"properties":{"Name":"猪狩医院","Jusho":"東京都文京区根津1-16-8-201","kouzui":"03-3822-4735","gake":"","takashio":"〇","jishin":"〇","tsunami":"内科","kaji":"","naisui":"","kazan":""}}
,{"type":"Feature","geometry":{"type":"Point","coordinates":[139.73633,35.71062]},"properties":{"Name":"石原医院","Jusho":"東京都文京区小日向1-6-6","kouzui":"03-3941-8526","gake":"","takashio":"〇","jishin":"〇","tsunami":"内科・小児科","kaji":"JCHO東京新宿メディカルセンター都立大塚病院順天堂大学附属順天堂病院","naisui":"","kazan":""}}
,{"type":"Feature","geometry":{"type":"Point","coordinates":[139.75481,35.70633]},"properties":{"Name":"一般財団法人近藤記念医学財団近藤記念医学財団富坂診療所","Jusho":"東京都文京区本郷1丁目33-9","kouzui":"03-3814-2662","gake":"http://www.tomisaka.or.jp/","takashio":"×","jishin":"〇","tsunami":"一般内科","kaji":"","naisui":"","kazan":""}}
,{"type":"Feature","geometry":{"type":"Point","coordinates":[139.757,35.71312]},"properties":{"Name":"一般財団法人慈愛会慈愛病院","Jusho":"東京都文京区本郷6-12-5","kouzui":"03-3812-7360","gake":"http://www.jiaibyoin.or.jp/","takashio":"×","jishin":"〇","tsunami":"内科皮膚科","kaji":"日本医科大学付属病院（東京都文京区千駄木1-1-5）","naisui":"","kazan":""}}
,{"type":"Feature","geometry":{"type":"Point","coordinates":[139.75192,35.71226]},"properties":{"Name":"医療法人社団同友会春日クリニック","Jusho":"東京都文京区小石川1-12-16ＴＧビル","kouzui":"03-3813-0080","gake":"http://www.do-yukai.com","takashio":"×","jishin":"〇","tsunami":"内科","kaji":"","naisui":"","kazan":""}}
,{"type":"Feature","geometry":{"type":"Point","coordinates":[139.73413,35.72003]},"properties":{"Name":"医療法人社団心緑会小石川メンタルクリニック","Jusho":"東京都文京区大塚3-6-5白井ビル1〜4F","kouzui":"03-3943-5858","gake":"http://www.koishikawa-mentalcl.com","takashio":"×","jishin":"〇","tsunami":"精神科心療内科","kaji":"","naisui":"","kazan":""}}
,{"type":"Feature","geometry":{"type":"Point","coordinates":[139.76427,35.71849]},"properties":{"Name":"医療法人社団静晴会山田胃腸科外科医院","Jusho":"東京都文京区根津1-16-10","kouzui":"03-3821-3381","gake":"http://www.ymc.or.jp","takashio":"×","jishin":"〇","tsunami":"内科","kaji":"","naisui":"","kazan":""}}
,{"type":"Feature","geometry":{"type":"Point","coordinates":[139.75682,35.73146]},"properties":{"Name":"医療法人社団靜美会駒込かせだクリニック","Jusho":"東京都文京区本駒込4-19-16タウンハイム本駒込1F","kouzui":"03-5832-5665","gake":"http://www.kaseda-clinic.com/","takashio":"×","jishin":"〇","tsunami":"内科脳神経内科呼吸器内科アレルギー科","kaji":"","naisui":"","kazan":""}}
,{"type":"Feature","geometry":{"type":"Point","coordinates":[139.73718,35.71781]},"properties":{"Name":"(医)千秋双葉会茗荷谷耳鼻咽喉科・アレルギー科","Jusho":"東京都文京区小石川5-5-2バンビビル2階","kouzui":"03-3944-8711","gake":"http://myogadani-ent.com/","takashio":"〇","jishin":"〇","tsunami":"耳鼻咽喉科","kaji":"","naisui":"","kazan":""}}
,{"type":"Feature","geometry":{"type":"Point","coordinates":[139.74438,35.72932]},"properties":{"Name":"医療法人社団藤翔会加藤内科胃腸科クリニック","Jusho":"東京都文京区本駒込6-1-21コロナ社第三ビル一階","kouzui":"03-5319-1470","gake":"http//www.katoh-climic.jp","takashio":"×","jishin":"〇","tsunami":"内科小児科胃腸内科消化器内科","kaji":"寺田医院（文京区西方）","naisui":"","kazan":""}}
,{"type":"Feature","geometry":{"type":"Point","coordinates":[139.7523,35.72102]},"properties":{"Name":"医療法人社団中野小児科内科","Jusho":"東京都文京区白山1-33-23ベルメゾン文京白山1F","kouzui":"03-5805-8551","gake":"https://www.nakano-shounikanaika.com/","takashio":"×","jishin":"〇","tsunami":"内科小児科","kaji":"","naisui":"","kazan":""}}
,{"type":"Feature","geometry":{"type":"Point","coordinates":[139.75792,35.72873]},"properties":{"Name":"医療法人社団森谷会森谷医院","Jusho":"東京都文京区千駄木5-43-11","kouzui":"03-3821-0128","gake":"http://www.moritani-mc.com","takashio":"〇","jishin":"〇","tsunami":"内科小児科","kaji":"","naisui":"","kazan":""}}
,{"type":"Feature","geometry":{"type":"Point","coordinates":[139.748,35.71297]},"properties":{"Name":"医療法人緑寿会小林クリニック","Jusho":"東京都文京区小石川3-16-19","kouzui":"03-5689-2025","gake":"https://www.kobayashiclinic-koishikawa.com/","takashio":"×","jishin":"〇","tsunami":"皮膚科内科","kaji":"","naisui":"","kazan":""}}
,{"type":"Feature","geometry":{"type":"Point","coordinates":[139.729,35.7155]},"properties":{"Name":"医療法人社団和幸会上田医院","Jusho":"東京都文京区音羽1丁目20-15","kouzui":"03-3943-0268","gake":"https://ueta-medical-clinic.jimdofree.com/","takashio":"×","jishin":"〇","tsunami":"内科循環器科","kaji":"東京新宿メディカルセンター(東京都新宿区津久戸町5-1）","naisui":"","kazan":""}}
,{"type":"Feature","geometry":{"type":"Point","coordinates":[139.75822,35.70874]},"properties":{"Name":"うすだクリニック","Jusho":"東京都文京区本郷4-36-5","kouzui":"03-5840-8250","gake":"http://www001.upp.so-net.ne.jp/usuda-c/","takashio":"×","jishin":"〇","tsunami":"内科小児科","kaji":"","naisui":"","kazan":""}}
,{"type":"Feature","geometry":{"type":"Point","coordinates":[139.73402,35.70913]},"properties":{"Name":"江戸川橋胃腸肛門クリニック","Jusho":"東京都文京区関口1-19-6弥助ビル5F","kouzui":"03-3269-2020","gake":"https://www.edb-ichou.com/","takashio":"×","jishin":"〇","tsunami":"胃腸科肛門科","kaji":"","naisui":"","kazan":""}}
,{"type":"Feature","geometry":{"type":"Point","coordinates":[139.73378,35.70792]},"properties":{"Name":"江戸川橋さくらクリニック","Jusho":"東京都文京区関口1-1-6","kouzui":"03-5227-3433","gake":"http://edogawabashi-sakura-clinic.com/","takashio":"〇","jishin":"〇","tsunami":"内科消化器内科","kaji":"国立国際医療研究センター東京新宿メディカルセンター","naisui":"","kazan":""}}
,{"type":"Feature","geometry":{"type":"Point","coordinates":[139.76881,35.70816]},"properties":{"Name":"大塚診療所","Jusho":"東京都文京区湯島3-31-6","kouzui":"03-3831-2294","gake":"http://www.ohtsukaclinic.com/","takashio":"〇","jishin":"〇","tsunami":"内科小児科アレルギー科","kaji":"","naisui":"","kazan":""}}
,{"type":"Feature","geometry":{"type":"Point","coordinates":[139.75153,35.70876]},"properties":{"Name":"春日駅前あべファミリークリニック","Jusho":"東京都文京区小石川2-1-12小石川トーセイビル6F","kouzui":"03-3830-0395","gake":"https://www.bunkyo-naika.com/","takashio":"〇","jishin":"〇","tsunami":"内科脳神経外科整形外科","kaji":"","naisui":"","kazan":""}}
,{"type":"Feature","geometry":{"type":"Point","coordinates":[139.75206,35.71271]},"properties":{"Name":"春日眼科","Jusho":"東京都文京区小石川1-13-12","kouzui":"03-3815-0177","gake":"http://www.kasugaeye.com","takashio":"〇","jishin":"〇","tsunami":"眼科","kaji":"","naisui":"","kazan":""}}
,{"type":"Feature","geometry":{"type":"Point","coordinates":[139.75786,35.70721]},"properties":{"Name":"きたなかこども成長クリニック","Jusho":"東京都文京区本郷2-37-6稲毛屋ビル4階","kouzui":"03-3817-0976","gake":"https://www.kitanaka-kidsgrowth.com/","takashio":"〇","jishin":"〇","tsunami":"小児科","kaji":"","naisui":"","kazan":""}}
,{"type":"Feature","geometry":{"type":"Point","coordinates":[139.76645,35.71818]},"properties":{"Name":"下司婦人科クリニック","Jusho":"東京都文京区根津2-14-11Tツインズビル4階","kouzui":"03-5832-4122","gake":"https://www.geshi-clinic.com/","takashio":"×","jishin":"〇","tsunami":"産婦人内科","kaji":"","naisui":"","kazan":""}}
,{"type":"Feature","geometry":{"type":"Point","coordinates":[139.74179,35.71294]},"properties":{"Name":"小石川医院","Jusho":"東京都文京区春日2丁目10?18","kouzui":"03-3816-3151","gake":"","takashio":"〇","jishin":"〇","tsunami":"内科、皮膚科、小児科","kaji":"","naisui":"","kazan":""}}
,{"type":"Feature","geometry":{"type":"Point","coordinates":[139.75111,35.71164]},"properties":{"Name":"小石川循環器内科","Jusho":"東京都文京区小石川2-24-14","kouzui":"03-6801-8450","gake":"http://www/koishikawa-clinic.com","takashio":"〇","jishin":"〇","tsunami":"内科","kaji":"順天堂医院（東京都文京区本郷2-1-1）","naisui":"","kazan":""}}
,{"type":"Feature","geometry":{"type":"Point","coordinates":[139.75206,35.71271]},"properties":{"Name":"小石川柳町クリニック","Jusho":"東京都文京区小石川1-13-9-103クリオ文京小石川","kouzui":"03-5805-3749","gake":"https://www.koishikawa-cl.com","takashio":"〇","jishin":"〇","tsunami":"小児科内科","kaji":"都立大塚病院（〒170-8476東京都豊島区南大塚2丁目8?1）","naisui":"","kazan":""}}
,{"type":"Feature","geometry":{"type":"Point","coordinates":[139.75481,35.70633]},"properties":{"Name":"後楽園ウィメンズクリニック","Jusho":"東京都文京区本郷1-33-8ハウス本郷ビル4階","kouzui":"03-5689-5500","gake":"https://korakuen-womens.jp","takashio":"×","jishin":"〇","tsunami":"産婦人科","kaji":"","naisui":"","kazan":""}}
,{"type":"Feature","geometry":{"type":"Point","coordinates":[139.7339,35.71291]},"properties":{"Name":"こひなた眼科","Jusho":"東京都文京区小日向2-10-3","kouzui":"03-3944-5566","gake":"http://www.kohinata-eyeclinic.com","takashio":"×","jishin":"〇","tsunami":"眼科小児眼科","kaji":"順天堂医院（東京都文京区本郷3-1-3）","naisui":"","kazan":""}}
,{"type":"Feature","geometry":{"type":"Point","coordinates":[139.75058,35.73287]},"properties":{"Name":"こまごめ緑陰診療所","Jusho":"東京都文京区本駒込5-19-2小林ビルデンス2F","kouzui":"03-3943-5525","gake":"http://www.ryokuin.jp/","takashio":"×","jishin":"〇","tsunami":"心療内科精神科","kaji":"","naisui":"","kazan":""}}
,{"type":"Feature","geometry":{"type":"Point","coordinates":[139.7339241,35.7099964]},"properties":{"Name":"坂巻クリニック","Jusho":"東京都文京区水道2-14-7","kouzui":"03-3941-6074","gake":"","takashio":"〇","jishin":"〇","tsunami":"内科","kaji":"JCHO東京新宿メディカルセンター","naisui":"","kazan":""}}
,{"type":"Feature","geometry":{"type":"Point","coordinates":[139.73898,35.71558]},"properties":{"Name":"しおざわクリニック","Jusho":"東京都文京区小日向4-4-3-103","kouzui":"03-3945-3711","gake":"http://www//shiozwa-clinic.com","takashio":"〇","jishin":"〇","tsunami":"内科泌尿器科皮膚科形成外科","kaji":"順天堂医院(東京都文京区本郷3丁目1-3)都立大塚病院(東京都豊島区南大塚2丁目8-1)JCHO東京新宿メディカルセンター(東京都新宿区津久戸町5-1）東京逓信病院（東京都千代田区富士見2丁目14-23）","naisui":"","kazan":""}}
,{"type":"Feature","geometry":{"type":"Point","coordinates":[139.76248,35.7024]},"properties":{"Name":"順天堂大学医学部附属順天堂医院","Jusho":"東京都文京区本郷3-1-3","kouzui":"03-3813-3111","gake":"https://www.juntendo.ac.jp/hospital/","takashio":"〇","jishin":"〇","tsunami":"初診：一部診療科再診：全診療科","kaji":"","naisui":"","kazan":""}}
,{"type":"Feature","geometry":{"type":"Point","coordinates":[139.72435,35.71503]},"properties":{"Name":"すずき医院","Jusho":"東京都文京区目白台1-23-7-101","kouzui":"03-3941-1590","gake":"http://www1.odn.ne.jp/suzuki-iin","takashio":"〇","jishin":"〇","tsunami":"内科小児科","kaji":"","naisui":"","kazan":""}}
,{"type":"Feature","geometry":{"type":"Point","coordinates":[139.74666,35.72952]},"properties":{"Name":"鈴木医院","Jusho":"東京都文京区本駒込2-28-35","kouzui":"03-3941-6615","gake":"","takashio":"×","jishin":"〇","tsunami":"内科","kaji":"","naisui":"","kazan":""}}
,{"type":"Feature","geometry":{"type":"Point","coordinates":[139.744,35.70763]},"properties":{"Name":"須田整形外科クリニック","Jusho":"東京都文京区後楽2-23-15","kouzui":"03-3811-0881","gake":"","takashio":"〇","jishin":"〇","tsunami":"整形外科内科","kaji":"JCHO東京新宿メディカルセンター（新宿区津久戸町5-1）順天堂大学医学部附属順天堂医院（文京区本郷3-1-3）","naisui":"","kazan":""}}
,{"type":"Feature","geometry":{"type":"Point","coordinates":[139.76253,35.72094]},"properties":{"Name":"千駄木みしま眼科","Jusho":"東京都文京区根津2-37-4グランドメゾン根津1階","kouzui":"03-5834-7559","gake":"https://mishimaganka.com/","takashio":"〇","jishin":"〇","tsunami":"眼科","kaji":"","naisui":"","kazan":""}}
,{"type":"Feature","geometry":{"type":"Point","coordinates":[139.76009,35.7085]},"properties":{"Name":"タツノ内科・循環器科","Jusho":"東京都文京区本郷5-1-16B1F","kouzui":"03-5800-0203","gake":"http://www.tatsuno-clinic.com","takashio":"×","jishin":"〇","tsunami":"内科循環器科","kaji":"","naisui":"","kazan":""}}
,{"type":"Feature","geometry":{"type":"Point","coordinates":[139.75993,35.72792]},"properties":{"Name":"団子坂くつろぎクリニック","Jusho":"東京都文京区千駄木5-21-12カサデコリーナ1階","kouzui":"03-5834-7702","gake":"http://www.kojikai.com","takashio":"〇","jishin":"〇","tsunami":"内科アレルギー科","kaji":"","naisui":"","kazan":""}}
,{"type":"Feature","geometry":{"type":"Point","coordinates":[139.74907,35.71445]},"properties":{"Name":"千晶こどもクリニック","Jusho":"東京都文京区小石川1-24-3","kouzui":"03-3868-0703","gake":"http://chiaki-childrenclinic.com","takashio":"〇","jishin":"〇","tsunami":"小児科","kaji":"","naisui":"","kazan":""}}
,{"type":"Feature","geometry":{"type":"Point","coordinates":[139.7599,35.70974]},"properties":{"Name":"寺本内科歯科クリニック","Jusho":"東京都文京区本郷5-25-13","kouzui":"03-5684-0818","gake":"http://termoto-mdc.com","takashio":"×","jishin":"〇","tsunami":"内科","kaji":"帝京大学病院（東京都板橋区）東大病院（東京都文京区）","naisui":"","kazan":""}}
,{"type":"Feature","geometry":{"type":"Point","coordinates":[139.73714,35.71725]},"properties":{"Name":"伝通院クリニック","Jusho":"東京都文京区小日向4丁目6番18号ステラメゾン茗荷谷201","kouzui":"03-6912-1565","gake":"https://dentsuin.jp/","takashio":"〇","jishin":"〇","tsunami":"内科小児科耳鼻咽喉科","kaji":"","naisui":"","kazan":""}}
,{"type":"Feature","geometry":{"type":"Point","coordinates":[139.7620322,35.7012534]},"properties":{"Name":"東京医科歯科大学医学部附属病院","Jusho":"東京都千文京区湯島1-5-45","kouzui":"03-3813-6111","gake":"http://www.tmd.ac.jp/medhospital/topics/tel/index.html","takashio":"×","jishin":"〇","tsunami":"血液内科、膠原病・リウマチ内科、糖尿病・内分泌・代謝内科、腎臓内科、総合診療科、消化器内科、循環器内科、呼吸器内科、緩和ケア科、食道外科、胃外科、大腸・肛門外科、消化器化学療法外科、乳腺外科、小児外科、末梢血管外科、肝胆膵外科、心臓血管外科、呼吸器外科、泌尿器科、頭頚部外科、救急科、病理診断科、眼科、耳鼻咽喉科、皮膚科、形成・美容外科、整形外科、リハビリテーション科、小児科、周産・女性診療科、脳神経外科、脳神経内科、血管内治療科、麻酔・蘇生・ペインクリニック科、放射線治療科、放射線診断科","kaji":"東京北医療センター（東京都北区赤羽4-17-56）小児科練馬光が丘病院（東京都練馬区光が丘2-11-1）小児科武蔵野赤十字病院（東京都武蔵野市境南町1-26-1）小児科土浦協同病院（茨城県土浦市おおつ野4-4-1）小児科JAとりで総合医療センター（茨城県取手市本郷2-1-1）小児科川口市立医療センター（埼玉県川口市西新井宿180）小児科草加市立病院（埼玉県草加市草加2-21-1）小児科東京ベイ・浦安市川医療センター（千葉県浦安市当代島3-4-32）小児科","naisui":"","kazan":""}}
,{"type":"Feature","geometry":{"type":"Point","coordinates":[139.76321,35.71415]},"properties":{"Name":"東京大学医学部附属病院","Jusho":"東京都文京区本郷7-3-1","kouzui":"03-3815-5411","gake":"https://www.h.u-tokyo.ac.jp/","takashio":"×","jishin":"〇","tsunami":"かかりつけ診療科のみ","kaji":"","naisui":"","kazan":""}}
,{"type":"Feature","geometry":{"type":"Point","coordinates":[139.74907,35.71445]},"properties":{"Name":"東京保健生活協同組合セツルメント菊坂診療所","Jusho":"東京都文京区小石川1-24-3","kouzui":"03-3812-0016","gake":"http://www.http://thoken.or.jp/kikusaka","takashio":"×","jishin":"〇","tsunami":"内科","kaji":"","naisui":"","kazan":""}}
,{"type":"Feature","geometry":{"type":"Point","coordinates":[139.76784,35.70427]},"properties":{"Name":"東都文京病院","Jusho":"東京都文京区湯島三丁目5番7号","kouzui":"03-3831-2181","gake":"https://www.tohtobunkyo-hp.com/","takashio":"×","jishin":"〇","tsunami":"内科・心療内科・泌尿器・外科・整形外科・眼科・産婦人科・小児科・皮膚科・耳鼻咽喉科","kaji":"","naisui":"","kazan":""}}
,{"type":"Feature","geometry":{"type":"Point","coordinates":[139.75903,35.73211]},"properties":{"Name":"内藤クリニック","Jusho":"東京都文京区千駄木4-14-10-2F","kouzui":"03-5685-2455","gake":"","takashio":"×","jishin":"〇","tsunami":"精神科","kaji":"","naisui":"","kazan":""}}
,{"type":"Feature","geometry":{"type":"Point","coordinates":[139.7507,35.713]},"properties":{"Name":"中村クリニック","Jusho":"東京都文京区小石川3-27-6コスモ小石川103","kouzui":"03-3818-7677","gake":"","takashio":"〇","jishin":"〇","tsunami":"消化器外科内科","kaji":"","naisui":"","kazan":""}}
,{"type":"Feature","geometry":{"type":"Point","coordinates":[139.76302,35.71901]},"properties":{"Name":"似鳥クリニック","Jusho":"東京都文京区根津1-19-11","kouzui":"03-3827-1181","gake":"https://www.nitadori.com/","takashio":"〇","jishin":"〇","tsunami":"呼吸器内科循環器内科小児科脳神経外科","kaji":"東京大学医学部附属病院（東京都文京区本郷7-3-1）三井記念病院（東京都千代田区神田和泉町1）","naisui":"","kazan":""}}
,{"type":"Feature","geometry":{"type":"Point","coordinates":[139.75903,35.73121]},"properties":{"Name":"にわ医院","Jusho":"東京都文京区千駄木4-8-12","kouzui":"03-3824-0482","gake":"","takashio":"〇","jishin":"〇","tsunami":"内科小児科","kaji":"","naisui":"","kazan":""}}
,{"type":"Feature","geometry":{"type":"Point","coordinates":[139.73497,35.71792]},"properties":{"Name":"はりまざかクリニック耳鼻咽喉科・アレルギー科","Jusho":"東京都文京区大塚1-5-18大伴ビル9階A号","kouzui":"03-6304-1510","gake":"https://harimazaka.clinic","takashio":"〇","jishin":"〇","tsunami":"耳鼻咽喉科小児耳鼻咽喉科アレルギー科","kaji":"","naisui":"","kazan":""}}
,{"type":"Feature","geometry":{"type":"Point","coordinates":[139.74818,35.71461]},"properties":{"Name":"ふくだ皮ふ科","Jusho":"東京都文京区小石川3-35-11","kouzui":"03-3868-2229","gake":"https://fukuda-hifu.jp","takashio":"〇","jishin":"〇","tsunami":"皮膚科","kaji":"","naisui":"","kazan":""}}
,{"type":"Feature","geometry":{"type":"Point","coordinates":[139.76143,35.72551]},"properties":{"Name":"藤原クリニック","Jusho":"東京都文京区千駄木3-2-7リエス千駄木1階地下1階","kouzui":"03-3821-3767","gake":"https://fujiwara-cl.jp/","takashio":"〇","jishin":"〇","tsunami":"内科呼吸器内科循環器内科心療内科精神科","kaji":"藤原クリニック","naisui":"","kazan":""}}
,{"type":"Feature","geometry":{"type":"Point","coordinates":[139.75941,35.73183]},"properties":{"Name":"文京動坂診療所","Jusho":"東京都文京区千駄木4-15-3","kouzui":"03-3822-9680","gake":"http://www.bunkyo-dozaka.dr-clinic.jp","takashio":"×","jishin":"〇","tsunami":"内科","kaji":"","naisui":"","kazan":""}}
,{"type":"Feature","geometry":{"type":"Point","coordinates":[139.74619,35.72761]},"properties":{"Name":"文京内科・循環器クリニック","Jusho":"東京都文京区本駒込2-10-3-4F","kouzui":"03-6304-1567","gake":"https://www.bunkyo-cl.jp/","takashio":"〇","jishin":"〇","tsunami":"内科循環器内科糖尿病内科","kaji":"日本医科大学附属病院(東京都文京区千駄木1-1-5)","naisui":"","kazan":""}}
,{"type":"Feature","geometry":{"type":"Point","coordinates":[139.74968,35.72412]},"properties":{"Name":"保坂こどもクリニック","Jusho":"東京都文京区白山5-27-12","kouzui":"03-3946-0641","gake":"http://hosaka-kodomo.com","takashio":"〇","jishin":"〇","tsunami":"小児科","kaji":"","naisui":"","kazan":""}}
,{"type":"Feature","geometry":{"type":"Point","coordinates":[139.76505,35.71772]},"properties":{"Name":"細部医院","Jusho":"東京都文京区根津1-1-19-2階","kouzui":"03-3822-6858","gake":"http://www.hosobeclinic.jp","takashio":"×","jishin":"〇","tsunami":"泌尿器科","kaji":"日本医科大学付属病院(文京区千駄木1-1-5)","naisui":"","kazan":""}}
,{"type":"Feature","geometry":{"type":"Point","coordinates":[139.76645,35.71818]},"properties":{"Name":"細部小児科クリニック","Jusho":"東京都文京区根津2-14-11Tツインビル2階","kouzui":"03-6303-3162","gake":"http://www.hosobe-kodomo.com/","takashio":"〇","jishin":"〇","tsunami":"小児科","kaji":"東大病院（文京区本郷7-3-1）日医大（文京区千駄木1-1-5）順天堂病院（文京区本郷3-1-3）医科歯病院（文京区湯島1-5-45）","naisui":"","kazan":""}}
,{"type":"Feature","geometry":{"type":"Point","coordinates":[139.75999,35.70761]},"properties":{"Name":"本郷耳鼻咽喉科クリニック","Jusho":"東京都文京区本郷4-2-8フローラビルディング2階","kouzui":"03-5689-4133","gake":"http://www.hongoent.com/","takashio":"〇","jishin":"〇","tsunami":"耳鼻咽喉科、アレルギー科","kaji":"","naisui":"","kazan":""}}
,{"type":"Feature","geometry":{"type":"Point","coordinates":[139.76009,35.7085]},"properties":{"Name":"本郷台皮膚科","Jusho":"東京都文京区本郷5-1-15安野ビル3F","kouzui":"03-3812-4112","gake":"http://www.tcda.jp/hongoudai/","takashio":"×","jishin":"〇","tsunami":"皮膚科","kaji":"","naisui":"","kazan":""}}
,{"type":"Feature","geometry":{"type":"Point","coordinates":[139.75421,35.73329]},"properties":{"Name":"松本医院","Jusho":"東京都文京区本駒込5-41-11青木ビル1階","kouzui":"03-5832-9518","gake":"http://matsumoto-iinn.com","takashio":"×","jishin":"△","tsunami":"内科小児科皮膚科アレルギー科","kaji":"","naisui":"","kazan":""}}
,{"type":"Feature","geometry":{"type":"Point","coordinates":[139.72099,35.7182]},"properties":{"Name":"三浦内科クリニック","Jusho":"東京都文京区目白台2-12-5","kouzui":"03-5319-3321","gake":"http://www.miuranaikabunkyo.sakura.ne.jp/","takashio":"〇","jishin":"〇","tsunami":"内科","kaji":"","naisui":"","kazan":""}}
,{"type":"Feature","geometry":{"type":"Point","coordinates":[139.74023,35.72786]},"properties":{"Name":"光永クリニック","Jusho":"東京都文京区千石4-4-1","kouzui":"03-3943-0270","gake":"http://www.mitsunagaclinic.com/","takashio":"×","jishin":"〇","tsunami":"内科小児科","kaji":"","naisui":"","kazan":""}}
,{"type":"Feature","geometry":{"type":"Point","coordinates":[139.73645,35.71849]},"properties":{"Name":"茗荷谷キッズクリニック","Jusho":"東京都文京区大塚3-1-6ラ・トゥール小石川B1F","kouzui":"03-5976-3077","gake":"http://myogadani-kids.com/","takashio":"〇","jishin":"〇","tsunami":"小児科アレルギー科","kaji":"都立大塚病院（東京都豊島区南大塚2丁目8番1号）","naisui":"","kazan":""}}
,{"type":"Feature","geometry":{"type":"Point","coordinates":[139.73843,35.71638]},"properties":{"Name":"茗荷谷なかむらクリニック","Jusho":"東京都文京区小日向4-5-16ツインヒルズ茗荷谷1階","kouzui":"03-3945-6161","gake":"http://myogadani-cl.jp/","takashio":"〇","jishin":"〇","tsunami":"内科","kaji":"","naisui":"","kazan":""}}
,{"type":"Feature","geometry":{"type":"Point","coordinates":[139.73897,35.71666]},"properties":{"Name":"茗荷谷レディースクリニック","Jusho":"東京都文京区小石川5-3-4-3階","kouzui":"03-3830-0495","gake":"https://myogadani-ladies.com/","takashio":"×","jishin":"〇","tsunami":"産婦人科","kaji":"","naisui":"","kazan":""}}
,{"type":"Feature","geometry":{"type":"Point","coordinates":[139.73912,35.73082]},"properties":{"Name":"三輪医院","Jusho":"東京都文京区千石4-26-8","kouzui":"03-5976-9933","gake":"https://miwaclinic.jimdofree.com/","takashio":"〇","jishin":"〇","tsunami":"内科","kaji":"","naisui":"","kazan":""}}
,{"type":"Feature","geometry":{"type":"Point","coordinates":[139.76395,35.7283]},"properties":{"Name":"むらい内科・循環器クリニック","Jusho":"東京都文京区千駄木3-43-3ATK千駄木ビル1階","kouzui":"03-3822-8010","gake":"http://murai-clinic.com/","takashio":"〇","jishin":"〇","tsunami":"内科循環内科","kaji":"","naisui":"","kazan":""}}
,{"type":"Feature","geometry":{"type":"Point","coordinates":[139.75284,35.71592]},"properties":{"Name":"八千代診療所","Jusho":"東京都文京区白山1-5-8","kouzui":"03-3811-4519","gake":"","takashio":"〇","jishin":"〇","tsunami":"内科・精神科・小児科","kaji":"","naisui":"","kazan":""}}
,{"type":"Feature","geometry":{"type":"Point","coordinates":[139.73856,35.71836]},"properties":{"Name":"湯坂クリニック","Jusho":"東京都文京区小石川5-7-3","kouzui":"03-5981-8288","gake":"http://www.yskcc.com","takashio":"〇","jishin":"〇","tsunami":"乳腺外科","kaji":"","naisui":"","kazan":""}}
,{"type":"Feature","geometry":{"type":"Point","coordinates":[139.74406,35.72964]},"properties":{"Name":"りくぎえん皮膚科","Jusho":"東京都文京区本駒込6-2-1栄泉堂ビル301","kouzui":"03-6912-0812","gake":"http://rikugien-hifuka.com/","takashio":"×","jishin":"〇","tsunami":"皮膚科","kaji":"日本医科大学付属病院","naisui":"","kazan":""}}
,{"type":"Feature","geometry":{"type":"Point","coordinates":[139.73251,35.76408]},"properties":{"Name":"おうじキッズクリニック","Jusho":"東京都北区王子5-1-40サミットストア王子桜田通り店2階","kouzui":"03-3914-1511","gake":"http://oji-kids.com/","takashio":"×","jishin":"〇","tsunami":"小児科","kaji":"東京北医療センター（東京都北区赤羽台4-17-56）帝京大学医学部付属病院（東京都板橋区加賀2-11-1）","naisui":"","kazan":""}}
,{"type":"Feature","geometry":{"type":"Point","coordinates":[139.7874,35.72501]},"properties":{"Name":"いりやキッズクリニック","Jusho":"東京都台東区下谷3-11-12","kouzui":"03-5808-0415","gake":"http://iriyakids.com/","takashio":"×","jishin":"〇","tsunami":"小児科アレルギー科","kaji":"","naisui":"","kazan":""}}
,{"type":"Feature","geometry":{"type":"Point","coordinates":[139.79181,35.72618]},"properties":{"Name":"医療法人社団一順会田村胃腸科外科","Jusho":"東京都台東区竜泉3-42-11","kouzui":"03-3874-9981","gake":"","takashio":"〇","jishin":"〇","tsunami":"内科","kaji":"","naisui":"","kazan":""}}
,{"type":"Feature","geometry":{"type":"Point","coordinates":[139.78746,35.72146]},"properties":{"Name":"医療法人社団尾泉会つちやファミリークリニック","Jusho":"東京都台東区入谷2-25-2-1F","kouzui":"03-3873-1375","gake":"http://tsuchiya-family-clinic.com/","takashio":"〇","jishin":"〇","tsunami":"内科小児科皮膚科","kaji":"永寿総合病院（東京都台東区東上野2-23-16）台東区立台東病院（東京都台東区千束3-20-5）浅草寺病院（東京都台東区浅草2-30-17）","naisui":"","kazan":""}}
,{"type":"Feature","geometry":{"type":"Point","coordinates":[139.76503,35.72812]},"properties":{"Name":"医療法人社団菊和会谷中クリニック","Jusho":"東京都台東区谷中3-13-10","kouzui":"03-3823-1261","gake":"","takashio":"〇","jishin":"〇","tsunami":"内科小児科外科・肛門科","kaji":"","naisui":"","kazan":""}}
,{"type":"Feature","geometry":{"type":"Point","coordinates":[139.78033,35.71149]},"properties":{"Name":"医療法人社団道草会浜田クリニック","Jusho":"東京都台東区東上野3-36-1","kouzui":"03-3832-5426","gake":"","takashio":"×","jishin":"〇","tsunami":"精神科","kaji":"","naisui":"","kazan":""}}
,{"type":"Feature","geometry":{"type":"Point","coordinates":[139.77867,35.7136]},"properties":{"Name":"上野睡眠クリニック","Jusho":"東京都台東区上野7-6-5-9Ｆ","kouzui":"03-5830-5951","gake":"http://ueno5951.com","takashio":"×","jishin":"〇","tsunami":"内科（睡眠時無呼吸症候群）","kaji":"","naisui":"","kazan":""}}
,{"type":"Feature","geometry":{"type":"Point","coordinates":[139.78996,35.72854]},"properties":{"Name":"浦尾医院","Jusho":"東京都台東区根岸5-17-6","kouzui":"03-3875-0242","gake":"https://www.uraoiin-ioukai.com/","takashio":"〇","jishin":"〇","tsunami":"耳鼻咽喉科","kaji":"","naisui":"","kazan":""}}
,{"type":"Feature","geometry":{"type":"Point","coordinates":[139.7706,35.7092]},"properties":{"Name":"小川眼科診療所","Jusho":"東京都台東区上野2-11-6","kouzui":"03-3831-0588","gake":"http://www.ogawa-ganka.jp","takashio":"〇","jishin":"〇","tsunami":"眼科","kaji":"","naisui":"","kazan":""}}
,{"type":"Feature","geometry":{"type":"Point","coordinates":[139.77103,35.7069]},"properties":{"Name":"北島クリニック","Jusho":"東京都台東区上野1-16-16第2三倉ビル3F","kouzui":"03-5807-6160","gake":"http://www.kitajima-cl.com","takashio":"×","jishin":"〇","tsunami":"精神科心療内科","kaji":"","naisui":"","kazan":""}}
,{"type":"Feature","geometry":{"type":"Point","coordinates":[139.79662,35.71567]},"properties":{"Name":"社会福祉法人浅草寺病院","Jusho":"東京都台東区浅草2丁目30番17号","kouzui":"03-3841-3330","gake":"https://www.sensoji-h.or.jp/","takashio":"×","jishin":"〇","tsunami":"内科外科整形外科小児科眼科耳鼻咽喉科泌尿器科","kaji":"","naisui":"","kazan":""}}
,{"type":"Feature","geometry":{"type":"Point","coordinates":[139.77887,35.7099]},"properties":{"Name":"ぞうさん内科クリニック","Jusho":"東京都台東区東上野2丁目22-5旭ビル1階101号室","kouzui":"03-3837-7775","gake":"https://www.zousannaika.com","takashio":"〇","jishin":"〇","tsunami":"内科","kaji":"","naisui":"","kazan":""}}
,{"type":"Feature","geometry":{"type":"Point","coordinates":[139.77307,35.7092]},"properties":{"Name":"たまおか眼科","Jusho":"東京都台東区上野2-7-13-3F","kouzui":"03-5812-3270","gake":"http://tamaoka-eyeclinic.com","takashio":"×","jishin":"〇","tsunami":"眼科","kaji":"","naisui":"","kazan":""}}
,{"type":"Feature","geometry":{"type":"Point","coordinates":[139.79312,35.72995]},"properties":{"Name":"同善会クリニック","Jusho":"東京都台東区三ノ輪2-12-12","kouzui":"03-3801-6180","gake":"http://www.dozen-hp.com","takashio":"×","jishin":"〇","tsunami":"総合診療科","kaji":"","naisui":"","kazan":""}}
,{"type":"Feature","geometry":{"type":"Point","coordinates":[139.7905,35.72719]},"properties":{"Name":"みうら眼科・皮フ科クリニック","Jusho":"東京都台東区竜泉2-19-18クリニックステーション三ノ輪1Ｆ","kouzui":"03-6458-1050","gake":"http://miuraclinic-taitoku.jp","takashio":"〇","jishin":"〇","tsunami":"眼科","kaji":"","naisui":"","kazan":""}}
,{"type":"Feature","geometry":{"type":"Point","coordinates":[139.77267,35.70762]},"properties":{"Name":"吉野眼科クリニック","Jusho":"東京都台東区上野1-20-10風月堂本社ビル6階","kouzui":"03-3839-5092","gake":"https://www.yoshino-eye-clinic.com/","takashio":"〇","jishin":"〇","tsunami":"眼科","kaji":"日本医科大学付属病院(文京区）東京大学医学部附属病院（文京区）慶応義塾大学病院（新宿区）日本大学医学部附属板橋病院（板橋区）","naisui":"","kazan":""}}
,{"type":"Feature","geometry":{"type":"Point","coordinates":[139.7500166,35.7207608]},"properties":{"Name":"わたなべ皮膚科","Jusho":"東京都文京区日山1-33-16パークコートプレイスビル4F","kouzui":"03-3830-8080","gake":"http://watanabe-skin.jp","takashio":"〇","jishin":"〇","tsunami":"皮膚科","kaji":"","naisui":"","kazan":""}}
,{"type":"Feature","geometry":{"type":"Point","coordinates":[139.81572,35.6962]},"properties":{"Name":"医療法人社団ナイズキャップスクリニック錦糸町","Jusho":"東京都墨田区江東橋4-27-14錦糸町パルコ7F","kouzui":"03-4579-2973","gake":"https://www.caps-clinic.jp/kinshicho","takashio":"〇","jishin":"〇","tsunami":"小児科","kaji":"","naisui":"","kazan":""}}
,{"type":"Feature","geometry":{"type":"Point","coordinates":[139.81406,35.7102]},"properties":{"Name":"押上駅前松浦内科クリニック","Jusho":"東京都墨田区押上1-11-5菅野ビル1・2階","kouzui":"03-5637-9388","gake":"http://www.matsuura-medical-clinic.org/","takashio":"〇","jishin":"〇","tsunami":"内科、呼吸器内科、内分泌代謝内科、循環器内科、消化器内科、耳鼻咽喉科","kaji":"昭和大学江東豊洲病院（東京都江東区）東京曳舟病院（東京都墨田区）あそか病院（東京都江東区）","naisui":"","kazan":""}}
,{"type":"Feature","geometry":{"type":"Point","coordinates":[139.81409,35.70498]},"properties":{"Name":"おしあげ耳鼻咽喉科","Jusho":"東京都墨田区横川3-11-14マツマルビル2F","kouzui":"03-3622-2633","gake":"http://oshiage.sho-jin.com/","takashio":"〇","jishin":"〇","tsunami":"耳鼻科","kaji":"","naisui":"","kazan":""}}
,{"type":"Feature","geometry":{"type":"Point","coordinates":[139.82025,35.73248]},"properties":{"Name":"梶原病院","Jusho":"東京都墨田区墨田3-31-12","kouzui":"03-3614-2255","gake":"http://www.kajiwara-hospital.com","takashio":"×","jishin":"〇","tsunami":"内科整形","kaji":"東京慈恵会医科大学葛飾医療センター（東京都葛飾区青戸6-41-2)","naisui":"","kazan":""}}
,{"type":"Feature","geometry":{"type":"Point","coordinates":[139.82104,35.7363]},"properties":{"Name":"木村医院","Jusho":"東京都墨田区墨田5-35-6","kouzui":"03-3618-5501","gake":"https://medical-clinic-6705.business.site/","takashio":"〇","jishin":"〇","tsunami":"内科小児科","kaji":"","naisui":"","kazan":""}}
,{"type":"Feature","geometry":{"type":"Point","coordinates":[139.79968,35.6944]},"properties":{"Name":"東京シティクリニック両国","Jusho":"東京都墨田区緑1-14-4両国TYビル9階","kouzui":"03-5638-3377","gake":"https://tokyocityclinic-ryogoku.com/","takashio":"〇","jishin":"〇","tsunami":"内科、乳腺外科","kaji":"東京都立墨東病院（〒130-8575東京都墨田区江東橋4-23-15）杏雲堂病院（〒101-0062東京都千代田区神田駿河台1-8）","naisui":"","kazan":""}}
,{"type":"Feature","geometry":{"type":"Point","coordinates":[139.81673,35.7174]},"properties":{"Name":"東京曳舟病院","Jusho":"東京都墨田区東向島2-27-1","kouzui":"03-5655-1120","gake":"https://tokyo-hikifune-hp.jp/","takashio":"×","jishin":"〇","tsunami":"総合診療科","kaji":"","naisui":"","kazan":""}}
,{"type":"Feature","geometry":{"type":"Point","coordinates":[139.80281,35.70075]},"properties":{"Name":"宮田内科クリニック","Jusho":"東京都墨田区石原3-19-1早川ビル1階","kouzui":"03-6666-5266","gake":"http://www.miyata-naika.jp/","takashio":"×","jishin":"〇","tsunami":"内科消化器内科","kaji":"","naisui":"","kazan":""}}
,{"type":"Feature","geometry":{"type":"Point","coordinates":[139.84157,35.68283]},"properties":{"Name":"赤羽根医院","Jusho":"東京都江東区東砂2-1-15","kouzui":"03-3648-3622","gake":"https://www.akahaneclinic.com/","takashio":"〇","jishin":"〇","tsunami":"内科小児科","kaji":"江東病院（東京都江東区大島6-8-5）","naisui":"","kazan":""}}
,{"type":"Feature","geometry":{"type":"Point","coordinates":[139.79681,35.65334]},"properties":{"Name":"有明こどもクリニック豊洲院","Jusho":"東京都江東区豊洲5-5-25-1F","kouzui":"03-6204-2733","gake":"https://clinicclinic.or.jp","takashio":"〇","jishin":"〇","tsunami":"内科小児科アレルギー科","kaji":"昭和大学江東豊洲病院聖路加国際病院","naisui":"","kazan":""}}
,{"type":"Feature","geometry":{"type":"Point","coordinates":[139.8376,35.68024]},"properties":{"Name":"医療法人社団共咲会サワイメディカルクリニック","Jusho":"東京都江東区北砂6-27-17","kouzui":"03-3615-0606","gake":"http://sawaimedicalclinic.net","takashio":"×","jishin":"〇","tsunami":"内科","kaji":"","naisui":"","kazan":""}}
,{"type":"Feature","geometry":{"type":"Point","coordinates":[139.82605,35.69525]},"properties":{"Name":"医療法人社団弘大会五の橋こどもクリニック","Jusho":"東京都江東区亀戸6-14-31F","kouzui":"03-5858-8011","gake":"http://www.gonohashi-kodomo.com","takashio":"〇","jishin":"〇","tsunami":"小児科内科","kaji":"東京都立墨東病院（東京都墨田区江東橋4-23-15）","naisui":"","kazan":""}}
,{"type":"Feature","geometry":{"type":"Point","coordinates":[139.81479,35.68267]},"properties":{"Name":"医療法人社団高裕会深川立川病院","Jusho":"東京都江東区扇橋2-2-3","kouzui":"03-3645-2101","gake":"http://www.tachikawa-hospital.jp","takashio":"〇","jishin":"〇","tsunami":"内科","kaji":"","naisui":"","kazan":""}}
,{"type":"Feature","geometry":{"type":"Point","coordinates":[139.79973,35.6858]},"properties":{"Name":"医療法人社団浩成会なかむら整形外科","Jusho":"東京都江東区高橋14-3盛市ビル4階","kouzui":"03-3631-8833","gake":"https://www.nakamura-seikeigeka.or.jp/","takashio":"〇","jishin":"〇","tsunami":"整形外科","kaji":"","naisui":"","kazan":""}}
,{"type":"Feature","geometry":{"type":"Point","coordinates":[139.79486,35.65761]},"properties":{"Name":"医療法人社団TIK大手町さくらクリニックin豊洲","Jusho":"東京都江東区豊洲3-2-20豊洲フロント2F","kouzui":"03-6219-5688","gake":"http://oscl.jp/","takashio":"〇","jishin":"〇","tsunami":"内科","kaji":"","naisui":"","kazan":""}}
,{"type":"Feature","geometry":{"type":"Point","coordinates":[139.83444,35.69748]},"properties":{"Name":"医療法人社団ひらの亀戸ひまわり診療所","Jusho":"東京都江東区亀戸7-10-1Zビル2F","kouzui":"03-5609-1823","gake":"https://www.himawari-clinic.jp/","takashio":"〇","jishin":"〇","tsunami":"内科小児科","kaji":"","naisui":"","kazan":""}}
,{"type":"Feature","geometry":{"type":"Point","coordinates":[139.79207,35.67491]},"properties":{"Name":"永代クリニック","Jusho":"東京都江東区永代2-37-22永代クリニックビル1F","kouzui":"03-3641-3055","gake":"http://eitai-clinic.com","takashio":"〇","jishin":"〇","tsunami":"内科","kaji":"","naisui":"","kazan":""}}
,{"type":"Feature","geometry":{"type":"Point","coordinates":[139.83414,35.68932]},"properties":{"Name":"大島耳鼻咽喉科・アレルギー科","Jusho":"東京都江東区大島5-10-10セントラルプラザ大島4F","kouzui":"03-5626-1133","gake":"http://www.ojima-ent.com","takashio":"〇","jishin":"〇","tsunami":"耳鼻咽喉科アレルギー科","kaji":"昭和大学江東豊洲病院（東京都江東区豊洲5-1-38）","naisui":"","kazan":""}}
,{"type":"Feature","geometry":{"type":"Point","coordinates":[139.8,35.66687]},"properties":{"Name":"おかの小児科","Jusho":"東京都江東区古石場2-14-1ウェルタワー深川・医療モール","kouzui":"03-5621-2336","gake":"http://home.catv.ne.jp/pp/oknclnc/","takashio":"〇","jishin":"〇","tsunami":"小児科アレルギー科","kaji":"","naisui":"","kazan":""}}
,{"type":"Feature","geometry":{"type":"Point","coordinates":[139.80237,35.64655]},"properties":{"Name":"かしわぎクリニック","Jusho":"東京都江東区東雲1-9-21-102","kouzui":"03-3532-6600","gake":"https://www.kashiwagi-clinic.jp","takashio":"×","jishin":"〇","tsunami":"内科皮膚科","kaji":"","naisui":"","kazan":""}}
,{"type":"Feature","geometry":{"type":"Point","coordinates":[139.82347,35.70139]},"properties":{"Name":"亀戸キッズクリニック","Jusho":"東京都江東区亀戸2-42-52F","kouzui":"03-5875-3387","gake":"http://www.kameido-kids.com/","takashio":"〇","jishin":"〇","tsunami":"小児科","kaji":"","naisui":"","kazan":""}}
,{"type":"Feature","geometry":{"type":"Point","coordinates":[139.82501,35.6988]},"properties":{"Name":"亀戸内科クリニック","Jusho":"東京都江東区亀戸2-26-8-風月堂ビル1F","kouzui":"03-5626-5600","gake":"http://kameido-naika.com/","takashio":"〇","jishin":"〇","tsunami":"内科","kaji":"","naisui":"","kazan":""}}
,{"type":"Feature","geometry":{"type":"Point","coordinates":[139.80435,35.67954]},"properties":{"Name":"清澄白河こどもクリニック","Jusho":"東京都江東区三好3-1-3","kouzui":"03-5602-9119","gake":"http://www.shujii.com/56029119/i/","takashio":"〇","jishin":"〇","tsunami":"小児科","kaji":"","naisui":"","kazan":""}}
,{"type":"Feature","geometry":{"type":"Point","coordinates":[139.79608,35.63501]},"properties":{"Name":"公益財団法人がん研究会有明病院","Jusho":"東京都江東区有明3-8-31","kouzui":"03-3520-0111","gake":"https://www.jfcr.or.jp/hospital/","takashio":"×","jishin":"〇","tsunami":"呼吸器内科消化器内科乳腺内科血液内科腫瘍内科漢方内科精神科皮膚科泌尿器科婦人科眼科呼吸器外科消化器外科乳腺外科整形外科形成外科頭頸部外科放射線治療科歯科麻酔科内科外科","kaji":"","naisui":"","kazan":""}}
,{"type":"Feature","geometry":{"type":"Point","coordinates":[139.82912,35.68723]},"properties":{"Name":"小林クリニック","Jusho":"東京都江東区大島4-1-6-105","kouzui":"03-3684-0481","gake":"","takashio":"×","jishin":"〇","tsunami":"内科","kaji":"","naisui":"","kazan":""}}
,{"type":"Feature","geometry":{"type":"Point","coordinates":[139.81642,35.68399]},"properties":{"Name":"小林内科クリニック","Jusho":"東京都江東区扇橋2-17-5","kouzui":"03-3699-5884","gake":"","takashio":"×","jishin":"〇","tsunami":"内科呼吸器科循環器科アレルギー科","kaji":"","naisui":"","kazan":""}}
,{"type":"Feature","geometry":{"type":"Point","coordinates":[139.7953,35.6531]},"properties":{"Name":"澤井クリニック","Jusho":"東京都江東区豊洲5-2-10沢真ビル3F","kouzui":"03-5548-2629","gake":"http://www.sawai-cl.com","takashio":"〇","jishin":"〇","tsunami":"内科皮膚科","kaji":"","naisui":"","kazan":""}}
,{"type":"Feature","geometry":{"type":"Point","coordinates":[139.82281,35.69769]},"properties":{"Name":"清湘会記念病院","Jusho":"東京都江東区亀戸2-17-24","kouzui":"03-3636-2301","gake":"https://www.seishokai.or.jp/","takashio":"×","jishin":"〇","tsunami":"内科","kaji":"","naisui":"","kazan":""}}
,{"type":"Feature","geometry":{"type":"Point","coordinates":[139.80237,35.64655]},"properties":{"Name":"たかすな内科・胃腸内科クリニック","Jusho":"東京都江東区東雲1-9-22","kouzui":"03-3536-3004","gake":"http://www.takasuna-naika.com/?utm_source=hospita.jp&utm_medium=referral","takashio":"×","jishin":"〇","tsunami":"内科胃腸内科","kaji":"","naisui":"","kazan":""}}
,{"type":"Feature","geometry":{"type":"Point","coordinates":[139.79709,35.64188]},"properties":{"Name":"東京有明医療大学附属クリニック","Jusho":"東京都江東区有明2-9-1","kouzui":"03-6703-7003","gake":"","takashio":"×","jishin":"〇","tsunami":"内科整形外科外科","kaji":"","naisui":"","kazan":""}}
,{"type":"Feature","geometry":{"type":"Point","coordinates":[139.83154,35.66774]},"properties":{"Name":"東京都立東部療育センター","Jusho":"東京都江東区新砂3-3-25","kouzui":"03-5632-8070","gake":"https://www.tobu-ryoiku.jp/","takashio":"×","jishin":"〇","tsunami":"小児科神経小児科神経内科","kaji":"","naisui":"","kazan":""}}
,{"type":"Feature","geometry":{"type":"Point","coordinates":[139.79705,35.65137]},"properties":{"Name":"豊洲小児科醫院","Jusho":"東京都江東区豊洲5?6?291F","kouzui":"03-3533-7733","gake":"http://www.toyosu-shounika.com","takashio":"〇","jishin":"〇","tsunami":"小児科","kaji":"昭和大学江東豊洲病院（東京都江東区豊洲5-1-38）順天堂大学医学部附属順天堂医院（東京都文京区本郷3-1-3）東京臨海病院（東京都江戸川区臨海町1-4-2）聖路加国際病院（東京都中央区明石町9-1）","naisui":"","kazan":""}}
,{"type":"Feature","geometry":{"type":"Point","coordinates":[139.79475,35.6545]},"properties":{"Name":"豊洲ベイシティクリニック耳鼻咽喉科","Jusho":"東京都江東区豊洲2-2-1豊洲ベイサイドクロスタワーC棟4階","kouzui":"03-3534-3387","gake":"http://toyosu.sho-jin.com/","takashio":"〇","jishin":"〇","tsunami":"耳鼻科","kaji":"","naisui":"","kazan":""}}
,{"type":"Feature","geometry":{"type":"Point","coordinates":[139.83629,35.68883]},"properties":{"Name":"びやじま内科医院","Jusho":"東京都江東区大島5-36-7-2F","kouzui":"03-5628-0571","gake":"http://www.clinic-ojima.com","takashio":"〇","jishin":"〇","tsunami":"内科小児科皮膚科泌尿器科","kaji":"","naisui":"","kazan":""}}
,{"type":"Feature","geometry":{"type":"Point","coordinates":[139.82768,35.68858]},"properties":{"Name":"藤川内科・呼吸器内科クリニック","Jusho":"東京都江東区大島4-6-21-西大島ビューハイツ101号室","kouzui":"03-5627-7700","gake":"https://www.fujikawa-naika.com","takashio":"×","jishin":"〇","tsunami":"内科","kaji":"","naisui":"","kazan":""}}
,{"type":"Feature","geometry":{"type":"Point","coordinates":[139.80388,35.67809]},"properties":{"Name":"平和記念医院","Jusho":"東京都江東区平野2-11-5パシフィック第二門前仲町2F","kouzui":"03-3820-8880","gake":"https://heiwa-med.com","takashio":"〇","jishin":"〇","tsunami":"内科皮膚科漢方内科","kaji":"江東病院(東京都江東区大島6-8-5)あそか病院(東京都江東区住吉1-18-1)","naisui":"","kazan":""}}
,{"type":"Feature","geometry":{"type":"Point","coordinates":[139.81793,35.68105]},"properties":{"Name":"正井診療所","Jusho":"東京都江東区海辺12-11","kouzui":"03-3644-0943","gake":"http://www.masai-s.com/","takashio":"〇","jishin":"〇","tsunami":"内科","kaji":"","naisui":"","kazan":""}}
,{"type":"Feature","geometry":{"type":"Point","coordinates":[139.81808,35.6687]},"properties":{"Name":"みつはたペインクリニック","Jusho":"東京都江東区東陽2-4-26飯田ビル3F","kouzui":"03-5683-1199","gake":"https://mituhata-pain.com/","takashio":"×","jishin":"〇","tsunami":"ペインクリニック","kaji":"順天堂大学医学部付属順天堂東京江東高齢者医療センター（東京都江東区新砂3-3-20）","naisui":"","kazan":""}}
,{"type":"Feature","geometry":{"type":"Point","coordinates":[139.83154,35.66774]},"properties":{"Name":"南砂町駅前おおさわクリニック","Jusho":"東京都江東区新砂3-3-53アルカナール南砂2階E","kouzui":"03-6458-7498","gake":"https://www.osawaclinic.net/","takashio":"×","jishin":"〇","tsunami":"内科胃腸肛門内科外科","kaji":"","naisui":"","kazan":""}}
,{"type":"Feature","geometry":{"type":"Point","coordinates":[139.8356,35.66461]},"properties":{"Name":"南砂町おだやかクリニック","Jusho":"東京都江東区新砂3-4-31スナモ4F","kouzui":"03-5633-8751","gake":"http://www.junreikai.com","takashio":"〇","jishin":"〇","tsunami":"内科循環器内科呼吸器科","kaji":"","naisui":"","kazan":""}}
,{"type":"Feature","geometry":{"type":"Point","coordinates":[139.82744,35.69682]},"properties":{"Name":"メンタルオフィス亀戸","Jusho":"東京都江東区亀戸6-58-11亀戸ESビル3F","kouzui":"03-3636-2377","gake":"http://www.kameido-mental.com/index.html","takashio":"×","jishin":"〇","tsunami":"精神科","kaji":"","naisui":"","kazan":""}}
,{"type":"Feature","geometry":{"type":"Point","coordinates":[139.79875,35.68576]},"properties":{"Name":"望月内科クリニック","Jusho":"東京都江東区高橋13-2ヴィラロイヤル森下1F","kouzui":"03-5669-1531","gake":"http://www.mochizukinaika.com","takashio":"〇","jishin":"〇","tsunami":"内科呼吸器科循環器科アレルギー科","kaji":"","naisui":"","kazan":""}}
,{"type":"Feature","geometry":{"type":"Point","coordinates":[139.81526,35.68207]},"properties":{"Name":"森井整形外科","Jusho":"東京都江東区千田13-13","kouzui":"03-3649-7000","gake":"https://morii-orth.jp/","takashio":"×","jishin":"〇","tsunami":"整形外科","kaji":"","naisui":"","kazan":""}}
,{"type":"Feature","geometry":{"type":"Point","coordinates":[139.81654,35.67146]},"properties":{"Name":"森崎医院","Jusho":"東京都江東区東陽4-10-2-1F","kouzui":"03-3645-1493","gake":"https://morisaki-iin.com/","takashio":"×","jishin":"〇","tsunami":"内科","kaji":"","naisui":"","kazan":""}}
,{"type":"Feature","geometry":{"type":"Point","coordinates":[139.83456,35.68046]},"properties":{"Name":"柳沢ファミリークリニック","Jusho":"東京都江東区北砂5-14-3-101","kouzui":"03-6458-7818","gake":"https://www.yanagisawafc.com","takashio":"〇","jishin":"〇","tsunami":"内科小児科皮膚科","kaji":"","naisui":"","kazan":""}}
,{"type":"Feature","geometry":{"type":"Point","coordinates":[139.82242,35.67537]},"properties":{"Name":"六地蔵クリニック","Jusho":"東京都江東区南砂2-28-7","kouzui":"03-5690-7651","gake":"http://www.rokujizou-clinic.jp","takashio":"×","jishin":"〇","tsunami":"脳神経外科整形外科神経内科循環器内科リハビリテーション科","kaji":"","naisui":"","kazan":""}}
,{"type":"Feature","geometry":{"type":"Point","coordinates":[139.74452,35.61174]},"properties":{"Name":"あおよこ皮膚科クリニック","Jusho":"東京都品川区南品川2-17-24フルカワビル2階","kouzui":"03-5479-6051","gake":"http://www.aoyoko-sc.jp/","takashio":"×","jishin":"〇","tsunami":"皮膚科","kaji":"","naisui":"","kazan":""}}
,{"type":"Feature","geometry":{"type":"Point","coordinates":[139.73222,35.58967]},"properties":{"Name":"いすゞ病院","Jusho":"東京都品川区南大井6-21-10","kouzui":"03-3762-9127","gake":"http://isuzu-hospital.jp/","takashio":"×","jishin":"〇","tsunami":"内科整形外科眼科","kaji":"","naisui":"","kazan":""}}
,{"type":"Feature","geometry":{"type":"Point","coordinates":[139.73402,35.62381]},"properties":{"Name":"医療法人社団恵芳会松脇クリニック品川","Jusho":"東京都品川区北品川6-7-29ガーデンシティー品川御殿山1階","kouzui":"03-6721-6870","gake":"https://matsuwaki.com","takashio":"×","jishin":"〇","tsunami":"耳鼻咽喉科呼吸器内科","kaji":"","naisui":"","kazan":""}}
,{"type":"Feature","geometry":{"type":"Point","coordinates":[139.73671,35.60629]},"properties":{"Name":"医療法人社団孝徳会孝仁クリニック","Jusho":"東京都品川区東大井5-14-11-1F","kouzui":"03-3474-5566","gake":"https://koujin.or.jp","takashio":"×","jishin":"〇","tsunami":"内科（予約による訪問診療）","kaji":"","naisui":"","kazan":""}}
,{"type":"Feature","geometry":{"type":"Point","coordinates":[139.73579,35.60787]},"properties":{"Name":"医療法人社団CVIC大井町心臓クリニック","Jusho":"東京都品川区東大井5-2-3かんべ土地K-15ビル（おおい元気館）3階","kouzui":"03-6712-9085","gake":"https://oimachiclinic.com/","takashio":"×","jishin":"〇","tsunami":"循環器内科内科","kaji":"","naisui":"","kazan":""}}
,{"type":"Feature","geometry":{"type":"Point","coordinates":[139.71338,35.60656]},"properties":{"Name":"医療法人社団浄真会仲田クリニック","Jusho":"東京都品川区東中延2-9-7","kouzui":"03-5749-5117","gake":"http://www.nakada-cl.jp","takashio":"×","jishin":"〇","tsunami":"内科泌尿器科皮膚科","kaji":"東京品川病院（東京都品川区）","naisui":"","kazan":""}}
,{"type":"Feature","geometry":{"type":"Point","coordinates":[139.72374,35.62706]},"properties":{"Name":"医療法人社団千秋双葉会東京アーバンクリニック五反田","Jusho":"東京都品川区東五反田5-27-3第二野村ビル5F","kouzui":"03-3441-6755","gake":"http://www.tokyourbanclinic-gotanda.com/","takashio":"〇","jishin":"〇","tsunami":"小児科アレルギー科内科皮膚科","kaji":"都立広尾病院（東京都渋谷区）NTT関東病院（東京都品川区）昭和大学病院（東京都品川区）愛育病院（東京都港区）日本赤十字医療センター（東京都渋谷区）など","naisui":"","kazan":""}}
,{"type":"Feature","geometry":{"type":"Point","coordinates":[139.72652,35.627]},"properties":{"Name":"医療法人社団柊会島津山眼科","Jusho":"東京都品川区東五反田1-5-3","kouzui":"03-5798-2740","gake":"http://www.shimazuyama-eye.jp/","takashio":"×","jishin":"〇","tsunami":"眼科","kaji":"","naisui":"","kazan":""}}
,{"type":"Feature","geometry":{"type":"Point","coordinates":[139.71037,35.6209]},"properties":{"Name":"医療法人社団朋英会舘医院","Jusho":"東京都品川区小山2-12-10","kouzui":"03-3782-8088","gake":"https://www.tachi-iin.com/556.html","takashio":"×","jishin":"〇","tsunami":"内科泌尿器科","kaji":"","naisui":"","kazan":""}}
,{"type":"Feature","geometry":{"type":"Point","coordinates":[139.71114,35.61585]},"properties":{"Name":"医療法人社団まつばらクリニック","Jusho":"東京都品川区平塚3-3-13","kouzui":"03-5751-8501","gake":"http://xn--k9jya3b6bzla3lpcxp.com/","takashio":"×","jishin":"〇","tsunami":"内科小児科","kaji":"","naisui":"","kazan":""}}
,{"type":"Feature","geometry":{"type":"Point","coordinates":[139.71643,35.63491]},"properties":{"Name":"医療法人社団めぐみ会めぐみクリニック目黒","Jusho":"東京都品川区上大崎2-12-2ミズホビル2階","kouzui":"03-5422-9877","gake":"https://www.megumicl.com/","takashio":"×","jishin":"〇","tsunami":"内科","kaji":"","naisui":"","kazan":""}}
,{"type":"Feature","geometry":{"type":"Point","coordinates":[139.72243,35.61447]},"properties":{"Name":"医療法人社団豊佳会青柳医院","Jusho":"東京都品川区豊町1-4-15第一青柳ビル","kouzui":"03-3788-0801","gake":"","takashio":"×","jishin":"〇","tsunami":"内科外科","kaji":"","naisui":"","kazan":""}}
,{"type":"Feature","geometry":{"type":"Point","coordinates":[139.72948,35.62012]},"properties":{"Name":"医療法人社団柊会大崎眼科クリニック","Jusho":"東京都品川区大崎1-6-4新大崎勧業ビル2階","kouzui":"03-5436-4155","gake":"http://www.ohsaki-eye.jp/","takashio":"×","jishin":"〇","tsunami":"眼科","kaji":"","naisui":"","kazan":""}}
,{"type":"Feature","geometry":{"type":"Point","coordinates":[139.72539,35.63111]},"properties":{"Name":"NTT東日本関東病院","Jusho":"東京都品川区東五反田5-9-22","kouzui":"03-3448-6111","gake":"https://www.nmct.ntt-east.co.jp/","takashio":"×","jishin":"〇","tsunami":"小児科産婦人科以外の全診療科","kaji":"","naisui":"","kazan":""}}
,{"type":"Feature","geometry":{"type":"Point","coordinates":[139.71057,35.61075]},"properties":{"Name":"えばらサンクリニック","Jusho":"東京都品川区中延2-9-22-1F","kouzui":"03-3786-0012","gake":"http://ebara-sun-cl.net/","takashio":"〇","jishin":"〇","tsunami":"内科小児科皮膚科","kaji":"昭和大学病院、NTT東日本関東病院、東京品川病院、荏原病院、など","naisui":"","kazan":""}}
,{"type":"Feature","geometry":{"type":"Point","coordinates":[139.73285,35.61963]},"properties":{"Name":"大崎こどもハート・アレルギークリニック","Jusho":"東京都品川区北品川5-8-15北品川ホームズ1F","kouzui":"03-3440-8211","gake":"https://kodomo-heart.com/osaki/","takashio":"〇","jishin":"〇","tsunami":"小児科アレルギー科","kaji":"昭和大学病院（東京都品川区旗の台1-5-8）","naisui":"","kazan":""}}
,{"type":"Feature","geometry":{"type":"Point","coordinates":[139.72977,35.58837]},"properties":{"Name":"大森耳鼻咽喉科","Jusho":"東京都品川区南大井6-28-12ヒューリック大森ビル5F","kouzui":"03-6410-8633","gake":"http://www.omori-jibika.net","takashio":"×","jishin":"〇","tsunami":"耳鼻咽喉科アレルギー科","kaji":"","naisui":"","kazan":""}}
,{"type":"Feature","geometry":{"type":"Point","coordinates":[139.72993,35.58903]},"properties":{"Name":"奥秋整形外科","Jusho":"東京都品川区南大井6-24-9興産大森ビル4階","kouzui":"03-5753-8282","gake":"https://okuaki-seikei.com","takashio":"×","jishin":"〇","tsunami":"整形外科","kaji":"","naisui":"","kazan":""}}
,{"type":"Feature","geometry":{"type":"Point","coordinates":[139.7382,35.60456]},"properties":{"Name":"小澤医院","Jusho":"東京都品川区東大井3-1-18","kouzui":"03-3298-0088","gake":"https://oimachi-ozawaclinic.com","takashio":"〇","jishin":"〇","tsunami":"小児科内科","kaji":"東京品川病院（東京都品川区東大井6-3-22）東邦大学医療センター大森病院(東京都大田区大森西6-11-1)","naisui":"","kazan":""}}
,{"type":"Feature","geometry":{"type":"Point","coordinates":[139.7012,35.61317]},"properties":{"Name":"小野内科","Jusho":"東京都品川区荏原5-16-19","kouzui":"090-5441-9877","gake":"http://www.ono-naika.net/","takashio":"〇","jishin":"〇","tsunami":"内科","kaji":"","naisui":"","kazan":""}}
,{"type":"Feature","geometry":{"type":"Point","coordinates":[139.72736,35.60128]},"properties":{"Name":"柿島医院","Jusho":"東京都品川区大井3-21-10","kouzui":"03-3775-5171","gake":"http://www.taikou.or.jp","takashio":"〇","jishin":"〇","tsunami":"内科循環器内科ペインクリニック内科","kaji":"","naisui":"","kazan":""}}
,{"type":"Feature","geometry":{"type":"Point","coordinates":[139.6989,35.61554]},"properties":{"Name":"かきのき眼科","Jusho":"東京都品川区小山6-3-9ウエストヴィレッジビルディング4F","kouzui":"03-6426-4639","gake":"http://kakinokiganka.jp/","takashio":"〇","jishin":"〇","tsunami":"眼科","kaji":"","naisui":"","kazan":""}}
,{"type":"Feature","geometry":{"type":"Point","coordinates":[139.72276,35.62576]},"properties":{"Name":"KARADA(からだ)内科クリニック","Jusho":"東京都品川区西五反田1-2-8FUNDES五反田10F","kouzui":"090-8389-8153","gake":"https://karada-naika.com/","takashio":"〇","jishin":"〇","tsunami":"総合内科感染症内科性感染症（性病）渡航外来","kaji":"NTT東関東病院（東京都品川区東五反田5-9-22）東京医科大学病院（東京都新宿区西新宿6-7-1）","naisui":"","kazan":""}}
,{"type":"Feature","geometry":{"type":"Point","coordinates":[139.71178,35.60606]},"properties":{"Name":"きくち眼科","Jusho":"東京都品川区中延4-4-8","kouzui":"03-3781-4306","gake":"http://www.kikuchinakanobu.com","takashio":"×","jishin":"〇","tsunami":"眼科","kaji":"","naisui":"","kazan":""}}
,{"type":"Feature","geometry":{"type":"Point","coordinates":[139.73965,35.60154]},"properties":{"Name":"けいひんファミリークリニック","Jusho":"東京都品川区東大井2-12-19MKビル3階","kouzui":"03-5767-7755","gake":"https://www.med-kfc.com/","takashio":"〇","jishin":"〇","tsunami":"小児科内科アレルギー科","kaji":"","naisui":"","kazan":""}}
,{"type":"Feature","geometry":{"type":"Point","coordinates":[139.72575,35.62998]},"properties":{"Name":"五反田泌尿器科内科すどうクリニック","Jusho":"東京都品川区東五反田4-11-6クレスト五反田ビル2階B号","kouzui":"03-6432-5785","gake":"http://www.gotanda-minna.com/","takashio":"×","jishin":"〇","tsunami":"泌尿器科内科","kaji":"NTT東日本関東病院（東京都品川区東五反田5-9-22）","naisui":"","kazan":""}}
,{"type":"Feature","geometry":{"type":"Point","coordinates":[139.73181,35.62165]},"properties":{"Name":"御殿山整形外科リハビリクリニック","Jusho":"東京都品川区北品川5-4-1大崎ブライトプラザ2F","kouzui":"03-3446-5108","gake":"http://www.gotenyama-seikei.jp","takashio":"×","jishin":"〇","tsunami":"整形外科リハビリテーション科","kaji":"","naisui":"","kazan":""}}
,{"type":"Feature","geometry":{"type":"Point","coordinates":[139.71815,35.63378]},"properties":{"Name":"こどもの森クリニック","Jusho":"東京都品川区上大崎3-3-1自転車総合ビル1階","kouzui":"03-5798-4141","gake":"http://kodomonomori-clinic.com","takashio":"×","jishin":"〇","tsunami":"小児科","kaji":"","naisui":"","kazan":""}}
,{"type":"Feature","geometry":{"type":"Point","coordinates":[139.70886,35.60158]},"properties":{"Name":"こみね循環器科・内科クリニック","Jusho":"東京都品川区中延5-13-161階","kouzui":"03-5750-6355","gake":"http://komine-cl.com","takashio":"×","jishin":"〇","tsunami":"内科","kaji":"","naisui":"","kazan":""}}
,{"type":"Feature","geometry":{"type":"Point","coordinates":[139.71561,35.60838]},"properties":{"Name":"さえきクリニック","Jusho":"東京都品川区戸越6-4-3","kouzui":"03-5749-5821","gake":"http://saekiclinic.byoinnavi.jp/pc/","takashio":"〇","jishin":"〇","tsunami":"内科小児科","kaji":"","naisui":"","kazan":""}}
,{"type":"Feature","geometry":{"type":"Point","coordinates":[139.70282,35.62006]},"properties":{"Name":"サンタハウスこどもクリニック","Jusho":"東京都品川区小山3-1-21階","kouzui":"03-3719-5533","gake":"http://www.santahousecodomo.jp/","takashio":"〇","jishin":"〇","tsunami":"小児科アレルギー科内科","kaji":"昭和大学病院（東京都品川区旗の台1-5-8）荏原病院（東京都大田区東雪谷4-5-10）都立広尾病院（東京都渋谷区恵比寿2-34-10）日本赤十字社医療センター（東京都渋谷区広尾4-1-22）NTT東日本関東病院（東京都品川区東五反田5-9-22）東京品川病院（東京都品川区東大井6-3-22）東邦大学大森病院（東京都大田区大森西6-11-1）東邦大学大橋病院（東京都目黒区大橋2-22-36）厚生中央病院（東京都目黒区三田1-11-7）東京医療センター（東京都目黒区東が丘2-5-1）","naisui":"","kazan":""}}
,{"type":"Feature","geometry":{"type":"Point","coordinates":[139.72241,35.62694]},"properties":{"Name":"Jメンタル五反田駅前クリニック","Jusho":"東京都品川区西五反田2-5-2五反田東幸ビル7F","kouzui":"03-3491-7776","gake":"http://www.j-mental.com/","takashio":"〇","jishin":"〇","tsunami":"精神科心療内科漢方内科","kaji":"荏原病院(東京都大田区東雪谷四丁目5-10）晴和病院(東京都新宿区弁天町91）東京都立松沢病院(東京都世田谷区上北沢2-1-1）","naisui":"","kazan":""}}
,{"type":"Feature","geometry":{"type":"Point","coordinates":[139.74452,35.61174]},"properties":{"Name":"城南こどもハート・アレルギークリニック","Jusho":"東京都品川区南品川2-17-27三井南品川ハイツ1階","kouzui":"03-3474-8010","gake":"https://kodomo-heart.com/jonan/","takashio":"〇","jishin":"〇","tsunami":"小児科アレルギー科","kaji":"昭和大学病院（東京都品川区旗の台1-5-8）","naisui":"","kazan":""}}
,{"type":"Feature","geometry":{"type":"Point","coordinates":[139.70566,35.6096]},"properties":{"Name":"昭和大学病院附属東病院","Jusho":"東京都品川区西中延2-14-19","kouzui":"03-3784-8000","gake":"http://www.showa-u.ac.jp/SUHE/","takashio":"×","jishin":"△","tsunami":"糖尿糖代謝内分泌内科脳神経内科精神神経科麻酔科ペインクリニック整形外科眼科睡眠医療センター","kaji":"","naisui":"","kazan":""}}
,{"type":"Feature","geometry":{"type":"Point","coordinates":[139.72374,35.62706]},"properties":{"Name":"竹内胃腸内科医院","Jusho":"東京都品川区東五反田5-27-3第2野村ビル3階","kouzui":"03-5421-7149","gake":"https://takeuchi-giclinic.com","takashio":"〇","jishin":"〇","tsunami":"内科消化器内科胃腸内科","kaji":"NTT東日本関東病院（東京都品川区）昭和大学病院（東京都品川区）東京都品川病院（東京都品川区）","naisui":"","kazan":""}}
,{"type":"Feature","geometry":{"type":"Point","coordinates":[139.71387,35.61618]},"properties":{"Name":"たごファミリークリニック","Jusho":"東京都品川区平塚2-15-15丸二ビル3階","kouzui":"03-3785-5250","gake":"http://tago-clinic.in.coocan.jp/","takashio":"×","jishin":"〇","tsunami":"内科小児科","kaji":"","naisui":"","kazan":""}}
,{"type":"Feature","geometry":{"type":"Point","coordinates":[139.69804,35.60564]},"properties":{"Name":"田辺医院","Jusho":"東京都品川区旗の台6-30-1","kouzui":"03-3785-9003","gake":"","takashio":"×","jishin":"×","tsunami":"小児科","kaji":"","naisui":"","kazan":""}}
,{"type":"Feature","geometry":{"type":"Point","coordinates":[139.75262,35.59938]},"properties":{"Name":"東京シティクリニック品川","Jusho":"東京都品川区八潮5-10-27パトリア品川別館2階","kouzui":"03-3790-2551","gake":"http://tokyocityclinic-shinagawa.com/","takashio":"〇","jishin":"〇","tsunami":"内科小児科皮膚科","kaji":"東京シティクリニック品川","naisui":"","kazan":""}}
,{"type":"Feature","geometry":{"type":"Point","coordinates":[139.7178,35.60967]},"properties":{"Name":"とごし公園内科クリニック","Jusho":"東京都品川区戸越5-11-8新川屋ビル1F","kouzui":"03-3784-2112","gake":"https://togoshipark-cl.com/","takashio":"〇","jishin":"〇","tsunami":"内科全般","kaji":"","naisui":"","kazan":""}}
,{"type":"Feature","geometry":{"type":"Point","coordinates":[139.72351,35.61428]},"properties":{"Name":"戸越泌尿器科内科クリニック","Jusho":"東京都品川区豊町1-3-17山崎ビル1階","kouzui":"03-5788-6120","gake":"http://togoshi-clinic.com/","takashio":"〇","jishin":"〇","tsunami":"泌尿器科内科","kaji":"","naisui":"","kazan":""}}
,{"type":"Feature","geometry":{"type":"Point","coordinates":[139.71257,35.60228]},"properties":{"Name":"中村医院","Jusho":"東京都品川区中延6-4-17","kouzui":"03-3764-0128","gake":"http://www.n-cl.jp","takashio":"〇","jishin":"〇","tsunami":"内科整形皮膚科","kaji":"東邦大学医療センター大森病院（東京都大田区大森西6-11-1）","naisui":"","kazan":""}}
,{"type":"Feature","geometry":{"type":"Point","coordinates":[139.72025,35.6019]},"properties":{"Name":"なるき内科クリニック","Jusho":"東京都品川区二葉3-26-6-101","kouzui":"03-5702-2255","gake":"https://naruki-naika.com/","takashio":"〇","jishin":"〇","tsunami":"内科","kaji":"","naisui":"","kazan":""}}
,{"type":"Feature","geometry":{"type":"Point","coordinates":[139.70433,35.60432]},"properties":{"Name":"西川医院","Jusho":"東京都品川区旗の台4-1-5","kouzui":"03-3781-7825","gake":"http://hwm8.spaaqs.ne.jp/nishikawaiin/","takashio":"×","jishin":"〇","tsunami":"内科消化器内科小児科","kaji":"","naisui":"","kazan":""}}
,{"type":"Feature","geometry":{"type":"Point","coordinates":[139.6989,35.61554]},"properties":{"Name":"野本内科クリニック","Jusho":"東京都品川区小山6-3-9-3階","kouzui":"03-5749-3300","gake":"http://www.nomotonaika.jp","takashio":"×","jishin":"〇","tsunami":"内科","kaji":"荏原病院（東京都大田区東雪谷4-5-10）NTT東日本関東病院（東京都品川区東五反田5-9-22）昭和大学病院（東京都品川区旗の台1-5-8）東京共済病院（東京都目黒区中目黒2-3-8）","naisui":"","kazan":""}}
,{"type":"Feature","geometry":{"type":"Point","coordinates":[139.7056,35.60888]},"properties":{"Name":"旗の台駅東口いわた眼科","Jusho":"東京都品川区西中延2-15-21Ｔ＆ＹYASUDAビル1F","kouzui":"03-6426-6155","gake":"https://www.iwata.com/","takashio":"〇","jishin":"〇","tsunami":"眼科","kaji":"","naisui":"","kazan":""}}
,{"type":"Feature","geometry":{"type":"Point","coordinates":[139.74983,35.61364]},"properties":{"Name":"東品川クリニック","Jusho":"東京都品川区東品川3-18-3神興ビル3階","kouzui":"03-3472-6684","gake":"https://www.hs.-clinic.com","takashio":"〇","jishin":"〇","tsunami":"内科小児科総合診療科","kaji":"","naisui":"","kazan":""}}
,{"type":"Feature","geometry":{"type":"Point","coordinates":[139.72881,35.60878]},"properties":{"Name":"二葉医院","Jusho":"東京都品川区二葉1-7-9","kouzui":"03-3782-2748","gake":"","takashio":"×","jishin":"〇","tsunami":"内科麻酔科","kaji":"","naisui":"","kazan":""}}
,{"type":"Feature","geometry":{"type":"Point","coordinates":[139.70444,35.61882]},"properties":{"Name":"穂坂クリニック","Jusho":"東京都品川区小山3-24-6","kouzui":"03-3781-1351","gake":"https://hosaka-clinic.com","takashio":"〇","jishin":"〇","tsunami":"内科リウマチ科アレルギー科","kaji":"","naisui":"","kazan":""}}
,{"type":"Feature","geometry":{"type":"Point","coordinates":[139.71416,35.62563]},"properties":{"Name":"三浦医院","Jusho":"東京都品川区西五反田5-10-6-104","kouzui":"03-3492-5225","gake":"https://miuraiin.jp/","takashio":"〇","jishin":"〇","tsunami":"内科外科","kaji":"","naisui":"","kazan":""}}
,{"type":"Feature","geometry":{"type":"Point","coordinates":[139.70322,35.6034]},"properties":{"Name":"みしま内科","Jusho":"東京都品川区旗の台5-8-5","kouzui":"03-6426-7728","gake":"http://mishima-naika.com","takashio":"×","jishin":"〇","tsunami":"内科","kaji":"","naisui":"","kazan":""}}
,{"type":"Feature","geometry":{"type":"Point","coordinates":[139.73837,35.60994]},"properties":{"Name":"みんなのクリニック大井町","Jusho":"東京都品川区南品川6-15-5三越ゼームス坂マンション1階","kouzui":"03-6433-0280","gake":"http://minnano.clonic/oimachi/","takashio":"〇","jishin":"〇","tsunami":"内科小児科","kaji":"東京品川病院（東京都品川区東大井6-3-22）","naisui":"","kazan":""}}
,{"type":"Feature","geometry":{"type":"Point","coordinates":[139.70177,35.61801]},"properties":{"Name":"武蔵小山胃腸内視鏡クリニック","Jusho":"東京都品川区小山4-13-13","kouzui":"0120-949-922","gake":"http://www.msk-cl.com","takashio":"〇","jishin":"〇","tsunami":"内科","kaji":"","naisui":"","kazan":""}}
,{"type":"Feature","geometry":{"type":"Point","coordinates":[139.7049,35.62044]},"properties":{"Name":"むさしこやま眼科","Jusho":"東京都品川区小山3-15-1パークシティ武蔵小山ザモール2階2-H","kouzui":"03-3788-4639","gake":"https://www.musashikoyamaganka.jp/","takashio":"〇","jishin":"〇","tsunami":"眼科","kaji":"かきのき眼科（東京都品川区小山6-3-9ウエストヴィレッジビルディング4F）","naisui":"","kazan":""}}
,{"type":"Feature","geometry":{"type":"Point","coordinates":[139.70274,35.61914]},"properties":{"Name":"武蔵小山腎泌尿器クリニック","Jusho":"東京都品川区小山4-3-12TK武蔵小山ビル2F","kouzui":"03-6426-2832","gake":"http://musako-uro.com/","takashio":"×","jishin":"〇","tsunami":"泌尿器科内科腎臓内科","kaji":"昭和大学病院（東京都品川区旗の台1-5-8）NTT東日本関東病院（東京都品川区東五反田5-9-22）都立荏原病院（東京都大田区東雪谷4-5-10）","naisui":"","kazan":""}}
,{"type":"Feature","geometry":{"type":"Point","coordinates":[139.72206,35.62617]},"properties":{"Name":"むらさき乳腺クリニック五反田","Jusho":"東京都品川区西五反田2-19-2荒久ビル6F","kouzui":"03-3495-0881","gake":"http://www.murasakibreastclinic.com/","takashio":"〇","jishin":"〇","tsunami":"乳腺外科","kaji":"","naisui":"","kazan":""}}
,{"type":"Feature","geometry":{"type":"Point","coordinates":[139.71643,35.63491]},"properties":{"Name":"めぐみクリニック目黒2","Jusho":"東京都品川区上大崎2-12-2ミズホビル3F","kouzui":"03-5422-8391","gake":"https://www.megumicl.com/2/","takashio":"×","jishin":"〇","tsunami":"皮膚科漢方内科小児科","kaji":"","naisui":"","kazan":""}}
,{"type":"Feature","geometry":{"type":"Point","coordinates":[139.71788,35.63465]},"properties":{"Name":"目黒みらい内科クリニック","Jusho":"東京都品川区上大崎2-13-26メイプルトップビル3F","kouzui":"03-6721-6672","gake":"https://www.meguro-clinic.net/","takashio":"〇","jishin":"〇","tsunami":"内科呼吸器内科糖尿病内科","kaji":"","naisui":"","kazan":""}}
,{"type":"Feature","geometry":{"type":"Point","coordinates":[139.71919,35.61089]},"properties":{"Name":"もちづき内科クリニック","Jusho":"東京都品川区戸越4-9-12","kouzui":"03-6426-2711","gake":"https://www.mochizuki-medical.com/","takashio":"〇","jishin":"〇","tsunami":"内科アレルギー科","kaji":"東京品川病院昭和大学付属病院NTT東日本関東病院","naisui":"","kazan":""}}
,{"type":"Feature","geometry":{"type":"Point","coordinates":[139.70137,35.61508]},"properties":{"Name":"山内クリニック","Jusho":"東京都品川区小山5-17-4、1階","kouzui":"03-3781-2890","gake":"http://www.yamauchicl.com","takashio":"×","jishin":"〇","tsunami":"内科","kaji":"","naisui":"","kazan":""}}
,{"type":"Feature","geometry":{"type":"Point","coordinates":[139.71387,35.61618]},"properties":{"Name":"山崎眼科","Jusho":"東京都品川区平塚2-15-151F","kouzui":"03-3782-6666","gake":"http://www.pluto.dti.ne.jp/yamazaki-ganka/","takashio":"×","jishin":"〇","tsunami":"眼科","kaji":"","naisui":"","kazan":""}}
,{"type":"Feature","geometry":{"type":"Point","coordinates":[139.72057,35.60606]},"properties":{"Name":"ゆたか診療所","Jusho":"東京都品川区豊町4-18-21","kouzui":"03-3781-4723","gake":"http://www.yutakashin.jp","takashio":"×","jishin":"〇","tsunami":"内科整形外科皮膚科","kaji":"","naisui":"","kazan":""}}
,{"type":"Feature","geometry":{"type":"Point","coordinates":[139.71819,35.60786]},"properties":{"Name":"依田医院","Jusho":"東京都品川区戸越6-7-26-201","kouzui":"03-3781-2865","gake":"","takashio":"×","jishin":"〇","tsunami":"内科","kaji":"","naisui":"","kazan":""}}
,{"type":"Feature","geometry":{"type":"Point","coordinates":[139.71107,35.60906]},"properties":{"Name":"わかばやし眼科","Jusho":"東京都品川区中延3-2-18-101","kouzui":"03-6421-5900","gake":"https://www.wakabayashi-ganka.jp/","takashio":"×","jishin":"〇","tsunami":"眼科","kaji":"","naisui":"","kazan":""}}
,{"type":"Feature","geometry":{"type":"Point","coordinates":[139.71504,35.61507]},"properties":{"Name":"和田外科醫院","Jusho":"東京都品川区平塚1-8-18","kouzui":"03-3781-4936","gake":"","takashio":"×","jishin":"〇","tsunami":"整形外科内科","kaji":"","naisui":"","kazan":""}}
,{"type":"Feature","geometry":{"type":"Point","coordinates":[139.71809,35.60755]},"properties":{"Name":"和田整形外科","Jusho":"東京都品川区戸越6-8-20","kouzui":"03-5498-2555","gake":"https://www.i-jin.jp/tokyo/09_sinagawa/03_wada_seikei/index.html","takashio":"〇","jishin":"〇","tsunami":"整形外科","kaji":"昭和大学病院（品川区旗の台1-5-8）NTT東日本関東病院（品川区東五反田5-9-22）","naisui":"","kazan":""}}
,{"type":"Feature","geometry":{"type":"Point","coordinates":[139.66853,35.60761]},"properties":{"Name":"医療法人社団法山会山下診療所自由が丘","Jusho":"東京都目黒区自由が丘1-30-3自由が丘東急ビル7F","kouzui":"03-3724-3811","gake":"http://hozankai.com/","takashio":"〇","jishin":"〇","tsunami":"内科・循環器呼吸器・血液消化器・アレルギー","kaji":"","naisui":"","kazan":""}}
,{"type":"Feature","geometry":{"type":"Point","coordinates":[139.66725,35.60749]},"properties":{"Name":"医療法人社団めぐみ会自由が丘メディカルプラザ","Jusho":"東京都目黒区自由が丘2-11-16自由が丘日能研ビル2F","kouzui":"03-6421-1080","gake":"https://www.jiyugaokamp.com/","takashio":"×","jishin":"〇","tsunami":"内科耳鼻咽喉科","kaji":"","naisui":"","kazan":""}}
,{"type":"Feature","geometry":{"type":"Point","coordinates":[139.66725,35.60749]},"properties":{"Name":"医療法人社団めぐみ会自由が丘メディカルプラザ2","Jusho":"東京都目黒区自由が丘2-11-16ニューパルビュー3F","kouzui":"03-5731-3565","gake":"https://www.jiyugaokamp.com/s/","takashio":"×","jishin":"〇","tsunami":"小児科","kaji":"","naisui":"","kazan":""}}
,{"type":"Feature","geometry":{"type":"Point","coordinates":[139.685,35.65167]},"properties":{"Name":"おおはしさくらクリニック","Jusho":"東京都目黒区大橋2-23-1西渋谷ハイウエービル5Ｆ","kouzui":"03-6277-1017","gake":"","takashio":"×","jishin":"〇","tsunami":"内科、糖尿病科","kaji":"","naisui":"","kazan":""}}
,{"type":"Feature","geometry":{"type":"Point","coordinates":[139.70935,35.62687]},"properties":{"Name":"すけがわクリニック","Jusho":"東京都目黒区下目黒3-13-8","kouzui":"03-3760-8642","gake":"","takashio":"〇","jishin":"〇","tsunami":"内科小児科循環器科","kaji":"","naisui":"","kazan":""}}
,{"type":"Feature","geometry":{"type":"Point","coordinates":[139.69446,35.6099]},"properties":{"Name":"洗足駅前クリニック","Jusho":"東京都目黒区洗足2-25-19アソルティ洗足1階","kouzui":"03-3786-1009","gake":"https://senzoku-clinic.com","takashio":"〇","jishin":"〇","tsunami":"内科・消化器内科皮膚科","kaji":"","naisui":"","kazan":""}}
,{"type":"Feature","geometry":{"type":"Point","coordinates":[139.6772,35.61742]},"properties":{"Name":"都立大整形外科クリニック","Jusho":"東京都目黒区平町1-26-3スミール都立大202","kouzui":"03-6404-8550","gake":"https://ar-ex.jp/toritsudai","takashio":"×","jishin":"〇","tsunami":"整形外科","kaji":"","naisui":"","kazan":""}}
,{"type":"Feature","geometry":{"type":"Point","coordinates":[139.66576,35.62176]},"properties":{"Name":"ふるかわメディカルクリニック","Jusho":"東京都目黒区八雲5-15-5","kouzui":"03-6459-5539","gake":"http://www.furukawa-mc.com","takashio":"×","jishin":"〇","tsunami":"内科皮膚科","kaji":"","naisui":"","kazan":""}}
,{"type":"Feature","geometry":{"type":"Point","coordinates":[139.66862,35.60991]},"properties":{"Name":"ポポロ小児科自由が丘","Jusho":"東京都目黒区自由が丘1-24-14","kouzui":"03-5731-8806","gake":"http://popolo.tokyo/","takashio":"〇","jishin":"〇","tsunami":"小児科","kaji":"","naisui":"","kazan":""}}
,{"type":"Feature","geometry":{"type":"Point","coordinates":[139.69492,35.64076]},"properties":{"Name":"よう子みんなのクリニック","Jusho":"東京都目黒区上目黒2-42-11グレイス中目黒1階","kouzui":"03-6412-8188","gake":"https://yoko-minnano.clinic/","takashio":"〇","jishin":"〇","tsunami":"内科小児科","kaji":"","naisui":"","kazan":""}}
,{"type":"Feature","geometry":{"type":"Point","coordinates":[139.72208,35.56251]},"properties":{"Name":"あさもとクリニック","Jusho":"東京都大田区蒲田3-18-12-102","kouzui":"03-5480-9633","gake":"http://asamoto-clinic.com/","takashio":"×","jishin":"〇","tsunami":"脳神経外科一般内科アレルギー科","kaji":"","naisui":"","kazan":""}}
,{"type":"Feature","geometry":{"type":"Point","coordinates":[139.69708,35.56758]},"properties":{"Name":"池上さいとう内科クリニック","Jusho":"東京都大田区池上8-23-15","kouzui":"03-3757-3110","gake":"https://www.ikegami-saito.com","takashio":"×","jishin":"〇","tsunami":"内科脳神経内科","kaji":"昭和大学病院(東京都品川区旗の台1-5-8)東邦大学医療センター大森病院(東京都大田区大森西6-11-1)池上総合病院(東京都大田区池上6-1-19)松井病院(東京都大田区池上2-7-10)荏原病院(東京都大田区東雪谷四丁目5-10)","naisui":"","kazan":""}}
,{"type":"Feature","geometry":{"type":"Point","coordinates":[139.70251,35.57436]},"properties":{"Name":"いけがみ耳鼻咽喉科クリニック","Jusho":"東京都大田区池上3-30-17","kouzui":"03-5700-6733","gake":"https://ikegami-jibika.com/","takashio":"×","jishin":"〇","tsunami":"耳鼻咽喉科","kaji":"","naisui":"","kazan":""}}
,{"type":"Feature","geometry":{"type":"Point","coordinates":[139.73128,35.57288]},"properties":{"Name":"池田耳鼻咽喉科医院","Jusho":"東京都大田区大森西3-21-132階","kouzui":"03-3761-0792","gake":"","takashio":"×","jishin":"〇","tsunami":"耳鼻咽喉科小児科内科","kaji":"東邦大学医療センター大森病院（東京都大田区大森西6-11-1）","naisui":"","kazan":""}}
,{"type":"Feature","geometry":{"type":"Point","coordinates":[139.69283,35.56665]},"properties":{"Name":"いしがき耳鼻咽喉科クリニック","Jusho":"東京都大田区矢口1-19-5エスポワール矢口1F","kouzui":"03-3757-3387","gake":"https://ishigaki-ent.com/","takashio":"〇","jishin":"〇","tsunami":"耳鼻咽喉科","kaji":"","naisui":"","kazan":""}}
,{"type":"Feature","geometry":{"type":"Point","coordinates":[139.72864,35.58694]},"properties":{"Name":"医療法人財団安田病院","Jusho":"東京都大田区大森北1-11-18","kouzui":"03-3761-1023","gake":"https://www.yasuda-hsp.jp/","takashio":"×","jishin":"〇","tsunami":"整形外科整形外科整形外科整形外科外科外科内科内科内科内科内科内科内科内科内科内科内科内科内科心療内科乳腺外科乳腺外科皮膚科","kaji":"","naisui":"","kazan":""}}
,{"type":"Feature","geometry":{"type":"Point","coordinates":[139.70006,35.56295]},"properties":{"Name":"医療法人社団オーシーエフシー会大川こども＆内科クリニック","Jusho":"東京都大田区多摩川1-6-16","kouzui":"03-3758-0920","gake":"https://ocfc.jp","takashio":"×","jishin":"〇","tsunami":"小児科内科","kaji":"","naisui":"","kazan":""}}
,{"type":"Feature","geometry":{"type":"Point","coordinates":[139.7308,35.58529]},"properties":{"Name":"医療法人社団くどうちあき脳神経外科クリニック","Jusho":"東京都大田区大森北1-23-10","kouzui":"03-5767-0226","gake":"https://kudohchiaki.jp/","takashio":"〇","jishin":"〇","tsunami":"脳神経外科心療内科","kaji":"","naisui":"","kazan":""}}
,{"type":"Feature","geometry":{"type":"Point","coordinates":[139.70705,35.55438]},"properties":{"Name":"医療法人社団誠知会ひだまりクリニック","Jusho":"東京都大田区西六郷1-18-11","kouzui":"03-6715-9388","gake":"http://www.seichikai.or.jp","takashio":"〇","jishin":"〇","tsunami":"内科","kaji":"","naisui":"","kazan":""}}
,{"type":"Feature","geometry":{"type":"Point","coordinates":[139.71681,35.55173]},