var ehime={"type":"FeatureCollection","name":"ehime","features":[
{"type":"Feature","geometry":{"type":"Point","coordinates":[132.74155,33.867]},"properties":{"Name":"山下消化器外科クリニック","Jusho":"愛媛県松山市西長戸町311-1","kouzui":"089-911-2311","gake":"http://www13.plala.or.jp/YamashitaGESC/","takashio":"×","jishin":"〇","tsunami":"外科","kaji":"","naisui":"","kazan":""}}
,{"type":"Feature","geometry":{"type":"Point","coordinates":[132.76408,33.83511]},"properties":{"Name":"松山笠置記念心臓血管病院","Jusho":"愛媛県松山市末広町18-2","kouzui":"089-941-2288","gake":"https://www.kasagi-hosp.jp","takashio":"×","jishin":"〇","tsunami":"内科","kaji":"","naisui":"","kazan":""}}
,{"type":"Feature","geometry":{"type":"Point","coordinates":[132.75288,33.83073]},"properties":{"Name":"たかおか眼科内科クリニック","Jusho":"愛媛県松山市竹原2丁目1-50","kouzui":"089-921-7000","gake":"http://www.takaokaclinic.jp/","takashio":"×","jishin":"〇","tsunami":"内科","kaji":"","naisui":"","kazan":""}}
,{"type":"Feature","geometry":{"type":"Point","coordinates":[132.75613,33.84132]},"properties":{"Name":"戸梶内科医院","Jusho":"愛媛県松山市味酒町1丁目4-12","kouzui":"089-931-5781","gake":"http://www.tokaji-naika.jp/","takashio":"〇","jishin":"〇","tsunami":"内科・循環器内科・呼吸器内科・消化器内科","kaji":"","naisui":"","kazan":""}}
,{"type":"Feature","geometry":{"type":"Point","coordinates":[132.70442,33.81056]},"properties":{"Name":"ふくだ循環器科内科クリニック","Jusho":"愛媛県松山市西垣生町478-1","kouzui":"089-989-3433","gake":"https://www.fukuda.clinic","takashio":"〇","jishin":"〇","tsunami":"内科","kaji":"","naisui":"","kazan":""}}
,{"type":"Feature","geometry":{"type":"Point","coordinates":[132.7585,33.85209]},"properties":{"Name":"ノエルクリニック心臓血管外","Jusho":"愛媛県松山市本町6丁目3-3","kouzui":"089-925-8811","gake":"https://www.noel-clinic.or.jp","takashio":"×","jishin":"〇","tsunami":"心臓血管外科","kaji":"","naisui":"","kazan":""}}
,{"type":"Feature","geometry":{"type":"Point","coordinates":[132.79871,33.84101]},"properties":{"Name":"やいた内科内視鏡クリニック","Jusho":"愛媛県松山市東野2丁目2-17","kouzui":"089-977-7149","gake":"https://yaita-clinic.com","takashio":"×","jishin":"〇","tsunami":"内科","kaji":"松山赤十字病院（愛媛県松山市文京町1）","naisui":"","kazan":""}}
,{"type":"Feature","geometry":{"type":"Point","coordinates":[132.74007,33.87291]},"properties":{"Name":"花クリニック内科・リハビリ","Jusho":"愛媛県松山市安城寺町522-1","kouzui":"089-997-9630","gake":"http://www7b.biglobe.ne.jp/~hanaclinic/","takashio":"×","jishin":"〇","tsunami":"内科神経内科","kaji":"","naisui":"","kazan":""}}
,{"type":"Feature","geometry":{"type":"Point","coordinates":[132.8069,33.8089]},"properties":{"Name":"医療法人河村耳鼻咽喉科クリ","Jusho":"愛媛県松山市久米窪田町1170-1","kouzui":"089-975-7733","gake":"http://k-ent-clinic.com/","takashio":"〇","jishin":"〇","tsunami":"耳鼻咽喉科","kaji":"","naisui":"","kazan":""}}
,{"type":"Feature","geometry":{"type":"Point","coordinates":[132.74094,33.83248]},"properties":{"Name":"みねおい内科・循環器内科医","Jusho":"愛媛県松山市生石町472","kouzui":"089-932-1202","gake":"https://mineoi-naika.com/","takashio":"×","jishin":"〇","tsunami":"内科循環器内科","kaji":"愛媛県立中央病院（愛媛県松山市春日町83）","naisui":"","kazan":""}}
,{"type":"Feature","geometry":{"type":"Point","coordinates":[132.726263,33.863096]},"properties":{"Name":"山形耳鼻咽喉科","Jusho":"愛媛県松山市合津町11-23","kouzui":"089-952-6333","gake":"","takashio":"〇","jishin":"〇","tsunami":"耳鼻咽喉科","kaji":"鷹の子病院（愛媛県松山市鷹子町525-1）","naisui":"","kazan":""}}
,{"type":"Feature","geometry":{"type":"Point","coordinates":[132.77716,33.81505]},"properties":{"Name":"カメリア内科・糖尿病内科ク","Jusho":"愛媛県松山市東石井5丁目7-22","kouzui":"089-905-0055","gake":"","takashio":"〇","jishin":"〇","tsunami":"内科・糖尿病内科・リウマチ科・消化器内科","kaji":"","naisui":"","kazan":""}}
,{"type":"Feature","geometry":{"type":"Point","coordinates":[132.76836,33.94377]},"properties":{"Name":"中川循環器科内科","Jusho":"愛媛県松山市苞木甲8-1","kouzui":"089-994-1004","gake":"","takashio":"×","jishin":"〇","tsunami":"内科","kaji":"","naisui":"","kazan":""}}
,{"type":"Feature","geometry":{"type":"Point","coordinates":[132.79388,33.808003]},"properties":{"Name":"いずみ診療所","Jusho":"愛媛県今在家1丁目1-1","kouzui":"089-958-6618","gake":"","takashio":"×","jishin":"〇","tsunami":"外科","kaji":"","naisui":"","kazan":""}}
,{"type":"Feature","geometry":{"type":"Point","coordinates":[132.7766062,33.8180652]},"properties":{"Name":"星の岡心臓・血管クリニック","Jusho":"愛媛県東石井1丁目5-5","kouzui":"089-956-5511","gake":"","takashio":"×","jishin":"〇","tsunami":"内科","kaji":"","naisui":"","kazan":""}}
,{"type":"Feature","geometry":{"type":"Point","coordinates":[132.7737023,33.8447959]},"properties":{"Name":"心療内科こころのクリニック","Jusho":"愛媛県東雲町2-2","kouzui":"089-933-7700","gake":"","takashio":"×","jishin":"〇","tsunami":"心療内科精神科","kaji":"","naisui":"","kazan":""}}
,{"type":"Feature","geometry":{"type":"Point","coordinates":[132.73965,33.88968]},"properties":{"Name":"白形医院","Jusho":"愛媛県松山市和気町1丁目81","kouzui":"089-978-0145","gake":"","takashio":"〇","jishin":"〇","tsunami":"内科","kaji":"","naisui":"","kazan":""}}
,{"type":"Feature","geometry":{"type":"Point","coordinates":[132.76596,33.81791]},"properties":{"Name":"いかわ整形外科","Jusho":"愛媛県松山市和泉南1丁目5-8","kouzui":"089-957-3331","gake":"","takashio":"〇","jishin":"〇","tsunami":"整形外科","kaji":"","naisui":"","kazan":""}}
,{"type":"Feature","geometry":{"type":"Point","coordinates":[132.77344,33.84393]},"properties":{"Name":"NTT西日本松山病院","Jusho":"愛媛県松山市喜与町1丁目7-1","kouzui":"089-936-2461","gake":"","takashio":"×","jishin":"〇","tsunami":"内科・外科・整形外科・産婦人科・小児科","kaji":"","naisui":"","kazan":""}}
,{"type":"Feature","geometry":{"type":"Point","coordinates":[132.7983863,33.84502]},"properties":{"Name":"石手まつもと内科循環器クリ","Jusho":"愛媛県松山市新石手甲72番地1","kouzui":"089-977-3355","gake":"http://www.ishite-matsumoto-clinic2010.com/","takashio":"〇","jishin":"〇","tsunami":"内科循環器科","kaji":"済生会松山病院（愛媛県松山市山西町880-2）松山笠置記念心臓血管病院（愛媛県松山市末広町18-2）愛媛医療センター（愛媛県東温市横河原366）平成脳神経外科病院（愛媛県松山市北井門2丁目7-28）野本記念病院（愛媛県松山市三番町5-12-1）松山赤十字病院（愛媛県松山市文京町1）奥島病院（愛媛県松山市道後町2-2-1）渡辺病院（愛媛県松山市空港通7丁目13-3）松山城東病院（愛媛県松山市松末2-19-36）梶浦病院（愛媛県松山市三番町4-4-5）愛媛生協病院（愛媛県松山市来住町1091-1）松山市民病院（愛媛県松山市大手町2-6-5）浦屋病院（愛媛県松山市中一万町5-10）南松山病院（愛媛県松山市朝生田町1丁目3-10）","naisui":"","kazan":""}}
,{"type":"Feature","geometry":{"type":"Point","coordinates":[132.73987,33.83676]},"properties":{"Name":"よつば循環器科クリニック","Jusho":"愛媛県松山市南江戸4丁目3番53号","kouzui":"089-965-2211","gake":"http://yotsuba-heart.jp","takashio":"×","jishin":"〇","tsunami":"循環器科・心臓血管外科・麻酔科","kaji":"","naisui":"","kazan":""}}
,{"type":"Feature","geometry":{"type":"Point","coordinates":[132.8425,33.79808]},"properties":{"Name":"中川病院","Jusho":"愛媛県松山市南梅本町甲58番地","kouzui":"089-976-7811","gake":"https://www.nakagawa-hp.jp","takashio":"×","jishin":"〇","tsunami":"内科・外科・消化器内科・循環器内科","kaji":"","naisui":"","kazan":""}}
,{"type":"Feature","geometry":{"type":"Point","coordinates":[132.76616,33.81142]},"properties":{"Name":"徳丸小児科","Jusho":"愛媛県松山市古川北三丁目4番15号","kouzui":"089-969-1090","gake":"http://www.tokumaru-p.com/","takashio":"〇","jishin":"〇","tsunami":"小児科","kaji":"","naisui":"","kazan":""}}
,{"type":"Feature","geometry":{"type":"Point","coordinates":[132.77783,33.81709]},"properties":{"Name":"東石井クリニック","Jusho":"愛媛県松山市東石井二丁目22-1","kouzui":"089-905-3200","gake":"https://www.higashiishii-clnic.jp/","takashio":"〇","jishin":"〇","tsunami":"内科外科","kaji":"松山赤十字病院（愛媛県松山市文京町1）松山城東病院（愛媛県松山市松末2-19-36）愛媛県立中央病院（愛媛県松山市春日町83）愛媛大学付属病院（愛媛県東温市志津川454）","naisui":"","kazan":""}}
,{"type":"Feature","geometry":{"type":"Point","coordinates":[132.77855,33.83861]},"properties":{"Name":"長井医院整形外科・内科","Jusho":"愛媛県松山市築山町7番11号","kouzui":"089-947-1808","gake":"https://nagai-cl.jp","takashio":"×","jishin":"〇","tsunami":"整形外科内科","kaji":"","naisui":"","kazan":""}}
,{"type":"Feature","geometry":{"type":"Point","coordinates":[132.76158,33.84842]},"properties":{"Name":"岩﨑内科","Jusho":"愛媛県松山市高砂町1丁目3番地9","kouzui":"089-925-6005","gake":"","takashio":"〇","jishin":"〇","tsunami":"内科","kaji":"愛媛県立中央病院（愛媛県松山市春日町83）松山赤十字病院（愛媛県松山市文京町1）","naisui":"","kazan":""}}
,{"type":"Feature","geometry":{"type":"Point","coordinates":[132.75984,33.85339]},"properties":{"Name":"城北耳鼻咽喉科","Jusho":"愛媛県松山市木屋町3丁目11番地4","kouzui":"089-924-6670","gake":"http://johoku-ot.com/","takashio":"〇","jishin":"〇","tsunami":"耳鼻咽喉科","kaji":"松山赤十字病院（愛媛県松山市文京町1）","naisui":"","kazan":""}}
,{"type":"Feature","geometry":{"type":"Point","coordinates":[132.79628,33.79119]},"properties":{"Name":"もりまつ内科","Jusho":"愛媛県松山市森松町148番地1","kouzui":"089-976-2525","gake":"http://morimatsu-clinic.com/","takashio":"×","jishin":"〇","tsunami":"内科","kaji":"","naisui":"","kazan":""}}
,{"type":"Feature","geometry":{"type":"Point","coordinates":[132.7715,33.8416]},"properties":{"Name":"作道クリニック","Jusho":"愛媛県松山市一番町2丁目6-21伊予鉄一番町第二ビル2Ｆ","kouzui":"089-934-0567","gake":"http://www.sakudo-clinic.jp/","takashio":"×","jishin":"〇","tsunami":"内科眼科アレルギー科","kaji":"","naisui":"","kazan":""}}
,{"type":"Feature","geometry":{"type":"Point","coordinates":[132.71948,33.81371]},"properties":{"Name":"ながと脳神経外科心療内科","Jusho":"愛媛県松山市余戸西三丁目9-22","kouzui":"089-994-5700","gake":"https://nagato-cl.com/","takashio":"×","jishin":"〇","tsunami":"脳神経外科心療内科精神科","kaji":"渡辺病院（愛媛県松山市空港通7丁目13-3）","naisui":"","kazan":""}}
,{"type":"Feature","geometry":{"type":"Point","coordinates":[132.75032,33.85185]},"properties":{"Name":"河田外科脳神経外科医院","Jusho":"愛媛県松山市六軒家町3-19","kouzui":"089-924-1590","gake":"","takashio":"×","jishin":"〇","tsunami":"外科脳神経外科","kaji":"","naisui":"","kazan":""}}
,{"type":"Feature","geometry":{"type":"Point","coordinates":[132.73173,33.81367]},"properties":{"Name":"山口耳鼻咽喉科クリニック","Jusho":"愛媛県松山市余戸中1丁目2-1","kouzui":"089-973-8787","gake":"http://home.e-catv.ne.jp/jibika/","takashio":"〇","jishin":"〇","tsunami":"耳鼻咽喉科気管食道科アレルギー科","kaji":"松山赤十字病院（愛媛県松山市文京町1）愛媛県立中央病院（愛媛県松山市春日町83）","naisui":"","kazan":""}}
,{"type":"Feature","geometry":{"type":"Point","coordinates":[132.709,33.83381]},"properties":{"Name":"北吉田診療所","Jusho":"愛媛県松山市北吉田町1019-1","kouzui":"089-965-4180","gake":"http://kitayoshida-clinic.biz/","takashio":"〇","jishin":"〇","tsunami":"循環器科・内科・消化器科・小児科","kaji":"済生会松山病院（愛媛県松山市山西町880-2）松山笠置記念心臓血管病院（愛媛県松山市末広町18-2）愛媛医療センター（愛媛県東温市横河原366）平成脳神経外科病院（愛媛県松山市北井門2丁目7-28）野本記念病院（愛媛県松山市三番町5-12-1）松山赤十字病院（愛媛県松山市文京町1）奥島病院（愛媛県松山市道後町2-2-1）渡辺病院（愛媛県松山市空港通7丁目13-3）松山城東病院（愛媛県松山市松末2-19-36）梶浦病院（愛媛県松山市三番町4-4-5）愛媛生協病院（愛媛県松山市来住町1091-1）松山市民病院（愛媛県松山市大手町2-6-5）浦屋病院（愛媛県松山市中一万町5-10）南松山病院（愛媛県松山市朝生田町1丁目3-10）","naisui":"","kazan":""}}
,{"type":"Feature","geometry":{"type":"Point","coordinates":[132.78406,33.80408]},"properties":{"Name":"こみなと胃腸内科","Jusho":"愛媛県松山市北土居3丁目11-32","kouzui":"089-957-8887","gake":"","takashio":"×","jishin":"〇","tsunami":"内科","kaji":"松山赤十字病院（愛媛県松山市文京町1）愛媛県立中央病院（愛媛県松山市春日町83）","naisui":"","kazan":""}}
,{"type":"Feature","geometry":{"type":"Point","coordinates":[132.77205,33.83564]},"properties":{"Name":"平松循環器科内科","Jusho":"愛媛県松山市湊町2-1-12","kouzui":"089-943-2570","gake":"https://itp.ne.jp/info/381568046400000899/","takashio":"〇","jishin":"〇","tsunami":"内科","kaji":"松山赤十字病院（愛媛県松山市文京町1）愛媛県立中央病院（愛媛県松山市春日町83）","naisui":"","kazan":""}}
,{"type":"Feature","geometry":{"type":"Point","coordinates":[132.84021,33.81319]},"properties":{"Name":"にのみや消化器科内科小児科","Jusho":"愛媛県松山市平井町甲3236番地1","kouzui":"089-975-2238","gake":"http://www.ninomiyaclinic.jp/","takashio":"〇","jishin":"〇","tsunami":"内科小児科","kaji":"","naisui":"","kazan":""}}
,{"type":"Feature","geometry":{"type":"Point","coordinates":[132.74532,33.85503]},"properties":{"Name":"藤原胃腸科","Jusho":"愛媛県松山市中央2-1236-5","kouzui":"089-925-1313","gake":"https://vihara.or.jp","takashio":"〇","jishin":"〇","tsunami":"内科","kaji":"渡辺病院（愛媛県松山市空港通7丁目13-3）","naisui":"","kazan":""}}
,{"type":"Feature","geometry":{"type":"Point","coordinates":[132.75058,33.81583]},"properties":{"Name":"福原内科医院","Jusho":"愛媛県松山市保免上2丁目3番10号","kouzui":"089-941-8868","gake":"http://www.takumakai.jp/fukuhara/","takashio":"×","jishin":"〇","tsunami":"内科","kaji":"","naisui":"","kazan":""}}
,{"type":"Feature","geometry":{"type":"Point","coordinates":[132.74334,33.86889]},"properties":{"Name":"山岡整形外科","Jusho":"愛媛県松山市西長戸町275番地1","kouzui":"089-926-7700","gake":"http://www.yamaoka-seikei.com/","takashio":"×","jishin":"〇","tsunami":"整形外科","kaji":"","naisui":"","kazan":""}}
,{"type":"Feature","geometry":{"type":"Point","coordinates":[132.76973,33.8396]},"properties":{"Name":"うめおか神経クリニック","Jusho":"愛媛県松山市二番町三丁目8番地21久保豊二番町ビル2階","kouzui":"089-913-0133","gake":"http://umeoka-clinic.com/","takashio":"×","jishin":"〇","tsunami":"脳外科精神科","kaji":"","naisui":"","kazan":""}}
,{"type":"Feature","geometry":{"type":"Point","coordinates":[132.75415,33.8372]},"properties":{"Name":"あらたま内科・糖尿病内科","Jusho":"愛媛県松山市千舟町八丁目66番地5","kouzui":"089-909-3533","gake":"https://aratama-tounyoubyou-naika.com/","takashio":"×","jishin":"〇","tsunami":"内科糖尿病内科","kaji":"松山赤十字病院（愛媛県松山市文京町1）松山市民病院（愛媛県松山市大手町2-6-5）愛媛県立中央病院（愛媛県松山市春日町83）貞本病院（愛媛県松山市竹原町1-6-1）","naisui":"","kazan":""}}
,{"type":"Feature","geometry":{"type":"Point","coordinates":[132.78082,33.85551]},"properties":{"Name":"原循環器科内科クリニック","Jusho":"愛媛県松山市祝谷2丁目12番32号","kouzui":"089-917-7755","gake":"http://hara-clinic.com/","takashio":"×","jishin":"〇","tsunami":"内科","kaji":"","naisui":"","kazan":""}}
,{"type":"Feature","geometry":{"type":"Point","coordinates":[132.74712,33.82765]},"properties":{"Name":"心療内科絆","Jusho":"愛媛県松山市空港通1丁目7-10","kouzui":"089-972-1940","gake":"http://www.shinryounaika-kizuna.com","takashio":"〇","jishin":"〇","tsunami":"心療内科","kaji":"","naisui":"","kazan":""}}
,{"type":"Feature","geometry":{"type":"Point","coordinates":[132.77882,33.8411]},"properties":{"Name":"富永ペインクリニック","Jusho":"愛媛県松山市此花町7番33号","kouzui":"089-921-7711","gake":"http://www.tominaga-clinic.net/","takashio":"〇","jishin":"〇","tsunami":"麻酔科","kaji":"松山赤十字病院（愛媛県松山市文京町1）愛媛県立中央病院（愛媛県松山市春日町83）","naisui":"","kazan":""}}
,{"type":"Feature","geometry":{"type":"Point","coordinates":[132.7578,33.86564]},"properties":{"Name":"城北診療所","Jusho":"愛媛県松山市姫原3丁目7-17","kouzui":"089-926-3625","gake":"http://www.ehime-med.or.jp","takashio":"×","jishin":"〇","tsunami":"内科","kaji":"","naisui":"","kazan":""}}
,{"type":"Feature","geometry":{"type":"Point","coordinates":[132.75674,33.83935]},"properties":{"Name":"大手町クリニック","Jusho":"愛媛県松山市大手町一丁目4番地1","kouzui":"089-931-1374","gake":"https://www.ootemachi.info","takashio":"〇","jishin":"〇","tsunami":"内科消化器内科","kaji":"","naisui":"","kazan":""}}
,{"type":"Feature","geometry":{"type":"Point","coordinates":[132.82983,33.79942]},"properties":{"Name":"友愛医院","Jusho":"愛媛県松山市水泥町90-1","kouzui":"089-976-6262","gake":"","takashio":"〇","jishin":"〇","tsunami":"内科","kaji":"","naisui":"","kazan":""}}
,{"type":"Feature","geometry":{"type":"Point","coordinates":[132.72656,33.82181]},"properties":{"Name":"医療法人結和会松山西病院","Jusho":"愛媛県松山市富久町360番地1","kouzui":"089-972-3355","gake":"","takashio":"×","jishin":"〇","tsunami":"内科泌尿器科","kaji":"","naisui":"","kazan":""}}
,{"type":"Feature","geometry":{"type":"Point","coordinates":[132.77946,33.80161]},"properties":{"Name":"平成脳神経外科病院","Jusho":"愛媛県松山市北井門2丁目7番28号","kouzui":"089-905-0011","gake":"http://www.heisey.or.jp","takashio":"×","jishin":"〇","tsunami":"脳神経外科外科内科","kaji":"","naisui":"","kazan":""}}
,{"type":"Feature","geometry":{"type":"Point","coordinates":[132.7649,33.83752]},"properties":{"Name":"梶浦病院","Jusho":"愛媛県松山市三番町4—4—5","kouzui":"089-943-2208","gake":"http://www.kajiura-hp.jp/","takashio":"×","jishin":"〇","tsunami":"脳神経外科胸部外科","kaji":"","naisui":"","kazan":""}}
,{"type":"Feature","geometry":{"type":"Point","coordinates":[132.80324,33.84964]},"properties":{"Name":"医療法人友朋会栗林病院","Jusho":"愛媛県松山市溝辺町甲331番地","kouzui":"089-977-3311","gake":"http://yuhokai.net/kuribayashi_hsp/","takashio":"×","jishin":"〇","tsunami":"内科","kaji":"","naisui":"","kazan":""}}
,{"type":"Feature","geometry":{"type":"Point","coordinates":[132.7637,33.83858]},"properties":{"Name":"野本記念病院","Jusho":"愛媛県松山市三番町5-12-1","kouzui":"089-943-0151","gake":"https://www.nomotokinenbyouin.jp","takashio":"×","jishin":"〇","tsunami":"内科・循環器内科・外科・整形外科","kaji":"","naisui":"","kazan":""}}
,{"type":"Feature","geometry":{"type":"Point","coordinates":[132.75352,33.82134]},"properties":{"Name":"三宅内科胃腸科","Jusho":"愛媛県松山市土居田町58-3","kouzui":"089-932-6262","gake":"http://miyake-naika.la.coocan.jp/","takashio":"〇","jishin":"〇","tsunami":"内科","kaji":"愛媛県立中央病院（愛媛県松山市春日町83）","naisui":"","kazan":""}}
,{"type":"Feature","geometry":{"type":"Point","coordinates":[132.75853,33.85478]},"properties":{"Name":"愛媛県心と体の健康センター","Jusho":"愛媛県松山市本町7丁目2番地","kouzui":"089-911-3880","gake":"http://www.pref.ehime.jp/h25118/","takashio":"×","jishin":"〇","tsunami":"精神科","kaji":"","naisui":"","kazan":""}}
,{"type":"Feature","geometry":{"type":"Point","coordinates":[132.79492,33.8203]},"properties":{"Name":"大島眼科","Jusho":"愛媛県松山市福音寺町25-1","kouzui":"089-970-6100","gake":"https://oshimaganka.jp","takashio":"〇","jishin":"〇","tsunami":"眼科","kaji":"","naisui":"","kazan":""}}
,{"type":"Feature","geometry":{"type":"Point","coordinates":[132.75148,33.86182]},"properties":{"Name":"別所眼科","Jusho":"愛媛県松山市山越5-14-14","kouzui":"089-923-6789","gake":"http://besshoganka.com/hp/","takashio":"〇","jishin":"〇","tsunami":"眼科","kaji":"","naisui":"","kazan":""}}
,{"type":"Feature","geometry":{"type":"Point","coordinates":[132.80782,33.79939]},"properties":{"Name":"松山リハビリテーション病院","Jusho":"愛媛県松山市高井町1211","kouzui":"089-975-7431","gake":"","takashio":"〇","jishin":"〇","tsunami":"リハビリテーション科内科","kaji":"","naisui":"","kazan":""}}
,{"type":"Feature","geometry":{"type":"Point","coordinates":[132.78006,33.83012]},"properties":{"Name":"あさの胃腸内科クリニック","Jusho":"愛媛県松山市小坂三丁目3番26号","kouzui":"089-945-3351","gake":"http://asanohp.com","takashio":"〇","jishin":"〇","tsunami":"内科・胃腸内科・消化器内科","kaji":"","naisui":"","kazan":""}}
,{"type":"Feature","geometry":{"type":"Point","coordinates":[132.7585,33.85209]},"properties":{"Name":"佐藤実病院","Jusho":"愛媛県松山市本町6-3-1","kouzui":"089-925-5544","gake":"http://satouminoru.com","takashio":"〇","jishin":"〇","tsunami":"内科大腸肛門科","kaji":"","naisui":"","kazan":""}}
,{"type":"Feature","geometry":{"type":"Point","coordinates":[132.75273,33.86847]},"properties":{"Name":"矢野内科","Jusho":"愛媛県松山市東長戸1-10-18","kouzui":"089-922-5522","gake":"","takashio":"×","jishin":"〇","tsunami":"内科消化器科","kaji":"松山赤十字病院（愛媛県松山市文京町1）愛媛県立中央病院（愛媛県松山市春日町83）","naisui":"","kazan":""}}
,{"type":"Feature","geometry":{"type":"Point","coordinates":[132.75356,33.8716]},"properties":{"Name":"久保内科循環器クリニック","Jusho":"愛媛県松山市鴨川1-2-11","kouzui":"089-925-5345","gake":"https://www.kubo-naika.jp","takashio":"×","jishin":"〇","tsunami":"内科循環器科","kaji":"","naisui":"","kazan":""}}
,{"type":"Feature","geometry":{"type":"Point","coordinates":[132.98715,34.08552]},"properties":{"Name":"愛媛県立今治病院","Jusho":"愛媛県今治市石井町4丁目5番5号","kouzui":"0898-32-7111","gake":"http://www.eph.pref.ehime.jp/epimah/","takashio":"×","jishin":"〇","tsunami":"全科","kaji":"当院","naisui":"","kazan":""}}
,{"type":"Feature","geometry":{"type":"Point","coordinates":[132.9915,34.07404]},"properties":{"Name":"今治市医師会市民病院","Jusho":"愛媛県今治市別宮町7丁目1-40","kouzui":"0898-22-7611","gake":"http://www.imabarihsp.jp","takashio":"×","jishin":"〇","tsunami":"内科小児科","kaji":"","naisui":"","kazan":""}}
,{"type":"Feature","geometry":{"type":"Point","coordinates":[132.99559,34.06594]},"properties":{"Name":"Dクリニック","Jusho":"今治市南大門町2丁目1番地21","kouzui":"0898-22-5511","gake":"http://www.d-clinic-imabari.jp","takashio":"×","jishin":"〇","tsunami":"心療内科","kaji":"","naisui":"","kazan":""}}
,{"type":"Feature","geometry":{"type":"Point","coordinates":[132.99239,34.06717]},"properties":{"Name":"まつうらバンビクリニック","Jusho":"今治市北宝来町3-3-34","kouzui":"0898-22-0573","gake":"http://www.bambi-clinic.com","takashio":"×","jishin":"〇","tsunami":"小児科アレルギー科","kaji":"愛媛県立今治病院(今治市石井町4-5-5)","naisui":"","kazan":""}}
,{"type":"Feature","geometry":{"type":"Point","coordinates":[133.00517,34.06131]},"properties":{"Name":"丹こどもクリニック","Jusho":"今治市末広町3丁目4の12","kouzui":"0898-23-3200","gake":"http://www.tankodomo.jp/","takashio":"×","jishin":"〇","tsunami":"小児科","kaji":"","naisui":"","kazan":""}}
,{"type":"Feature","geometry":{"type":"Point","coordinates":[133.00262,34.06327]},"properties":{"Name":"今治セントラルクリニック","Jusho":"愛媛県今治市松本町2丁目6番地6","kouzui":"0898-22-5251","gake":"https://imabari-central-clinic.jp/","takashio":"〇","jishin":"〇","tsunami":"整形外科外科消化器外科内科","kaji":"※当院の患者様は当院で対応いたします。","naisui":"","kazan":""}}
,{"type":"Feature","geometry":{"type":"Point","coordinates":[132.98912,34.06712]},"properties":{"Name":"社会医療法人真泉会□今治第一病院","Jusho":"愛媛県今治市宮下町1丁目1番21号","kouzui":"（0898）23-200","gake":"http://www.imabari-daiichi.com/","takashio":"×","jishin":"〇","tsunami":"心臓血管外科・外科・乳腺甲状腺外科・消化器外科・整形外科・泌尿器科・循環器内科・耳鼻咽喉科","kaji":"","naisui":"","kazan":""}}
,{"type":"Feature","geometry":{"type":"Point","coordinates":[132.99013,34.06493]},"properties":{"Name":"放射線第一病院","Jusho":"愛媛県今治市北日吉町1-10-50","kouzui":"0898-23-3358","gake":"https：//www.juntenkai.jp/","takashio":"×","jishin":"△","tsunami":"内科","kaji":"","naisui":"","kazan":""}}
,{"type":"Feature","geometry":{"type":"Point","coordinates":[132.9917,34.05688]},"properties":{"Name":"医療法人圭泉会菅病院","Jusho":"愛媛県今治市南日吉町2丁目3-21","kouzui":"0898-32-5092","gake":"","takashio":"×","jishin":"〇","tsunami":"内科","kaji":"","naisui":"","kazan":""}}
,{"type":"Feature","geometry":{"type":"Point","coordinates":[132.97993,34.05764]},"properties":{"Name":"松本小児科","Jusho":"愛媛県今治市馬越町3-3-30","kouzui":"0898-32-5880","gake":"http://www.icknet.ne.jp/~motoped/","takashio":"×","jishin":"〇","tsunami":"小児科","kaji":"","naisui":"","kazan":""}}
,{"type":"Feature","geometry":{"type":"Point","coordinates":[132.98489,34.05204]},"properties":{"Name":"医療法人医療法人平成会□山内病院","Jusho":"愛媛県今治市片山3丁目1番40号","kouzui":"0898-32-3000","gake":"http://www.hp-yamauchi.or.jp","takashio":"×","jishin":"〇","tsunami":"内科","kaji":"","naisui":"","kazan":""}}
,{"type":"Feature","geometry":{"type":"Point","coordinates":[132.97606,34.04234]},"properties":{"Name":"片木脳神経外科","Jusho":"愛媛県今治市別名274番地","kouzui":"0898-22-1102","gake":"http://www.katagihosp.com","takashio":"×","jishin":"〇","tsunami":"脳神経外科","kaji":"","naisui":"","kazan":""}}
,{"type":"Feature","geometry":{"type":"Point","coordinates":[132.97028,34.02952]},"properties":{"Name":"梅の木中医学クリニック","Jusho":"愛媛県今治市小鴨部甲35-1","kouzui":"0898-55-2820","gake":"http://www.umenoki-c.sakura.ne.jp/","takashio":"〇","jishin":"〇","tsunami":"漢方内科,婦人科","kaji":"対応診療科の特殊性ゆえ連携見当たらず","naisui":"","kazan":""}}
,{"type":"Feature","geometry":{"type":"Point","coordinates":[133.0119,34.05271]},"properties":{"Name":"いまおか内科クリニック","Jusho":"今治市北高下町2-1-48","kouzui":"0898-22-0660","gake":"http://www.ima-cli2011.com/","takashio":"×","jishin":"〇","tsunami":"内科","kaji":"","naisui":"","kazan":""}}
,{"type":"Feature","geometry":{"type":"Point","coordinates":[132.99808,34.04931]},"properties":{"Name":"竹内外科胃腸科","Jusho":"愛媛県今治市立花町3-6-36","kouzui":"0898-22-0132","gake":"http//takeuchigeka.com","takashio":"〇","jishin":"〇","tsunami":"外科、内科","kaji":"特になし","naisui":"","kazan":""}}
,{"type":"Feature","geometry":{"type":"Point","coordinates":[132.9924,34.0482]},"properties":{"Name":"平林胃腸クリニック","Jusho":"今治市河南町2丁目6-20","kouzui":"0898-31-5100","gake":"","takashio":"〇","jishin":"〇","tsunami":"内科消化器科","kaji":"済生会今治病院（今治市喜田村7丁目1-6）","naisui":"","kazan":""}}
,{"type":"Feature","geometry":{"type":"Point","coordinates":[133.00177,34.04234]},"properties":{"Name":"ｉクリニック内科・呼吸器内科","Jusho":"愛媛県今治市郷新屋敷町3-1-39","kouzui":"0898-22-1929","gake":"https://iclinic-health.com","takashio":"×","jishin":"〇","tsunami":"内科，呼吸器内科，放射線科，アレルギー科","kaji":"ｉクリニック内科・呼吸器内科(愛媛県今治市郷新屋敷町3-1-39)","naisui":"","kazan":""}}
,{"type":"Feature","geometry":{"type":"Point","coordinates":[133.00101,34.04169]},"properties":{"Name":"くろみつクリニック","Jusho":"今治市郷新屋敷町3-4-11","kouzui":"0898-32-1101","gake":"","takashio":"×","jishin":"〇","tsunami":"泌尿器科","kaji":"放射線第一病院(今治市北日吉町1-10-50)","naisui":"","kazan":""}}
,{"type":"Feature","geometry":{"type":"Point","coordinates":[133.09193,34.20217]},"properties":{"Name":"有津むらかみクリニック","Jusho":"今治市伯方町有津甲2335番地","kouzui":"0897-72-3200","gake":"http://www.mura-clinic.byouinnavi.jp/","takashio":"〇","jishin":"〇","tsunami":"内科小児科","kaji":"今治第一病院(今治市宮下町1丁目1-21)瀬戸内海病院(今治市北宝来町2丁目4-9)","naisui":"","kazan":""}}
,{"type":"Feature","geometry":{"type":"Point","coordinates":[133.02368,34.04293]},"properties":{"Name":"医療法人陽成会広瀬病院","Jusho":"愛媛県今治市喜田村6丁目5-1","kouzui":"0898-47-0100","gake":"http://hirose-youseikai.org/","takashio":"〇","jishin":"〇","tsunami":"外科整形外科内科","kaji":"広瀬クリニック（愛媛県今治市拝志3-1）","naisui":"","kazan":""}}
,{"type":"Feature","geometry":{"type":"Point","coordinates":[133.0139,34.0255]},"properties":{"Name":"村上耳鼻咽喉科","Jusho":"今治市高市甲267-1","kouzui":"0898-48-1199","gake":"","takashio":"〇","jishin":"〇","tsunami":"耳鼻咽喉科","kaji":"愛媛県立今治病院(今治市石井町4-5-5)今治第一病院(今治市宮下町1丁目1-21)","naisui":"","kazan":""}}
,{"type":"Feature","geometry":{"type":"Point","coordinates":[133.00577,34.03122]},"properties":{"Name":"村上整形外科","Jusho":"今治市松木28番地7","kouzui":"0898-47-2515","gake":"","takashio":"×","jishin":"〇","tsunami":"整形外科","kaji":"","naisui":"","kazan":""}}
,{"type":"Feature","geometry":{"type":"Point","coordinates":[132.96761,34.1035]},"properties":{"Name":"消化器科久保病院","Jusho":"愛媛県今治市内堀一丁目1-19","kouzui":"0898-41-3233","gake":"http://kubo-hospital.jp/","takashio":"×","jishin":"〇","tsunami":"消化器科内科","kaji":"","naisui":"","kazan":""}}
,{"type":"Feature","geometry":{"type":"Point","coordinates":[132.96158,34.10345]},"properties":{"Name":"波止浜内科・外科","Jusho":"今治市地堀5丁目2番1号","kouzui":"0898-41-9168","gake":"","takashio":"〇","jishin":"〇","tsunami":"内科","kaji":"","naisui":"","kazan":""}}
,{"type":"Feature","geometry":{"type":"Point","coordinates":[132.93835,34.06696]},"properties":{"Name":"大西クリニック","Jusho":"今治市大西町紺原甲827-1","kouzui":"0898-53-2282","gake":"","takashio":"〇","jishin":"〇","tsunami":"内科外科","kaji":"今治第一病院(今治市宮下町1丁目1-21)","naisui":"","kazan":""}}
,{"type":"Feature","geometry":{"type":"Point","coordinates":[133.02002,33.99747]},"properties":{"Name":"朝倉内科循環器科クリニック","Jusho":"今治市朝倉下甲452-1","kouzui":"0898-56-2818","gake":"","takashio":"〇","jishin":"〇","tsunami":"内科","kaji":"愛媛県立今治病院(今治市石井町4-5-5)済生会今治病院（今治市喜田村7丁目1-6）","naisui":"","kazan":""}}
,{"type":"Feature","geometry":{"type":"Point","coordinates":[132.94993,34.09898]},"properties":{"Name":"波方中央病院","Jusho":"今治市波方町大字樋口甲1683-1","kouzui":"0898-41-5911","gake":"http://www.kouzinkai.jp/","takashio":"×","jishin":"〇","tsunami":"内科","kaji":"","naisui":"","kazan":""}}
,{"type":"Feature","geometry":{"type":"Point","coordinates":[132.53775,33.29615]},"properties":{"Name":"水谷医院","Jusho":"愛媛県宇和島市吉田町立間2-2619","kouzui":"0895-52-0144","gake":"","takashio":"〇","jishin":"〇","tsunami":"内科小児科","kaji":"","naisui":"","kazan":""}}
,{"type":"Feature","geometry":{"type":"Point","coordinates":[132.51973,33.1225]},"properties":{"Name":"口羽外科胃腸科医院","Jusho":"愛媛県宇和島市津島町高田丙547-1","kouzui":"0895-32-5000","gake":"https://byoinnavi.jp/clinic/111539","takashio":"〇","jishin":"〇","tsunami":"外科胃腸科","kaji":"","naisui":"","kazan":""}}
,{"type":"Feature","geometry":{"type":"Point","coordinates":[132.56689,33.21572]},"properties":{"Name":"鎌野病院","Jusho":"愛媛県宇和島市広小路2-49","kouzui":"0895-24-6611","gake":"http://kamano-hospital.com","takashio":"〇","jishin":"〇","tsunami":"整形外科リハビリ科リウマチ科","kaji":"市立宇和島病院愛媛県宇和島市御殿町1番1号","naisui":"","kazan":""}}
,{"type":"Feature","geometry":{"type":"Point","coordinates":[132.54001,33.28071]},"properties":{"Name":"溜尾整形外科","Jusho":"愛媛県宇和島市吉田町東小路甲98-1","kouzui":"0895-52-3133","gake":"","takashio":"×","jishin":"〇","tsunami":"整形外科","kaji":"独立行政法人地域医療機能推進機構宇和島病院愛媛県宇和島市賀古町2-1-37","naisui":"","kazan":""}}
,{"type":"Feature","geometry":{"type":"Point","coordinates":[132.54758,33.19322]},"properties":{"Name":"しませ医院","Jusho":"愛媛県宇和島市保田甲856-1","kouzui":"0895-27-1888","gake":"","takashio":"〇","jishin":"〇","tsunami":"内科胃腸科外科肛門科","kaji":"市立宇和島病院愛媛県宇和島市御殿町1番1号","naisui":"","kazan":""}}
,{"type":"Feature","geometry":{"type":"Point","coordinates":[132.56863,33.2169]},"properties":{"Name":"上田小児科・外科","Jusho":"愛媛県宇和島市広小路1-26","kouzui":"0895-25-0100","gake":"http://www.ueda-shounika.com","takashio":"〇","jishin":"〇","tsunami":"小児科","kaji":"市立宇和島病院愛媛県宇和島市御殿町1番1号","naisui":"","kazan":""}}
,{"type":"Feature","geometry":{"type":"Point","coordinates":[132.56386,33.22697]},"properties":{"Name":"清水内科・循環器内科","Jusho":"愛媛県宇和島市御幸町2-6-3","kouzui":"0895-22-1492","gake":"http://clinic-shimizu.com","takashio":"×","jishin":"〇","tsunami":"内科循環器内科","kaji":"市立宇和島病院愛媛県宇和島市御殿町1番1号","naisui":"","kazan":""}}
,{"type":"Feature","geometry":{"type":"Point","coordinates":[132.56812,33.21764]},"properties":{"Name":"公益財団法人正光会広小路診療所","Jusho":"愛媛県宇和島市堀端町1-13","kouzui":"0895-22-1614","gake":"http://www.shokokai-grp.or.jp/hospital/149.html","takashio":"〇","jishin":"〇","tsunami":"精神科心療内科","kaji":"正光会宇和島病院愛媛県宇和島市柿原1280番地","naisui":"","kazan":""}}
,{"type":"Feature","geometry":{"type":"Point","coordinates":[132.56526,33.21628]},"properties":{"Name":"市立宇和島病院","Jusho":"愛媛県宇和島市御殿町1番1号","kouzui":"0895-25-1111","gake":"https://www.uwajima-mh.jp/info/other/17333","takashio":"×","jishin":"〇","tsunami":"全科","kaji":"なし","naisui":"","kazan":""}}
,{"type":"Feature","geometry":{"type":"Point","coordinates":[132.5545,33.22871]},"properties":{"Name":"医療法人沖縄徳洲会宇和島徳洲会病院","Jusho":"愛媛県宇和島市住吉町2丁目6-24","kouzui":"0895-22-2811","gake":"https://www.uwatoku.org/","takashio":"×","jishin":"〇","tsunami":"内科泌尿器科","kaji":"","naisui":"","kazan":""}}
,{"type":"Feature","geometry":{"type":"Point","coordinates":[132.56386,33.22697]},"properties":{"Name":"古賀耳鼻咽喉科","Jusho":"愛媛県宇和島市御幸町2丁目6-3","kouzui":"0895-22-9911","gake":"","takashio":"〇","jishin":"〇","tsunami":"耳鼻いんこう科","kaji":"","naisui":"","kazan":""}}
,{"type":"Feature","geometry":{"type":"Point","coordinates":[133.30121,33.9275]},"properties":{"Name":"循環器科林病院","Jusho":"愛媛県新居浜市中西町6番46号","kouzui":"0897-43-8383","gake":"http://www.junrin.jp","takashio":"×","jishin":"〇","tsunami":"循環器内科内科外科心臓血管外科","kaji":"","naisui":"","kazan":""}}
,{"type":"Feature","geometry":{"type":"Point","coordinates":[133.28273,33.95915]},"properties":{"Name":"新谷ウィメンズクリニック","Jusho":"愛媛県新居浜市一宮町1-12-56","kouzui":"0897-37-2688","gake":"http://www.swcl.jp/","takashio":"〇","jishin":"〇","tsunami":"産婦人科","kaji":"愛媛労災病院（愛媛県新居浜市南小松原13-27）愛媛県立新居浜病院（愛媛県新居浜市本郷3-1-1）住友別子病院（愛媛県新居浜市王子3-1）","naisui":"","kazan":""}}
,{"type":"Feature","geometry":{"type":"Point","coordinates":[133.26237,33.95698]},"properties":{"Name":"新田診療所","Jusho":"愛媛県新居浜市新田町1-9-9","kouzui":"0897-34-0207","gake":"","takashio":"×","jishin":"〇","tsunami":"内科・皮膚科","kaji":"なし","naisui":"","kazan":""}}
,{"type":"Feature","geometry":{"type":"Point","coordinates":[133.28816,33.96259]},"properties":{"Name":"吉松外科胃腸科","Jusho":"愛媛県新居浜市田所町3-5","kouzui":"0897-32-5787","gake":"","takashio":"×","jishin":"〇","tsunami":"外科胃腸科","kaji":"なし","naisui":"","kazan":""}}
,{"type":"Feature","geometry":{"type":"Point","coordinates":[133.29942,33.97044]},"properties":{"Name":"高津診療所","Jusho":"愛媛県新居浜市高津町3番20号","kouzui":"0897-31-5550","gake":"","takashio":"〇","jishin":"〇","tsunami":"内科","kaji":"なし（状況に応じて、保健所へ相談を行う）","naisui":"","kazan":""}}
,{"type":"Feature","geometry":{"type":"Point","coordinates":[133.32156,33.97665]},"properties":{"Name":"知元医院","Jusho":"愛媛県新居浜市松神子4-1-10","kouzui":"0897-45-1525","gake":"","takashio":"〇","jishin":"〇","tsunami":"外科呼吸器内科","kaji":"","naisui":"","kazan":""}}
,{"type":"Feature","geometry":{"type":"Point","coordinates":[133.26643,33.92572]},"properties":{"Name":"中萩診療所","Jusho":"愛媛県新居浜市萩生1061番地","kouzui":"0897-40-2525","gake":"http://niihama-mcoop.or.jp/","takashio":"〇","jishin":"〇","tsunami":"内科","kaji":"なし（状況に応じて保健所への相談を勧める）","naisui":"","kazan":""}}
,{"type":"Feature","geometry":{"type":"Point","coordinates":[133.29581,33.94564]},"properties":{"Name":"愛媛医療生活協同組合□泉川診","Jusho":"愛媛県新居浜市瀬戸町1-2","kouzui":"0897-41-6110","gake":"http://www.ehime-med.or.jp","takashio":"×","jishin":"〇","tsunami":"内科","kaji":"無","naisui":"","kazan":""}}
,{"type":"Feature","geometry":{"type":"Point","coordinates":[133.18988,33.91493]},"properties":{"Name":"村上記念病院","Jusho":"愛媛県西条市大町739番地","kouzui":"0897-56-2300","gake":"http://www.murakami-kinen.or.jp","takashio":"×","jishin":"〇","tsunami":"各科","kaji":"","naisui":"","kazan":""}}
,{"type":"Feature","geometry":{"type":"Point","coordinates":[133.07858,33.93288]},"properties":{"Name":"西条市立周桑病院","Jusho":"愛媛県西条市壬生川131番地","kouzui":"0898-64-2630","gake":"http://www.shuso-hospital.jp/","takashio":"×","jishin":"〇","tsunami":"内科内科内科内科内科内科内科内科内科循環器内科外科外科泌尿器科脳神経外科整形外科眼科産婦人科産婦人科皮膚科皮膚科皮膚科","kaji":"","naisui":"","kazan":""}}
,{"type":"Feature","geometry":{"type":"Point","coordinates":[133.21471,33.90864]},"properties":{"Name":"西条道前病院","Jusho":"愛媛県西条市飯岡地蔵原3290番地1","kouzui":"0897-56-2247","gake":"http://douzen-hos.jp/","takashio":"〇","jishin":"〇","tsunami":"精神科","kaji":"","naisui":"","kazan":""}}
,{"type":"Feature","geometry":{"type":"Point","coordinates":[133.17523,33.92364]},"properties":{"Name":"もりざね耳鼻咽喉科","Jusho":"愛媛県西条市樋之口436-12","kouzui":"0897-47-3387","gake":"http://morizane.la.coocan.jp/","takashio":"×","jishin":"〇","tsunami":"耳鼻咽喉科","kaji":"もりざね耳鼻咽喉科（愛媛県西条市樋之口436-12）西条中央病院（愛媛県西条市朔日市604番地）済生会西条病院（愛媛県西条市朔日市269-1番地）","naisui":"","kazan":""}}
,{"type":"Feature","geometry":{"type":"Point","coordinates":[133.23505,33.92053]},"properties":{"Name":"伊藤医院","Jusho":"愛媛県西条市飯岡原之段1292","kouzui":"0897-53-2177","gake":"","takashio":"〇","jishin":"〇","tsunami":"内科循環器科","kaji":"済生会西条病院（愛媛県西条市朔日市269番地1）","naisui":"","kazan":""}}
,{"type":"Feature","geometry":{"type":"Point","coordinates":[133.20654,33.9268]},"properties":{"Name":"医療法人としもり内科","Jusho":"愛媛県西条市下島山甲1264-4","kouzui":"0897-53-6300","gake":"","takashio":"〇","jishin":"〇","tsunami":"内科","kaji":"西条中央病院（愛媛県西条市朔日市804）愛媛県立新居浜病院（愛媛県新居浜市本郷3-1-1）","naisui":"","kazan":""}}
,{"type":"Feature","geometry":{"type":"Point","coordinates":[133.18819,33.91855]},"properties":{"Name":"弁財天耳鼻咽喉科クリニック","Jusho":"愛媛県西条市大町613-3","kouzui":"0897-58-5959","gake":"https://www.benzaiten-clinic.jp","takashio":"〇","jishin":"〇","tsunami":"耳鼻咽喉科","kaji":"愛媛県立新居浜病院（愛媛県新居浜市本郷3丁目1-1）","naisui":"","kazan":""}}
,{"type":"Feature","geometry":{"type":"Point","coordinates":[133.08635,33.93138]},"properties":{"Name":"松田循環器科内科","Jusho":"愛媛県西条市三津屋南13番50","kouzui":"0898-76-1117","gake":"","takashio":"×","jishin":"〇","tsunami":"循環器科内科","kaji":"","naisui":"","kazan":""}}
,{"type":"Feature","geometry":{"type":"Point","coordinates":[133.14357,33.89448]},"properties":{"Name":"たちばな歯科医院","Jusho":"愛媛県西条市楢木251-2","kouzui":"0897-57-8899","gake":"","takashio":"〇","jishin":"〇","tsunami":"歯科・小児歯科・矯正歯科","kaji":"村上記念病院（愛媛県西条市大町739）","naisui":"","kazan":""}}
,{"type":"Feature","geometry":{"type":"Point","coordinates":[133.18584,33.91571]},"properties":{"Name":"かりやま整形外科","Jusho":"愛媛県西条市大町701-2","kouzui":"0897-47-1717","gake":"","takashio":"〇","jishin":"〇","tsunami":"整形外科","kaji":"かりやま整形外科（愛媛県西条市大町701-2）","naisui":"","kazan":""}}
,{"type":"Feature","geometry":{"type":"Point","coordinates":[132.54703,33.51543]},"properties":{"Name":"いんなみ眼科・神経内科","Jusho":"大洲市田口甲380番地1","kouzui":"0893-24-0700","gake":"","takashio":"×","jishin":"〇","tsunami":"精神科神経内科眼科","kaji":"","naisui":"","kazan":""}}
,{"type":"Feature","geometry":{"type":"Point","coordinates":[132.77034,33.78338]},"properties":{"Name":"伊予病院","Jusho":"愛媛県伊予市八倉906番地5","kouzui":"089-983-2222","gake":"http://www/iyohp.jp/","takashio":"×","jishin":"〇","tsunami":"リハ科小児科","kaji":"","naisui":"","kazan":""}}
,{"type":"Feature","geometry":{"type":"Point","coordinates":[132.71816,33.68229]},"properties":{"Name":"佐礼谷診療所","Jusho":"愛媛県伊予市中山町佐礼谷甲816番地1","kouzui":"089-968-0021","gake":"","takashio":"×","jishin":"〇","tsunami":"内科小児科放射線科","kaji":"愛媛県立中央病院（愛媛県松山市春日町83）松山市民病院（愛媛県松山市大手町2丁目6-5）","naisui":"","kazan":""}}
,{"type":"Feature","geometry":{"type":"Point","coordinates":[133.53244,33.97659]},"properties":{"Name":"栗整形外科病院","Jusho":"愛媛県四国中央市中之庄町398-1","kouzui":"0896-24-5550","gake":"https://kuri-seikei.com","takashio":"×","jishin":"〇","tsunami":"整形外科","kaji":"","naisui":"","kazan":""}}
,{"type":"Feature","geometry":{"type":"Point","coordinates":[133.58151,34.01097]},"properties":{"Name":"公立学校共済組合四国中央病院","Jusho":"愛媛県四国中央市川之江町2233番地","kouzui":"0896-58-3515","gake":"http://www.shikoku-ctr-hsp.jp/","takashio":"×","jishin":"〇","tsunami":"内科精神科小児科外科整形外科形成外科産婦人科","kaji":"ＨＩＴＯ病院（愛媛県四国中央市上分町788番地1）","naisui":"","kazan":""}}
,{"type":"Feature","geometry":{"type":"Point","coordinates":[133.52904,33.97305]},"properties":{"Name":"三島外科胃腸クリニック","Jusho":"愛媛県四国中央市中之庄町116番地","kouzui":"0896-24-3111","gake":"","takashio":"×","jishin":"〇","tsunami":"内科腎臓内科胃腸科循環器科泌尿器科皮膚科麻酔科外科ペインクリニック内科","kaji":"","naisui":"","kazan":""}}
,{"type":"Feature","geometry":{"type":"Point","coordinates":[133.57486,34.01512]},"properties":{"Name":"山口クリニック","Jusho":"愛媛県四国中央市川之江町1640-1","kouzui":"0896-57-1060","gake":"http://yamaguchi-clinic.net/","takashio":"〇","jishin":"〇","tsunami":"内科小児科","kaji":"（社医）石川記念会HITO病院（愛媛県四国中央市上分町788番地）公立学校共済組合四国中央病院（愛媛県四国中央市川之江町2233番地）","naisui":"","kazan":""}}
,{"type":"Feature","geometry":{"type":"Point","coordinates":[133.55051,33.97739]},"properties":{"Name":"ふじえだファミリークリニック","Jusho":"愛媛県四国中央市中曽根町5074","kouzui":"0896-23-5864","gake":"","takashio":"〇","jishin":"〇","tsunami":"小児科皮膚科","kaji":"（社医）石川記念会HITO病院（愛媛県四国中央市上分町788-1）公立学校共済組合四国中央病院（愛媛県四国中央市川之江町2233）","naisui":"","kazan":""}}
,{"type":"Feature","geometry":{"type":"Point","coordinates":[132.72438,33.79594]},"properties":{"Name":"医療法人武智ひ尿器科・内科","Jusho":"愛媛県伊予郡松前町恵久美711","kouzui":"089-960-3555","gake":"http://takechi-clinic.jp/","takashio":"〇","jishin":"〇","tsunami":"泌尿器科内科","kaji":"その日の当番救急病院","naisui":"","kazan":""}}
,{"type":"Feature","geometry":{"type":"Point","coordinates":[132.86963,33.7945]},"properties":{"Name":"愛媛県立子ども療育センター","Jusho":"愛媛県東温市田窪2135","kouzui":"089-955-5533","gake":"https://www.pref.ehime.jp/h20123/kodomo-ryoiku/index.html","takashio":"×","jishin":"〇","tsunami":"小児科","kaji":"","naisui":"","kazan":""}}
,{"type":"Feature","geometry":{"type":"Point","coordinates":[132.882,33.80311]},"properties":{"Name":"重信クリニック","Jusho":"愛媛県東温市志津川246-6","kouzui":"089-964-1188","gake":"http://www.shigenobu-c.com","takashio":"×","jishin":"〇","tsunami":"泌尿器科腎臓内科","kaji":"","naisui":"","kazan":""}}
,{"type":"Feature","geometry":{"type":"Point","coordinates":[132.89569,33.80189]},"properties":{"Name":"山本内科胃腸科","Jusho":"愛媛県東温市北方3205-3","kouzui":"089-966-2066","gake":"","takashio":"×","jishin":"〇","tsunami":"内科","kaji":"","naisui":"","kazan":""}}
,{"type":"Feature","geometry":{"type":"Point","coordinates":[132.90102,33.6555]},"properties":{"Name":"うつのみや内科","Jusho":"愛媛県上浮穴郡久万高原町久万206番地5","kouzui":"0892-21-3353","gake":"","takashio":"×","jishin":"〇","tsunami":"内科","kaji":"","naisui":"","kazan":""}}
,{"type":"Feature","geometry":{"type":"Point","coordinates":[132.88564,33.61194]},"properties":{"Name":"久万高原町国民健康保険父二峰診療所","Jusho":"愛媛県上浮穴郡久万高原町露峰甲415番地2","kouzui":"0892-21-1637","gake":"","takashio":"×","jishin":"〇","tsunami":"内科外科","kaji":"国民健康保険久万高原町立病院（愛媛県上浮穴郡久万高原町久万65番地）","naisui":"","kazan":""}}
,{"type":"Feature","geometry":{"type":"Point","coordinates":[132.97656,33.6148]},"properties":{"Name":"みかわクリニック","Jusho":"愛媛県上浮穴郡久万高原町上黒岩2920","kouzui":"0892-56-0908","gake":"","takashio":"〇","jishin":"〇","tsunami":"内科小児科アレルギー科","kaji":"国民健康保険久万高原町立病院（愛媛県上浮穴郡久万高原町久万65番地）","naisui":"","kazan":""}}
,{"type":"Feature","geometry":{"type":"Point","coordinates":[133.00488,33.55377]},"properties":{"Name":"吉村医院","Jusho":"愛媛県上浮穴郡久万高原町柳井川849-2","kouzui":"0892-54-2050","gake":"","takashio":"×","jishin":"〇","tsunami":"内科","kaji":"国民健康保険久万高原町立病院（愛媛県上浮穴郡久万高原町久万65番地）","naisui":"","kazan":""}}
,{"type":"Feature","geometry":{"type":"Point","coordinates":[132.70189,33.79244]},"properties":{"Name":"Dr.盛次診療所","Jusho":"愛媛県伊予郡松前町筒井1540","kouzui":"089-961-6262","gake":"http://kirari01.com","takashio":"×","jishin":"〇","tsunami":"内科精神科","kaji":"","naisui":"","kazan":""}}
,{"type":"Feature","geometry":{"type":"Point","coordinates":[132.7865,33.7814]},"properties":{"Name":"小泉小児科","Jusho":"愛媛県伊予郡砥部町拾町281-2","kouzui":"089-958-0648","gake":"http://itp.ne.jp/info/382277646400000899/","takashio":"×","jishin":"〇","tsunami":"小児科","kaji":"","naisui":"","kazan":""}}
,{"type":"Feature","geometry":{"type":"Point","coordinates":[132.79023,33.75675]},"properties":{"Name":"山本クリニック","Jusho":"愛媛県伊予郡砥部町宮内946","kouzui":"089-962-2036","gake":"","takashio":"〇","jishin":"〇","tsunami":"内科","kaji":"松山赤十字病院愛媛県立中央病院","naisui":"","kazan":""}}
,{"type":"Feature","geometry":{"type":"Point","coordinates":[132.64753,32.96377]},"properties":{"Name":"松本クリニック","Jusho":"愛媛県南宇和郡愛南町一本松3375-3","kouzui":"0895-84-2001","gake":"","takashio":"×","jishin":"〇","tsunami":"内科消化器内科","kaji":"愛媛県立南宇和病院愛媛県南宇和郡愛南町城辺甲2433-1","naisui":"","kazan":""}}
,{"type":"Feature","geometry":{"type":"Point","coordinates":[132.57082,32.96003]},"properties":{"Name":"粉川ファミリークリニック","Jusho":"愛媛県南宇和郡愛南町城辺甲86","kouzui":"0895-72-2111","gake":"","takashio":"×","jishin":"〇","tsunami":"内科","kaji":"愛媛県立南宇和病院愛媛県南宇和郡愛南町城辺甲2433-1市立宇和島病院愛媛県宇和島市御殿町1番1号高知県立幡多けんみん病院高知県宿毛市山奈町芳奈3-1","naisui":"","kazan":""}}
,{"type":"Feature","geometry":{"type":"Point","coordinates":[132.64828,32.96254]},"properties":{"Name":"愛南町国保一本松病院","Jusho":"愛媛県南宇和郡愛南町一本松5056番地2","kouzui":"0895-84-2255","gake":"","takashio":"×","jishin":"〇","tsunami":"内科外科","kaji":"","naisui":"","kazan":""}}
,{"type":"Feature","geometry":{"type":"Point","coordinates":[132.5582,32.95899]},"properties":{"Name":"うえはら歯科クリニック","Jusho":"愛媛県南宇和郡愛南町御荘平城4183-1","kouzui":"0895-72-5777","gake":"","takashio":"〇","jishin":"〇","tsunami":"歯科","kaji":"愛南町国保一本松病院愛媛県南宇和郡愛南町一本松5056-2","naisui":"","kazan":""}}
]};