var fukuoka={"type":"FeatureCollection","name":"fukuoka","features":[
{"type":"Feature","geometry":{"type":"Point","coordinates":[130.96123,33.94224]},"properties":{"Name":"一般社団法人日本海員掖済会門司掖済会病院","Jusho":"福岡県北九州市門司区清滝1-3-1","kouzui":"093-321-0984","gake":"http://www.ekisaikai-moji.jp","takashio":"×","jishin":"〇","tsunami":"全科","kaji":"","naisui":"","kazan":""}}
,{"type":"Feature","geometry":{"type":"Point","coordinates":[130.9622,33.94501]},"properties":{"Name":"三﨑クリニック","Jusho":"福岡県北九州市門司区西海岸1-6-6-101","kouzui":"093-321-2586","gake":"","takashio":"×","jishin":"〇","tsunami":"精神科心療内科","kaji":"","naisui":"","kazan":""}}
,{"type":"Feature","geometry":{"type":"Point","coordinates":[130.71411,33.89737]},"properties":{"Name":"こむら小児科","Jusho":"福岡県北九州市若松区塩屋4-1-20","kouzui":"092-742-1212","gake":"https://www.komura-shounika.jp/","takashio":"〇","jishin":"〇","tsunami":"小児科","kaji":"北九州市立八幡病院（福岡県北九州市八幡東区尾倉2-6-2）","naisui":"","kazan":""}}
,{"type":"Feature","geometry":{"type":"Point","coordinates":[130.69258,33.88894]},"properties":{"Name":"ながた内科クリニック","Jusho":"北九州市若松区高須東四丁目3番1号","kouzui":"742-7770","gake":"","takashio":"×","jishin":"〇","tsunami":"内科","kaji":"","naisui":"","kazan":""}}
,{"type":"Feature","geometry":{"type":"Point","coordinates":[130.83107,33.89504]},"properties":{"Name":"大原小児科医院","Jusho":"北九州市戸畑区千防一丁目11番20号","kouzui":"871-8522","gake":"","takashio":"〇","jishin":"〇","tsunami":"小児科","kaji":"","naisui":"","kazan":""}}
,{"type":"Feature","geometry":{"type":"Point","coordinates":[130.84175,33.87853]},"properties":{"Name":"医療法人医和基会金刀比","Jusho":"北九州市戸畑区金比羅町4番19号","kouzui":"873-8733","gake":"","takashio":"×","jishin":"〇","tsunami":"内科","kaji":"戸畑総合病院（北九州市戸畑区福柳木1丁目3-33）","naisui":"","kazan":""}}
,{"type":"Feature","geometry":{"type":"Point","coordinates":[130.83287,33.8946]},"properties":{"Name":"耳鼻咽喉科たかじょうクリニック","Jusho":"福岡県北九州市戸畑区天神1-12-6","kouzui":"093-871-6133","gake":"","takashio":"×","jishin":"〇","tsunami":"耳鼻咽喉科","kaji":"北九州市立医療センター（福岡県北九州市小倉北区）","naisui":"","kazan":""}}
,{"type":"Feature","geometry":{"type":"Point","coordinates":[130.83253,33.8959]},"properties":{"Name":"つくし循環器内科","Jusho":"北九州市戸畑区千防二丁目6番24号","kouzui":"861-1300","gake":"","takashio":"〇","jishin":"〇","tsunami":"内科循環器科呼吸器内科","kaji":"","naisui":"","kazan":""}}
,{"type":"Feature","geometry":{"type":"Point","coordinates":[130.85378,33.87174]},"properties":{"Name":"公立大学法人九州歯科大学附属病院","Jusho":"福岡県北九州市小倉北区真鶴2-6-1","kouzui":"093-582-1131","gake":"https://www.kyu-dent.ac.jp/hospital/","takashio":"×","jishin":"〇","tsunami":"内科外科歯科歯科口腔外科小児歯科矯正歯科","kaji":"","naisui":"","kazan":""}}
,{"type":"Feature","geometry":{"type":"Point","coordinates":[130.88322,33.87101]},"properties":{"Name":"三萩野病院","Jusho":"福岡県北九州市小倉北区三萩野1-12-18","kouzui":"093-931-7931","gake":"http://www.m-ho.or.jp/","takashio":"×","jishin":"〇","tsunami":"内科循環器科呼吸器科外科胃腸科整形外科","kaji":"","naisui":"","kazan":""}}
,{"type":"Feature","geometry":{"type":"Point","coordinates":[130.89949,33.87673]},"properties":{"Name":"医療法人あすなろ内科クリ","Jusho":"福岡県北九州市小倉北区下富野5-26-28","kouzui":"093-521-0035","gake":"http://asunaro-cl.com","takashio":"〇","jishin":"〇","tsunami":"内科","kaji":"","naisui":"","kazan":""}}
,{"type":"Feature","geometry":{"type":"Point","coordinates":[130.80832,33.86668]},"properties":{"Name":"医療法人かじわらクリニッ","Jusho":"北九州市八幡東区中央二丁目10番4号アタカビル3","kouzui":"663-3280","gake":"","takashio":"×","jishin":"〇","tsunami":"内科","kaji":"製鉄記念八幡病院（北九州市八幡東区春の町一丁目1番1号","naisui":"","kazan":""}}
,{"type":"Feature","geometry":{"type":"Point","coordinates":[130.8154,33.87119]},"properties":{"Name":"くみこキッズクリニック","Jusho":"北九州市八幡東区枝光本町1番2号","kouzui":"681-1122","gake":"","takashio":"×","jishin":"〇","tsunami":"小児科","kaji":"北九州市立八幡病院（福岡県北九州市八幡東区尾倉2-6","naisui":"","kazan":""}}
,{"type":"Feature","geometry":{"type":"Point","coordinates":[130.83365,33.8669]},"properties":{"Name":"ごしま耳鼻咽喉科医院","Jusho":"北九州市八幡東区高見二丁目8番3号","kouzui":"652-2464","gake":"","takashio":"〇","jishin":"〇","tsunami":"耳鼻咽喉科","kaji":"","naisui":"","kazan":""}}
,{"type":"Feature","geometry":{"type":"Point","coordinates":[130.80243,33.8658]},"properties":{"Name":"医療法人博悠会わたなべクリニック","Jusho":"福岡県北九州市八幡東区春の町3-1-6","kouzui":"093-661-0070","gake":"","takashio":"×","jishin":"〇","tsunami":"内科","kaji":"","naisui":"","kazan":""}}
,{"type":"Feature","geometry":{"type":"Point","coordinates":[130.72641,33.84601]},"properties":{"Name":"医療法人永犬丸むらかみ内科クリニック","Jusho":"福岡県北九州市八幡西区八枝3-12-3","kouzui":"093-692-0085","gake":"http://www.murakamiclinic.jp/","takashio":"×","jishin":"〇","tsunami":"内科","kaji":"","naisui":"","kazan":""}}
,{"type":"Feature","geometry":{"type":"Point","coordinates":[130.71072,33.865]},"properties":{"Name":"奥内科クリニック","Jusho":"福岡県北九州市八幡西区折尾4-8-10-103","kouzui":"093-482-5809","gake":"http://oku-naika.com","takashio":"×","jishin":"〇","tsunami":"内科","kaji":"","naisui":"","kazan":""}}
,{"type":"Feature","geometry":{"type":"Point","coordinates":[130.70119,33.88063]},"properties":{"Name":"医療法人後藤外科胃腸科","Jusho":"北九州市八幡西区浅川二丁目15番20号","kouzui":"692-5100","gake":"http://www.gotoh-geka.jp/","takashio":"×","jishin":"〇","tsunami":"内科","kaji":"","naisui":"","kazan":""}}
,{"type":"Feature","geometry":{"type":"Point","coordinates":[130.71364,33.86217]},"properties":{"Name":"医療法人白土医院","Jusho":"北九州市八幡西区東筑一丁目6番23号","kouzui":"691-0660","gake":"","takashio":"〇","jishin":"〇","tsunami":"内科、消化器内科、小児科","kaji":"産業医科大学病院（北九州市八幡西区医生ヶ丘1-1）北九州市立八幡病院（北九州市八幡東区尾倉2-6-2）済生会八幡総合病院（北九州市八幡東区春の町5-9-27）製鉄記念八幡病院（北九州市八幡東区春の町1-1-1）JCHO九州病院（北九州市八幡西区岸の浦1-8-1）福岡新水巻病院（遠賀郡屋敷1-2-1）","naisui":"","kazan":""}}
,{"type":"Feature","geometry":{"type":"Point","coordinates":[130.72737,33.84492]},"properties":{"Name":"医療法人つつみこどもクリニック","Jusho":"福岡県北九州市八幡西区八枝3-9-30","kouzui":"093-693-5200","gake":"http://www.tsutsumi-c,-c.com","takashio":"×","jishin":"〇","tsunami":"小児科アレルギー科","kaji":"JCHO九州病院（福岡県北九州市八幡西区）産業医科大学病院（福岡県九州市八幡西区）北九州市立八幡病院（福岡県九州市八幡東区）","naisui":"","kazan":""}}
,{"type":"Feature","geometry":{"type":"Point","coordinates":[130.72832,33.88113]},"properties":{"Name":"永田外科内科医院","Jusho":"北九州市八幡西区本城一丁目20番20号","kouzui":"602-1555","gake":"","takashio":"〇","jishin":"〇","tsunami":"内科循環器内科外科呼吸器外科心臓血管外科整形外科泌尿器科放射線科肛門科リハビリテーション科消化器外科","kaji":"","naisui":"","kazan":""}}
,{"type":"Feature","geometry":{"type":"Point","coordinates":[130.71696,33.87137]},"properties":{"Name":"中野胃腸クリニック","Jusho":"福岡県北九州市八幡西区大浦1-1-35","kouzui":"093-230-0230","gake":"http://www.nakano-ichou.com","takashio":"×","jishin":"〇","tsunami":"内科消化器内科","kaji":"産業医科大学（福岡県北九州市八幡西区医生ヶ丘1-1）福岡新水巻病院（福岡県遠賀郡水巻町立屋敷1-2-1）","naisui":"","kazan":""}}
,{"type":"Feature","geometry":{"type":"Point","coordinates":[130.71996,33.86849]},"properties":{"Name":"医療法人二宮内科循環器科クリニック","Jusho":"福岡県北九州市八幡西区光明2-4-13","kouzui":"093-693-2038","gake":"","takashio":"×","jishin":"〇","tsunami":"内科","kaji":"","naisui":"","kazan":""}}
,{"type":"Feature","geometry":{"type":"Point","coordinates":[130.75159,33.82927]},"properties":{"Name":"医療法人文翠会ふるた整","Jusho":"北九州市八幡西区中の原二丁目19番3号","kouzui":"613-8013","gake":"","takashio":"×","jishin":"〇","tsunami":"整形外科形成外科","kaji":"","naisui":"","kazan":""}}
,{"type":"Feature","geometry":{"type":"Point","coordinates":[130.72307,33.87112]},"properties":{"Name":"本城外科整形外科医院","Jusho":"福岡県北九州市八幡西区友田2-4-1","kouzui":"093-602-5840","gake":"","takashio":"×","jishin":"〇","tsunami":"ペインクリニック内科漢方内科麻酔科","kaji":"","naisui":"","kazan":""}}
,{"type":"Feature","geometry":{"type":"Point","coordinates":[130.71959,33.86992]},"properties":{"Name":"医療法人よしの胃腸内科","Jusho":"北九州市八幡西区楠木二丁目17番11号","kouzui":"601-5003","gake":"http://yoshino-icho.com","takashio":"〇","jishin":"〇","tsunami":"内科","kaji":"ＪＣＨＯ九州病院（北九州市八幡西区岸の浦一丁目8番1号","naisui":"","kazan":""}}
,{"type":"Feature","geometry":{"type":"Point","coordinates":[130.42006,33.61203]},"properties":{"Name":"八木病院","Jusho":"福岡県福岡市東区馬出2-21-25","kouzui":"092-651-0022","gake":"http://www.yagi.or.jp/","takashio":"×","jishin":"〇","tsunami":"整形外科外科脳神経外科内科循環器内科呼吸器内科神経内科皮膚科糖尿病内科消化器内科腎・高血圧・脳血管内科","kaji":"","naisui":"","kazan":""}}
,{"type":"Feature","geometry":{"type":"Point","coordinates":[130.4343,33.64845]},"properties":{"Name":"国家公務員共済組合連合会千早病院","Jusho":"福岡県福岡市東区千早2-30-1","kouzui":"092-661-2211","gake":"https://www.chihaya-hp.jp/","takashio":"×","jishin":"〇","tsunami":"内科循環器外科整形外科眼科","kaji":"","naisui":"","kazan":""}}
,{"type":"Feature","geometry":{"type":"Point","coordinates":[130.437,33.64854]},"properties":{"Name":"医療法人輝栄会福岡輝栄会病院","Jusho":"福岡県福岡市東区千早4-14-40","kouzui":"092-681-3115","gake":"http://kieikai.ne.jp","takashio":"×","jishin":"〇","tsunami":"総合診療科内科","kaji":"","naisui":"","kazan":""}}
,{"type":"Feature","geometry":{"type":"Point","coordinates":[130.41573,33.68903]},"properties":{"Name":"くすもとクリニック","Jusho":"福岡県福岡市東区奈多1-10-10","kouzui":"092-607-2345","gake":"","takashio":"〇","jishin":"〇","tsunami":"内科外科消化器科","kaji":"和白病院（福岡県福岡市東区和白丘2-2-75）千早病院（福岡県福岡市東区千早2-30-1）","naisui":"","kazan":""}}
,{"type":"Feature","geometry":{"type":"Point","coordinates":[130.44147,33.64693]},"properties":{"Name":"いわくに内科クリニック","Jusho":"東区水谷二丁目1番1号","kouzui":"683-1877","gake":"","takashio":"×","jishin":"〇","tsunami":"内科循環器科","kaji":"","naisui":"","kazan":""}}
,{"type":"Feature","geometry":{"type":"Point","coordinates":[130.42209,33.64605]},"properties":{"Name":"医療法人やまびこ会福岡東ほばしらクリニック","Jusho":"福岡県福岡市東区名島1-28-22","kouzui":"092-672-1201","gake":"http://hobashira.com","takashio":"〇","jishin":"〇","tsunami":"内科腎臓内科糖尿病内科人工透析内科","kaji":"貝塚病院（福岡県福岡市東区箱崎7-27）福岡和白病院（福岡県福岡市東区2-2-75）","naisui":"","kazan":""}}
,{"type":"Feature","geometry":{"type":"Point","coordinates":[130.44083,33.65841]},"properties":{"Name":"医療法人荒木小児科医院","Jusho":"福岡県福岡市東区香椎駅前2-11-33","kouzui":"092-681-1722","gake":"","takashio":"×","jishin":"〇","tsunami":"小児科アレルギー科","kaji":"福岡市立こども病院（福岡県福岡市東区）","naisui":"","kazan":""}}
,{"type":"Feature","geometry":{"type":"Point","coordinates":[130.42978,33.64175]},"properties":{"Name":"松井内科胃腸クリニック","Jusho":"東区名島二丁目2番22号","kouzui":"673-7800","gake":"","takashio":"〇","jishin":"〇","tsunami":"内科、消化器内科胃腸内科","kaji":"","naisui":"","kazan":""}}
,{"type":"Feature","geometry":{"type":"Point","coordinates":[130.42479,33.64748]},"properties":{"Name":"たろうクリニック","Jusho":"東区名島一丁目1番31号","kouzui":"410-3333","gake":"","takashio":"〇","jishin":"〇","tsunami":"精神科、内科、老年内科","kaji":"自院","naisui":"","kazan":""}}
,{"type":"Feature","geometry":{"type":"Point","coordinates":[130.40906,33.68574]},"properties":{"Name":"医療法人香露木会上田内科クリニック","Jusho":"福岡県福岡市東区雁の巣1-4-7","kouzui":"092-605-7312","gake":"","takashio":"〇","jishin":"〇","tsunami":"内科脳神経外科（再診のみ）","kaji":"福岡和白病院（福岡県福岡市東区和白丘2--2-75）福岡輝栄会病院（福岡県福岡市東区千早4-14-40）","naisui":"","kazan":""}}
,{"type":"Feature","geometry":{"type":"Point","coordinates":[130.4337,33.67113]},"properties":{"Name":"たつやまファミリークリニック","Jusho":"福岡県福岡市東区香住ヶ丘6-8-14","kouzui":"092-674-2066","gake":"http://tatsuyama-clinic.com","takashio":"×","jishin":"〇","tsunami":"内科","kaji":"","naisui":"","kazan":""}}
,{"type":"Feature","geometry":{"type":"Point","coordinates":[130.46504,33.63757]},"properties":{"Name":"江口皮ふ科","Jusho":"福岡県福岡市東区青葉7-5-3","kouzui":"092-710-9339","gake":"http://eguchi-hifuka.com","takashio":"×","jishin":"〇","tsunami":"皮膚科","kaji":"福岡東医療センター（福岡県古賀市千鳥1-1-1）久留米大学病院（福岡県久留米市旭町67）","naisui":"","kazan":""}}
,{"type":"Feature","geometry":{"type":"Point","coordinates":[130.49281,33.64613]},"properties":{"Name":"太陽の丘クリニック","Jusho":"福岡県福岡市東区蒲田5-7-30","kouzui":"092-663-2100","gake":"","takashio":"×","jishin":"〇","tsunami":"皮膚科内科","kaji":"","naisui":"","kazan":""}}
,{"type":"Feature","geometry":{"type":"Point","coordinates":[130.44319,33.64431]},"properties":{"Name":"医療法人三好医院","Jusho":"福岡県福岡市東区若宮5-3-45","kouzui":"092-682-1547","gake":"","takashio":"×","jishin":"〇","tsunami":"整形外科麻酔科リハビリテーション科内科","kaji":"千早病院（福岡県福岡市東区）輝栄会病院（福岡県福岡市東区）貝塚病院（福岡県福岡市東区）福岡市民病院（福岡県福岡市博多区）","naisui":"","kazan":""}}
,{"type":"Feature","geometry":{"type":"Point","coordinates":[130.42682,33.64351]},"properties":{"Name":"医療法人池田小児科内科クリニック","Jusho":"福岡県福岡市東区名島2-22-10","kouzui":"092-681-0017","gake":"","takashio":"×","jishin":"〇","tsunami":"小児科内科","kaji":"","naisui":"","kazan":""}}
,{"type":"Feature","geometry":{"type":"Point","coordinates":[130.42825,33.64098]},"properties":{"Name":"あだち耳鼻咽喉科","Jusho":"福岡県福岡市東区名島2-30-16","kouzui":"092-710-8733","gake":"https://adachi-ent.or.jp","takashio":"×","jishin":"〇","tsunami":"耳鼻咽喉科","kaji":"","naisui":"","kazan":""}}
,{"type":"Feature","geometry":{"type":"Point","coordinates":[130.42125,33.66051]},"properties":{"Name":"まえだクリニック","Jusho":"福岡県福岡市東区香椎照葉3-4-5-2Ｆ","kouzui":"092-410-5222","gake":"","takashio":"×","jishin":"〇","tsunami":"内科","kaji":"福岡和白病院（福岡県福岡市東区和白丘2-2-75）千早病院（福岡県福岡市東区千早2-30-1）福岡輝栄会病院（福岡県福岡市東区千早4-14-40）","naisui":"","kazan":""}}
,{"type":"Feature","geometry":{"type":"Point","coordinates":[130.4621,33.63468]},"properties":{"Name":"医療法人秋桜会福山眼科医院","Jusho":"福岡県福岡市東区土井1-8-37","kouzui":"092-691-7200","gake":"","takashio":"×","jishin":"〇","tsunami":"眼科","kaji":"","naisui":"","kazan":""}}
,{"type":"Feature","geometry":{"type":"Point","coordinates":[130.46361,33.63556]},"properties":{"Name":"宮岡皮膚科医院","Jusho":"福岡県福岡市東区土井1-21-1","kouzui":"092-691-2778","gake":"","takashio":"×","jishin":"〇","tsunami":"皮膚科","kaji":"","naisui":"","kazan":""}}
,{"type":"Feature","geometry":{"type":"Point","coordinates":[130.40826,33.68525]},"properties":{"Name":"西藤医院","Jusho":"福岡県福岡市東区雁の巣1-3-4","kouzui":"092-608-3110","gake":"","takashio":"〇","jishin":"〇","tsunami":"皮膚科泌尿器科漢方内科","kaji":"","naisui":"","kazan":""}}
,{"type":"Feature","geometry":{"type":"Point","coordinates":[130.44362,33.689]},"properties":{"Name":"永野外科胃腸科医院","Jusho":"福岡県福岡市東区高美台2-4-27","kouzui":"092-607-3261","gake":"","takashio":"×","jishin":"〇","tsunami":"外科胃腸科内科","kaji":"千早病院（福岡県福岡市東区千早2-30-1）福岡和白病院（福岡県福岡市東区和白丘2-2-75）","naisui":"","kazan":""}}
,{"type":"Feature","geometry":{"type":"Point","coordinates":[130.44182,33.65818]},"properties":{"Name":"医療法人ＳＳＣ工藤耳鼻咽喉科","Jusho":"東区香椎駅前二丁目12番54号オリジンビル103号","kouzui":"663-1550","gake":"","takashio":"〇","jishin":"〇","tsunami":"耳鼻咽喉科","kaji":"","naisui":"","kazan":""}}
,{"type":"Feature","geometry":{"type":"Point","coordinates":[130.41774,33.58416]},"properties":{"Name":"林眼科病院","Jusho":"福岡県福岡市博多区博多駅前4-23-35","kouzui":"092-431-1680","gake":"http://www.hayashi.or.jp","takashio":"×","jishin":"〇","tsunami":"眼科","kaji":"","naisui":"","kazan":""}}
,{"type":"Feature","geometry":{"type":"Point","coordinates":[130.42529,33.58889]},"properties":{"Name":"福岡合同庁舎診療所","Jusho":"博多区博多駅東2-11-1福岡合同庁舎内","kouzui":"092-411-2900","gake":"","takashio":"〇","jishin":"〇","tsunami":"内科","kaji":"浜の町病院（福岡県福岡市中央区長浜3-3-1）","naisui":"","kazan":""}}
,{"type":"Feature","geometry":{"type":"Point","coordinates":[130.46701,33.5425]},"properties":{"Name":"医療法人誠仁会籠田医院","Jusho":"福岡県福岡市博多区西春町1-2-16","kouzui":"092-501-7535","gake":"http://www.komorita.com","takashio":"×","jishin":"〇","tsunami":"内科","kaji":"","naisui":"","kazan":""}}
,{"type":"Feature","geometry":{"type":"Point","coordinates":[130.41624,33.60585]},"properties":{"Name":"藤原脳神経外科クリニック","Jusho":"博多区千代4丁目29-24三原第3ビル2Ｆ","kouzui":"633-3111","gake":"","takashio":"×","jishin":"〇","tsunami":"脳神経科","kaji":"福岡市民病院脳神経内科、","naisui":"","kazan":""}}
,{"type":"Feature","geometry":{"type":"Point","coordinates":[130.41046,33.59787]},"properties":{"Name":"医療法人牟田内科クリニック","Jusho":"福岡県福岡市博多区上呉服町10-1","kouzui":"092-281-7113","gake":"https://mutanaika.com/","takashio":"×","jishin":"〇","tsunami":"内科","kaji":"","naisui":"","kazan":""}}
,{"type":"Feature","geometry":{"type":"Point","coordinates":[130.42177,33.60327]},"properties":{"Name":"医療法人梅野小児科内科医院","Jusho":"博多区千代1丁目33-2","kouzui":"651-3558","gake":"","takashio":"×","jishin":"〇","tsunami":"小児科、内科、アレルギー科、循環器内科","kaji":"","naisui":"","kazan":""}}
,{"type":"Feature","geometry":{"type":"Point","coordinates":[130.40865,33.59931]},"properties":{"Name":"医療法人小路丸会勝冶耳鼻咽喉科医院","Jusho":"福岡県福岡市博多区中呉服町3-10","kouzui":"092-281-6027","gake":"","takashio":"〇","jishin":"〇","tsunami":"耳鼻咽喉科","kaji":"","naisui":"","kazan":""}}
,{"type":"Feature","geometry":{"type":"Point","coordinates":[130.40901,33.59782]},"properties":{"Name":"福冨内科クリニック","Jusho":"福岡県福岡市博多区綱場町1-16-2Ｆ","kouzui":"092-292-8494","gake":"http://www.fukutomi-clinic.jp","takashio":"×","jishin":"〇","tsunami":"内科","kaji":"","naisui":"","kazan":""}}
,{"type":"Feature","geometry":{"type":"Point","coordinates":[130.40703,33.59462]},"properties":{"Name":"安田整形・痛みのクリニック","Jusho":"福岡県福岡市博多区上川端町12-28","kouzui":"281-7007","gake":"","takashio":"×","jishin":"〇","tsunami":"整形外科","kaji":"","naisui":"","kazan":""}}
,{"type":"Feature","geometry":{"type":"Point","coordinates":[130.44412,33.59762]},"properties":{"Name":"医療法人丸岡内科クリニック","Jusho":"福岡県福岡市博多区大字下臼井778-1-2F","kouzui":"092-626-1850","gake":"https://www.maruokaclinic.jp/","takashio":"×","jishin":"〇","tsunami":"内科","kaji":"福岡市民病院（福岡県福岡市博多区吉塚本町13-1）済生会福岡総合病院（福岡県福岡市中央区天神1-3-46）原三信病院（福岡県福岡市博多区大博町1-8）","naisui":"","kazan":""}}
,{"type":"Feature","geometry":{"type":"Point","coordinates":[130.41823,33.59075]},"properties":{"Name":"はかたペインクリニック外科・麻酔科","Jusho":"福岡県福岡市博多区博多駅前2-1-1-6Ｆ","kouzui":"092-474-2409","gake":"http://hakata-pain.jp","takashio":"×","jishin":"〇","tsunami":"ペインクリニック","kaji":"","naisui":"","kazan":""}}
,{"type":"Feature","geometry":{"type":"Point","coordinates":[130.40968,33.59846]},"properties":{"Name":"医療法人中尾小児科医院","Jusho":"福岡県福岡市博多区中呉服町1-16","kouzui":"092-291-4325","gake":"http://nakao-kids.com","takashio":"×","jishin":"〇","tsunami":"小児科","kaji":"","naisui":"","kazan":""}}
,{"type":"Feature","geometry":{"type":"Point","coordinates":[130.43752,33.57386]},"properties":{"Name":"うちかど脳神経外科クリニック","Jusho":"福岡県福岡市博多区那珂1-2-3","kouzui":"092-477-2355","gake":"","takashio":"〇","jishin":"〇","tsunami":"脳神経外科","kaji":"済生会福岡総合病院（福岡県福岡市中央区天神1-3-46）福岡徳洲会病院（福岡県春日市須玖北4-5）福岡赤十字病院（福岡県福岡市南区大楠3-1-1）","naisui":"","kazan":""}}
,{"type":"Feature","geometry":{"type":"Point","coordinates":[130.41731,33.58941]},"properties":{"Name":"九州総合診療クリニック","Jusho":"博多区博多駅前3丁目25-21博多駅前ビジネスセンター1F","kouzui":"482-1600","gake":"","takashio":"×","jishin":"〇","tsunami":"内科","kaji":"原三信病院（福岡市博多区大博町1-8）","naisui":"","kazan":""}}
,{"type":"Feature","geometry":{"type":"Point","coordinates":[130.46719,33.54896]},"properties":{"Name":"かきの脳神経外科・内科クリニック","Jusho":"福岡県福岡市博多区麦野6-22-11","kouzui":"092-558-9800","gake":"http://kakino.net","takashio":"×","jishin":"〇","tsunami":"脳神経外科内科","kaji":"九州中央病院（福岡県福岡市南区）","naisui":"","kazan":""}}
,{"type":"Feature","geometry":{"type":"Point","coordinates":[130.41943,33.58903]},"properties":{"Name":"福岡大学博多駅クリニック","Jusho":"福岡市博多区博多駅中央町9-1ＫＩＴＴＥ博多8階","kouzui":"092-435-1011","gake":"https://www.fumc.fukuoka-u.ac.jp/","takashio":"×","jishin":"〇","tsunami":"内科循環器内科泌尿器科精神神経科小児科産婦人科皮膚科形成外科消化器内科肛門科","kaji":"","naisui":"","kazan":""}}
,{"type":"Feature","geometry":{"type":"Point","coordinates":[130.4287,33.59999]},"properties":{"Name":"こうけん医院","Jusho":"福岡県福岡市博多区吉塚3丁目7-19","kouzui":"092-621-0043","gake":"","takashio":"×","jishin":"〇","tsunami":"内科","kaji":"福岡市民病院（福岡市博多区吉塚）","naisui":"","kazan":""}}
,{"type":"Feature","geometry":{"type":"Point","coordinates":[130.42191,33.5926]},"properties":{"Name":"うえむらはるこ皮フ科","Jusho":"福岡県福岡市博多区博多駅東1-1-33-2F","kouzui":"092-441-7711","gake":"http://uh-h.net","takashio":"×","jishin":"〇","tsunami":"皮膚科","kaji":"","naisui":"","kazan":""}}
,{"type":"Feature","geometry":{"type":"Point","coordinates":[130.4229,33.58694]},"properties":{"Name":"博多南ビル内科クリニック","Jusho":"福岡県福岡市博多区博多駅南1-3-11-4","kouzui":"092-451-3030","gake":"https://medkyu.com","takashio":"〇","jishin":"〇","tsunami":"循環器内科糖尿病内科内分泌内科","kaji":"原三信病院（福岡県福岡市博多区）福岡赤十字病院（福岡県福岡市南区）済生会福岡総合病院（福岡県福岡市中央区）福岡青洲会病院（福岡県糟屋郡粕屋町）","naisui":"","kazan":""}}
,{"type":"Feature","geometry":{"type":"Point","coordinates":[130.42039,33.58991]},"properties":{"Name":"はかた心療クリニック","Jusho":"福岡県福岡市博多区博多駅中央街1-1-5F","kouzui":"092-401-0777","gake":"https://hakata-shinryo-cl.com","takashio":"×","jishin":"〇","tsunami":"心療内科精神科","kaji":"","naisui":"","kazan":""}}
,{"type":"Feature","geometry":{"type":"Point","coordinates":[130.39458,33.58318]},"properties":{"Name":"秋本病院","Jusho":"福岡県福岡市中央区警固1-8-3","kouzui":"092-771-6361","gake":"http://www.akimoto-hospital.jp","takashio":"×","jishin":"〇","tsunami":"外科内科","kaji":"","naisui":"","kazan":""}}
,{"type":"Feature","geometry":{"type":"Point","coordinates":[130.39377,33.58038]},"properties":{"Name":"福岡中央病院","Jusho":"福岡市中央区薬院2-6-11","kouzui":"092-741-0300","gake":"http://f-central.kouhoukai.or.jp","takashio":"×","jishin":"〇","tsunami":"当院の全ての診療科","kaji":"","naisui":"","kazan":""}}
,{"type":"Feature","geometry":{"type":"Point","coordinates":[130.37407,33.59345]},"properties":{"Name":"Rパークサイド皮ふ科","Jusho":"中央区荒戸3丁目4番20号パークサイドアイビー1階","kouzui":"717-9545","gake":"https://rparksideclinic.com","takashio":"×","jishin":"〇","tsunami":"皮膚科","kaji":"","naisui":"","kazan":""}}
,{"type":"Feature","geometry":{"type":"Point","coordinates":[130.38947,33.58976]},"properties":{"Name":"医療法人SSC赤坂サージクリニック","Jusho":"福岡県福岡市中央区赤坂1-14-35-2F","kouzui":"092-718-7511","gake":"","takashio":"〇","jishin":"〇","tsunami":"耳鼻咽喉科","kaji":"","naisui":"","kazan":""}}
,{"type":"Feature","geometry":{"type":"Point","coordinates":[130.38997,33.58846]},"properties":{"Name":"赤坂とも内科","Jusho":"福岡県福岡市中央区赤坂1-11-12-3Ｆ","kouzui":"092-791-5051","gake":"https://www.tomonaika.com","takashio":"〇","jishin":"〇","tsunami":"内科","kaji":"済生会福岡総合病院（福岡県福岡市中央区天神1-3-46）浜の町病院（福岡県福岡市中央区長浜3-3-1）","naisui":"","kazan":""}}
,{"type":"Feature","geometry":{"type":"Point","coordinates":[130.36887,33.58858]},"properties":{"Name":"医療法人阿部医院","Jusho":"福岡県福岡市中央区今川1-2-6","kouzui":"092-741-7295","gake":"","takashio":"〇","jishin":"〇","tsunami":"内科小児科","kaji":"吉村病院（福岡県福岡市早良区西新3-11-27）秋本病院（福岡県福岡市中央区警固1-8-3）","naisui":"","kazan":""}}
,{"type":"Feature","geometry":{"type":"Point","coordinates":[130.37868,33.59206]},"properties":{"Name":"有村内科クリニック","Jusho":"福岡県福岡市中央区荒戸1-5-28","kouzui":"092-721-6679","gake":"http://www.arimura-clinic.com","takashio":"〇","jishin":"〇","tsunami":"内科","kaji":"浜の町病院（福岡県福岡市中央区長浜3-3-1）","naisui":"","kazan":""}}
,{"type":"Feature","geometry":{"type":"Point","coordinates":[130.37688,33.57032]},"properties":{"Name":"アンジェ心療クリニック","Jusho":"福岡県福岡市中央区梅光園2-23-1-201","kouzui":"092-717-8281","gake":"","takashio":"×","jishin":"〇","tsunami":"精神科心療内科","kaji":"","naisui":"","kazan":""}}
,{"type":"Feature","geometry":{"type":"Point","coordinates":[130.40205,33.58118]},"properties":{"Name":"池田バスキュラーアクセス・透析・内科","Jusho":"福岡県福岡市中央区白金1-20-3-1F,2F","kouzui":"092-526-4810","gake":"http://www.fukuoka-vaccess.jp","takashio":"×","jishin":"〇","tsunami":"透析内科","kaji":"","naisui":"","kazan":""}}
,{"type":"Feature","geometry":{"type":"Point","coordinates":[130.37245,33.59805]},"properties":{"Name":"伊崎内科神経科クリニック","Jusho":"福岡県福岡市中央区伊崎9-6","kouzui":"092-781-6616","gake":"","takashio":"〇","jishin":"〇","tsunami":"内科","kaji":"福岡大学西新病院（福岡県福岡市早良区祖原15-7）済生会福岡総合病院（福岡県福岡市中央区天神1-3-46）","naisui":"","kazan":""}}
,{"type":"Feature","geometry":{"type":"Point","coordinates":[130.39507,33.59035]},"properties":{"Name":"医療法人いわさき一教クリニック","Jusho":"中央区大名2-7-11-201","kouzui":"092-781-3255","gake":"","takashio":"×","jishin":"〇","tsunami":"外科","kaji":"浜の町病院（福岡県福岡市中央区）","naisui":"","kazan":""}}
,{"type":"Feature","geometry":{"type":"Point","coordinates":[130.39647,33.59123]},"properties":{"Name":"岩﨑整形外科クリニック","Jusho":"福岡県福岡市中央区天神2-14-8-5Ｆ","kouzui":"092-716-5816","gake":"","takashio":"×","jishin":"〇","tsunami":"整形外科","kaji":"","naisui":"","kazan":""}}
,{"type":"Feature","geometry":{"type":"Point","coordinates":[130.4088,33.57549]},"properties":{"Name":"植木外科クリニック","Jusho":"福岡県福岡市中央区白金2-11-9","kouzui":"092-534-5200","gake":"","takashio":"×","jishin":"〇","tsunami":"外科胃腸科消化器科肛門科呼吸器科","kaji":"","naisui":"","kazan":""}}
,{"type":"Feature","geometry":{"type":"Point","coordinates":[130.3784,33.5789]},"properties":{"Name":"うえむら痛みのクリニック","Jusho":"福岡県福岡市中央区六本松2-3-6-3F","kouzui":"092-717-5222","gake":"http://no-itami.com","takashio":"×","jishin":"〇","tsunami":"麻酔科ペインクリニック外科疼痛緩和内科","kaji":"","naisui":"","kazan":""}}
,{"type":"Feature","geometry":{"type":"Point","coordinates":[130.39821,33.58697]},"properties":{"Name":"医療法人かねまるウィメンズクリニック","Jusho":"中央区天神2丁目3番2号","kouzui":"738-3033","gake":"","takashio":"×","jishin":"〇","tsunami":"婦人科","kaji":"現時点でなし","naisui":"","kazan":""}}
,{"type":"Feature","geometry":{"type":"Point","coordinates":[130.37636,33.59126]},"properties":{"Name":"医療法人萱島外科","Jusho":"福岡県福岡市中央区荒戸2-2-40","kouzui":"092-751-6886","gake":"","takashio":"×","jishin":"〇","tsunami":"外科","kaji":"","naisui":"","kazan":""}}
,{"type":"Feature","geometry":{"type":"Point","coordinates":[130.4045,33.57864]},"properties":{"Name":"川谷医院","Jusho":"中央区白金1丁目12番2号","kouzui":"523-9220","gake":"","takashio":"×","jishin":"〇","tsunami":"精神科","kaji":"","naisui":"","kazan":""}}
,{"type":"Feature","geometry":{"type":"Point","coordinates":[130.39944,33.59428]},"properties":{"Name":"医療法人クリスタルビルクリニック","Jusho":"福岡県福岡市中央区天神4-6-7","kouzui":"092-725-8822","gake":"http://www.crystalclinic.or.jp","takashio":"×","jishin":"〇","tsunami":"内科胃腸科","kaji":"済生会福岡総合病院（福岡県福岡市中央区天神1-3-46）福岡大学病院（福岡県福岡市城南区七隈7-45-1）浜の町病院（福岡県福岡市中央区長浜3-1-1）","naisui":"","kazan":""}}
,{"type":"Feature","geometry":{"type":"Point","coordinates":[130.39615,33.59507]},"properties":{"Name":"医療法人近藤リウマチ・整形外科クリニック","Jusho":"福岡県福岡市中央区天神3-10-11","kouzui":"092-762-2380","gake":"http:/www.kondo-rheumatism.jp/","takashio":"×","jishin":"〇","tsunami":"リウマチ科","kaji":"九州医療センター（福岡県福岡市中央区地行浜1-8-1）浜の町病院（福岡県福岡市中央区長浜3-3-1）","naisui":"","kazan":""}}
,{"type":"Feature","geometry":{"type":"Point","coordinates":[130.40195,33.58931]},"properties":{"Name":"医療法人ビジョナリーさぎやま泌尿器クリニック","Jusho":"福岡県福岡市中央区天神1-3-38-3F","kouzui":"092-720-3077","gake":"","takashio":"×","jishin":"〇","tsunami":"泌尿器科","kaji":"原三信病院（福岡県福岡市博多区大博町1-8）","naisui":"","kazan":""}}
,{"type":"Feature","geometry":{"type":"Point","coordinates":[130.38965,33.57761]},"properties":{"Name":"桜坂内科循環器科","Jusho":"中央区警固3丁目6番1号","kouzui":"736-1700","gake":"","takashio":"×","jishin":"〇","tsunami":"内科循環器科","kaji":"福岡県済生会福岡総合病院（福岡市中央区天神1丁目3-4","naisui":"","kazan":""}}
,{"type":"Feature","geometry":{"type":"Point","coordinates":[130.39999,33.58191]},"properties":{"Name":"スポーツ・栄養クリニック","Jusho":"中央区薬院1丁目5番6号","kouzui":"716-5550","gake":"https://www.clinicsm.com/","takashio":"〇","jishin":"〇","tsunami":"内科ペインクリニック内科整形外科ペインクリニック外科リウマチ科リハビリテーション科","kaji":"九州医療センター（福岡市中央区地行1-8-1）九州中央病院（福岡市南区塩原3-23-1）浜の町病院（福岡市中央区長浜3丁目3-1）福岡赤十字病院（福岡市南区大楠3丁目1-1）福岡県済生会福岡総合病院（福岡市中央区天神1丁目3-46）福岡徳洲会病院（春日市須玖北4-5）原三信病院（福岡市博多区大博町1-8）秋本病院（福岡市中央区警固1丁目8-3）","naisui":"","kazan":""}}
,{"type":"Feature","geometry":{"type":"Point","coordinates":[130.3969,33.59061]},"properties":{"Name":"先進会眼科福岡","Jusho":"中央区天神2丁目8番38号協和ビル10Ｆ","kouzui":"731-0170","gake":"http;//www.okaganka.com/","takashio":"〇","jishin":"〇","tsunami":"眼科","kaji":"","naisui":"","kazan":""}}
,{"type":"Feature","geometry":{"type":"Point","coordinates":[130.39821,33.58697]},"properties":{"Name":"天神竹井皮膚科美容皮膚科","Jusho":"中央区天神2丁目3番37号ＴＥＮＪＩＮ249ビル3階","kouzui":"738-2844","gake":"","takashio":"〇","jishin":"〇","tsunami":"皮膚科","kaji":"","naisui":"","kazan":""}}
,{"type":"Feature","geometry":{"type":"Point","coordinates":[130.39999,33.58191]},"properties":{"Name":"医療法人なかしまクリニック","Jusho":"中央区薬院1丁目5番6号","kouzui":"712-3535","gake":"","takashio":"×","jishin":"〇","tsunami":"精神科心療内科","kaji":"","naisui":"","kazan":""}}
,{"type":"Feature","geometry":{"type":"Point","coordinates":[130.40141,33.59134]},"properties":{"Name":"野崎ウイメンズクリニック","Jusho":"福岡県福岡市中央区天神1-9-17-601","kouzui":"092-733-0002","gake":"","takashio":"×","jishin":"〇","tsunami":"婦人科","kaji":"済生会福岡総合病院（福岡県福岡市中央区）","naisui":"","kazan":""}}
,{"type":"Feature","geometry":{"type":"Point","coordinates":[130.40384,33.5919]},"properties":{"Name":"林眼科天神クリニック","Jusho":"福岡県福岡市中央区西中洲6-20-2Ｆ","kouzui":"092-716-3030","gake":"","takashio":"×","jishin":"〇","tsunami":"眼科","kaji":"","naisui":"","kazan":""}}
,{"type":"Feature","geometry":{"type":"Point","coordinates":[130.40701,33.57752]},"properties":{"Name":"林産婦人科医院","Jusho":"福岡県福岡市中央区白金2-3-14","kouzui":"092-521-8520","gake":"http://hayasshi-lc.com","takashio":"×","jishin":"〇","tsunami":"産婦人科","kaji":"福岡日赤病院（福岡県福岡市南区）福岡済生会病院（福岡県福岡市中央区）","naisui":"","kazan":""}}
,{"type":"Feature","geometry":{"type":"Point","coordinates":[130.39821,33.58697]},"properties":{"Name":"林内科クリニック","Jusho":"福岡県福岡市中央区天神2-3-2-6Ｆ","kouzui":"092-737-7277","gake":"http://hayashinaika.jp","takashio":"×","jishin":"〇","tsunami":"内科","kaji":"秋本病院（福岡県福岡市中央区）佐田病院（福岡県福岡市中央区）済生会福岡病院（福岡県福岡市中央区）浜の町病院（福岡県福岡市中央区）","naisui":"","kazan":""}}
,{"type":"Feature","geometry":{"type":"Point","coordinates":[130.40584,33.57363]},"properties":{"Name":"平尾駅心療クリニック","Jusho":"福岡県福岡市中央区平尾2-5-8-3Ｆ","kouzui":"092-531-2828","gake":"http://hiraoki-cl.com/","takashio":"×","jishin":"〇","tsunami":"精神科","kaji":"","naisui":"","kazan":""}}
,{"type":"Feature","geometry":{"type":"Point","coordinates":[130.3924,33.59007]},"properties":{"Name":"ふくおか睡眠クリニック","Jusho":"福岡県福岡市中央区大名2-10-2-1301","kouzui":"092-400-2007","gake":"http://www.fukuoka-suimin.org/","takashio":"×","jishin":"〇","tsunami":"内科","kaji":"","naisui":"","kazan":""}}
,{"type":"Feature","geometry":{"type":"Point","coordinates":[130.39793,33.59262]},"properties":{"Name":"医療法人二田哲博クリニック天神","Jusho":"中央区天神3丁目1番1号天神フタタビル7階","kouzui":"738-1230","gake":"","takashio":"×","jishin":"〇","tsunami":"代謝内分泌内科","kaji":"","naisui":"","kazan":""}}
,{"type":"Feature","geometry":{"type":"Point","coordinates":[130.40468,33.57453]},"properties":{"Name":"医療法人別府外科医院","Jusho":"福岡県福岡市中央区平尾2-3-14","kouzui":"092-531-3502","gake":"","takashio":"×","jishin":"〇","tsunami":"外科整形外科皮膚科胃腸科","kaji":"済生会福岡総合病院（福岡県福岡市中央区天神1-3-46）福岡赤十字病院（福岡県福岡市南区大楠3-1-1）","naisui":"","kazan":""}}
,{"type":"Feature","geometry":{"type":"Point","coordinates":[130.39821,33.58697]},"properties":{"Name":"ますもとメンタルクリニック","Jusho":"中央区天神2丁目3番2号天神アイエスビル7Ｆ","kouzui":"716-8572","gake":"http://www.masumoto-mental.com?","takashio":"×","jishin":"〇","tsunami":"精神科心療内科","kaji":"九州医療センター（福岡市中央区地行浜1-8-1）","naisui":"","kazan":""}}
,{"type":"Feature","geometry":{"type":"Point","coordinates":[130.39931,33.57952]},"properties":{"Name":"医療法人松尾小児科医院","Jusho":"福岡県福岡市中央区薬院3-11-8","kouzui":"092-521-7277","gake":"http://matsuoshonika.com","takashio":"〇","jishin":"〇","tsunami":"小児科アレルギー科呼吸器内科内科","kaji":"福岡日赤病院（福岡県福岡市南区大楠3-1-1）福岡病院（福岡県福岡市南区屋形原4-39-1）福岡市立こども病院（福岡県福岡市東区香椎照葉5-1-1）","naisui":"","kazan":""}}
,{"type":"Feature","geometry":{"type":"Point","coordinates":[130.3945,33.58065]},"properties":{"Name":"医療法人愛生会三宅内科クリニック","Jusho":"中央区薬院2丁目5番15号","kouzui":"741-2705","gake":"","takashio":"×","jishin":"〇","tsunami":"内科","kaji":"福岡中央病院（福岡市中央区薬院）","naisui":"","kazan":""}}
,{"type":"Feature","geometry":{"type":"Point","coordinates":[130.39763,33.58742]},"properties":{"Name":"医療法人村山内科医院","Jusho":"中央区天神2丁目4番20号","kouzui":"741-6550","gake":"","takashio":"〇","jishin":"〇","tsunami":"内科、胃腸科","kaji":"なし","naisui":"","kazan":""}}
,{"type":"Feature","geometry":{"type":"Point","coordinates":[130.40134,33.58189]},"properties":{"Name":"薬院内科循環器クリニック","Jusho":"中央区渡辺通2丁目6番12号","kouzui":"738-0123","gake":"http://yakuin-cl.jp/","takashio":"〇","jishin":"〇","tsunami":"内科","kaji":"","naisui":"","kazan":""}}
,{"type":"Feature","geometry":{"type":"Point","coordinates":[130.40134,33.58189]},"properties":{"Name":"賴岡クリニック胃腸内科・内視鏡内科","Jusho":"福岡県福岡市中央区渡辺通2-6-12-4F","kouzui":"092-707-3185","gake":"https://yorioka-clinic.com","takashio":"〇","jishin":"〇","tsunami":"胃腸内科内視鏡内科","kaji":"佐田病院（福岡県福岡市中央区渡辺通2-4-28）","naisui":"","kazan":""}}
,{"type":"Feature","geometry":{"type":"Point","coordinates":[130.41753,33.56804]},"properties":{"Name":"（医）やの内科胃腸科クリニック","Jusho":"福岡県福岡市南区玉川町5-19-1F","kouzui":"512-7560","gake":"http://www.yano-clinic.com","takashio":"〇","jishin":"〇","tsunami":"内科","kaji":"福岡赤十字病院（福岡県福岡市南区）九州中央病院（福岡県福岡市南区）","naisui":"","kazan":""}}
,{"type":"Feature","geometry":{"type":"Point","coordinates":[130.44429,33.55355]},"properties":{"Name":"（医）真祥会吉永脳神経外科クリニック","Jusho":"福岡県福岡市南区井尻2-22-5","kouzui":"092-587-1515","gake":"","takashio":"×","jishin":"〇","tsunami":"脳神経外科","kaji":"九州中央病院（福岡県福岡市南区）福岡徳洲会病院（福岡県春日市）","naisui":"","kazan":""}}
,{"type":"Feature","geometry":{"type":"Point","coordinates":[130.42603,33.55899]},"properties":{"Name":"くすの木クリニック","Jusho":"南区大橋一丁目7番12号","kouzui":"562-7234","gake":"http://www12.plala.or.jp/comphortree/","takashio":"×","jishin":"〇","tsunami":"内科","kaji":"九州中央病院（福岡市南区塩原3-23-1）福岡県済生会福岡総合病院（福岡市中央区天神1丁目3-46）","naisui":"","kazan":""}}
,{"type":"Feature","geometry":{"type":"Point","coordinates":[130.43071,33.53292]},"properties":{"Name":"けやごう内科・胃腸内科クリニック","Jusho":"南区警弥郷一丁目17番13号","kouzui":"513-5811","gake":"http://keyagou-naika.com","takashio":"〇","jishin":"〇","tsunami":"内科胃腸内科","kaji":"九州中央病院（福岡市南区塩原3-23-1）福岡赤十字病院（福岡市南区大楠3丁目1-1）福岡徳洲会会病院（春日市須玖北4-5）等","naisui":"","kazan":""}}
,{"type":"Feature","geometry":{"type":"Point","coordinates":[130.42625,33.55052]},"properties":{"Name":"こうだ内科クリニック","Jusho":"福岡県福岡市南区三宅2-10-31","kouzui":"092-551-6412","gake":"","takashio":"〇","jishin":"〇","tsunami":"内科","kaji":"九州中央病院（福岡県福岡市南区塩原3-23-1）福岡赤十字病院（福岡県福岡市南区大楠3-1-1）","naisui":"","kazan":""}}
,{"type":"Feature","geometry":{"type":"Point","coordinates":[141.30963,38.4449]},"properties":{"Name":"とじたま甲状腺・糖尿病クリニック","Jusho":"大橋一丁目9番16号ＬｅｎｔｅＦＵＫＵＯＫＡ2Ｆ","kouzui":"554-1100","gake":"","takashio":"×","jishin":"〇","tsunami":"内分泌内科糖尿病内科内科","kaji":"福岡県済生会福岡総合病院（福岡市中央区天神1-3-46）福岡徳洲会病院（春日市須玖北4-5）公立学校共済組合九州中央病院（福岡市南区塩原3-23-1）","naisui":"","kazan":""}}
,{"type":"Feature","geometry":{"type":"Point","coordinates":[130.3968,33.54527]},"properties":{"Name":"医療法人やない小児科クリニック","Jusho":"福岡県福岡市南区長住7-4-21","kouzui":"092-551-6333","gake":"","takashio":"×","jishin":"〇","tsunami":"小児科","kaji":"","naisui":"","kazan":""}}
,{"type":"Feature","geometry":{"type":"Point","coordinates":[130.40892,33.55594]},"properties":{"Name":"医療法人中村博整形外科医院","Jusho":"福岡県福岡市南区野間4-18-26","kouzui":"092-554-1700","gake":"http://fukuoka.nakamurahiroshiseikei.com/","takashio":"×","jishin":"〇","tsunami":"整形外科","kaji":"","naisui":"","kazan":""}}
,{"type":"Feature","geometry":{"type":"Point","coordinates":[130.42633,33.55813]},"properties":{"Name":"医療法人植田クリニック","Jusho":"福岡県福岡市南区大橋1-14-5","kouzui":"092-552-0625","gake":"","takashio":"×","jishin":"〇","tsunami":"内科","kaji":"福岡赤十字病院（福岡県福岡市南区）九州中央病院（福岡県福岡市南区）","naisui":"","kazan":""}}
,{"type":"Feature","geometry":{"type":"Point","coordinates":[130.42953,33.53547]},"properties":{"Name":"古賀医院","Jusho":"福岡県福岡市南区警弥郷1-4-15","kouzui":"092-585-7711","gake":"","takashio":"×","jishin":"〇","tsunami":"内科外科整形外科消化器科","kaji":"","naisui":"","kazan":""}}
,{"type":"Feature","geometry":{"type":"Point","coordinates":[130.40292,33.55861]},"properties":{"Name":"寺塚クリニック","Jusho":"福岡県福岡市南区寺塚2-20-1","kouzui":"092-554-7005","gake":"","takashio":"×","jishin":"〇","tsunami":"内科精神内科","kaji":"","naisui":"","kazan":""}}
,{"type":"Feature","geometry":{"type":"Point","coordinates":[130.41086,33.54982]},"properties":{"Name":"内科循環器科田代医院","Jusho":"福岡県福岡市南区若久5-1-5","kouzui":"092-541-3208","gake":"","takashio":"×","jishin":"〇","tsunami":"内科","kaji":"","naisui":"","kazan":""}}
,{"type":"Feature","geometry":{"type":"Point","coordinates":[130.42601,33.53094]},"properties":{"Name":"望月眼科","Jusho":"南区老司四丁目1番45号","kouzui":"564-1001","gake":"","takashio":"〇","jishin":"〇","tsunami":"眼科","kaji":"自院にて","naisui":"","kazan":""}}
,{"type":"Feature","geometry":{"type":"Point","coordinates":[130.42244,33.55191]},"properties":{"Name":"林クリニック","Jusho":"福岡県福岡市南区南大橋2-8-1","kouzui":"092-551-8849","gake":"","takashio":"×","jishin":"〇","tsunami":"内科消化器内科外科","kaji":"九州中央病院（福岡県福岡市南区塩原）九州がんセンター（福岡県福岡市南区野多目）","naisui":"","kazan":""}}
,{"type":"Feature","geometry":{"type":"Point","coordinates":[130.30547,33.57764]},"properties":{"Name":"医療法人輝松会松尾内科病院","Jusho":"福岡県福岡市西区下山門団地40-5","kouzui":"092-891-5071","gake":"https://matsuohosp.kisyoukai.jp/","takashio":"×","jishin":"〇","tsunami":"内科","kaji":"","naisui":"","kazan":""}}
,{"type":"Feature","geometry":{"type":"Point","coordinates":[130.33282,33.59116]},"properties":{"Name":"愛宕浜ファミリークリニック","Jusho":"西区愛宕浜一丁目3番2号","kouzui":"882-6900","gake":"","takashio":"×","jishin":"〇","tsunami":"内科消化器科アレルギー科","kaji":"九州医療センター（福岡市中央区地行浜1-8-1）白十字病院（福岡市西区石丸3-2-1）吉村病院（福岡市早良区西新3丁目11-27）","naisui":"","kazan":""}}
,{"type":"Feature","geometry":{"type":"Point","coordinates":[130.26154,33.57873]},"properties":{"Name":"医療法人ＳＳＣ西都クリニック","Jusho":"福岡県福岡市西区西都1-4-4","kouzui":"092-805-5115","gake":"","takashio":"〇","jishin":"〇","tsunami":"耳鼻咽喉科","kaji":"","naisui":"","kazan":""}}
,{"type":"Feature","geometry":{"type":"Point","coordinates":[130.32339,33.57601]},"properties":{"Name":"医療法人社団天佑会きむらしろうクリニック","Jusho":"福岡県福岡市西区福重5-19-8","kouzui":"092-892-4600","gake":"","takashio":"〇","jishin":"〇","tsunami":"内科","kaji":"","naisui":"","kazan":""}}
,{"type":"Feature","geometry":{"type":"Point","coordinates":[130.32384,33.58084]},"properties":{"Name":"医療法人いわや小児科クリニック","Jusho":"西区姪浜駅南二丁目1番37号メディカルビル竹下","kouzui":"892-1585","gake":"","takashio":"×","jishin":"〇","tsunami":"小児科","kaji":"","naisui":"","kazan":""}}
,{"type":"Feature","geometry":{"type":"Point","coordinates":[130.30742,33.57335]},"properties":{"Name":"上山門整形外科クリニック","Jusho":"西区上山門一丁目14番1号上山門メディカルビル2階","kouzui":"892-3111","gake":"","takashio":"×","jishin":"〇","tsunami":"整形外科","kaji":"","naisui":"","kazan":""}}
,{"type":"Feature","geometry":{"type":"Point","coordinates":[130.24364,33.57221]},"properties":{"Name":"こどもの国心の発達クリニック","Jusho":"西区周船寺一丁目5番25号サンリットビル4階","kouzui":"805-5020","gake":"","takashio":"〇","jishin":"〇","tsunami":"児童精神科、心療内科","kaji":"福岡市立こども病院（福岡市東区香椎照葉5-1-1）","naisui":"","kazan":""}}
,{"type":"Feature","geometry":{"type":"Point","coordinates":[130.3259,33.58328]},"properties":{"Name":"医療法人二田哲博クリニック姪浜","Jusho":"福岡県福岡市西区姪浜駅南1-2-17","kouzui":"092-883-1188","gake":"http://www.futata-cl.jp","takashio":"×","jishin":"〇","tsunami":"代謝内分泌内科","kaji":"","naisui":"","kazan":""}}
,{"type":"Feature","geometry":{"type":"Point","coordinates":[130.30977,33.57725]},"properties":{"Name":"吉永産婦人科医院","Jusho":"西区下山門四丁目14番26号","kouzui":"881-9481","gake":"","takashio":"〇","jishin":"〇","tsunami":"産婦人科","kaji":"九州医療センター（福岡市中央区地行浜1-8-1）済生会福岡総合病院（福岡市中央区天神1-3-46）福岡山王病院（福岡市早良区百道浜3-6-45）","naisui":"","kazan":""}}
,{"type":"Feature","geometry":{"type":"Point","coordinates":[130.38297,33.54831]},"properties":{"Name":"医療法人江下内科クリニック","Jusho":"福岡県福岡市城南区樋井川1-6-26","kouzui":"092-871-2225","gake":"http://www.eshita-clinic.jp/","takashio":"〇","jishin":"〇","tsunami":"内科","kaji":"","naisui":"","kazan":""}}
,{"type":"Feature","geometry":{"type":"Point","coordinates":[130.36824,33.57611]},"properties":{"Name":"おざき眼科","Jusho":"城南区鳥飼六丁目7番1号","kouzui":"833-8171","gake":"https://www.kouikai.jp/ozaki/","takashio":"×","jishin":"〇","tsunami":"眼科","kaji":"","naisui":"","kazan":""}}
,{"type":"Feature","geometry":{"type":"Point","coordinates":[130.38416,33.55809]},"properties":{"Name":"せき小児科・アレルギー科クリニック","Jusho":"城南区長尾二丁目7番20号","kouzui":"534-5111","gake":"https://www.seki-kodomo-clinic.com/","takashio":"〇","jishin":"〇","tsunami":"","kaji":"","naisui":"","kazan":""}}
,{"type":"Feature","geometry":{"type":"Point","coordinates":[130.35968,33.54446]},"properties":{"Name":"タケダスポーツ・ビューティ—クリニック","Jusho":"城南区梅林二丁目27番14号","kouzui":"874-7505","gake":"https://tsc-s.com/","takashio":"×","jishin":"〇","tsunami":"整形外科皮膚科","kaji":"","naisui":"","kazan":""}}
,{"type":"Feature","geometry":{"type":"Point","coordinates":[130.38148,33.54032]},"properties":{"Name":"医療法人つのだ泌尿器科医院","Jusho":"城南区東油山1丁目3番30号","kouzui":"863-9717","gake":"","takashio":"×","jishin":"〇","tsunami":"泌尿器科","kaji":"つのだ泌尿器科医院（福岡市城南区東油山1-3-30）","naisui":"","kazan":""}}
,{"type":"Feature","geometry":{"type":"Point","coordinates":[130.36041,33.55936]},"properties":{"Name":"まつもと胃腸内科","Jusho":"福岡県福岡市城南区7-3-4-23","kouzui":"092-864-1122","gake":"","takashio":"〇","jishin":"〇","tsunami":"内科消化器内科","kaji":"福西会病院（福岡県福岡市早良区野芥1-2-36）","naisui":"","kazan":""}}
,{"type":"Feature","geometry":{"type":"Point","coordinates":[130.33244,33.54564]},"properties":{"Name":"福岡歯科大学医科歯科総合病院","Jusho":"福岡県福岡市早良区田村2-15-1","kouzui":"092-801-0411","gake":"","takashio":"×","jishin":"〇","tsunami":"内科小児科心療内科外科整形外科皮膚科形成外科耳鼻科眼科","kaji":"","naisui":"","kazan":""}}
,{"type":"Feature","geometry":{"type":"Point","coordinates":[130.35677,33.58018]},"properties":{"Name":"福岡大学西新病院","Jusho":"福岡県福岡市早良区祖原15-7","kouzui":"092-831-1211","gake":"","takashio":"×","jishin":"〇","tsunami":"全診療科","kaji":"","naisui":"","kazan":""}}
,{"type":"Feature","geometry":{"type":"Point","coordinates":[130.34143,33.56685]},"properties":{"Name":"医療法人案浦クリニック","Jusho":"福岡県福岡市早良区原5-22-13","kouzui":"092-821-6458","gake":"http://www.annoura-clinic.com/","takashio":"×","jishin":"〇","tsunami":"内科小児科","kaji":"山王病院（福岡県福岡市早良区百道浜3-6-45）白十字病院（福岡県福岡市西区石丸3-2-1）","naisui":"","kazan":""}}
,{"type":"Feature","geometry":{"type":"Point","coordinates":[130.34126,33.56364]},"properties":{"Name":"池田耳鼻咽喉科気管食道科アレルギー科医院","Jusho":"早良区原六丁目29番16号","kouzui":"851-8610","gake":"","takashio":"〇","jishin":"〇","tsunami":"耳鼻咽喉科アレルギー科","kaji":"","naisui":"","kazan":""}}
,{"type":"Feature","geometry":{"type":"Point","coordinates":[130.32982,33.57343]},"properties":{"Name":"井林眼科クリニック","Jusho":"福岡県福岡市早良区小田部7-19-12","kouzui":"092-404-5760","gake":"http://www.ibayashi-clinic.com/","takashio":"×","jishin":"〇","tsunami":"眼科","kaji":"","naisui":"","kazan":""}}
,{"type":"Feature","geometry":{"type":"Point","coordinates":[130.33408,33.53732]},"properties":{"Name":"おばた内科クリニック","Jusho":"福岡県福岡市早良区田村5-16-38","kouzui":"092-874-5630","gake":"http://obata-naika.jp","takashio":"〇","jishin":"〇","tsunami":"内科","kaji":"福西会病院（福岡県福岡市早良区野芥1-2-36）福岡大学病院（福岡県福岡市城南区七隈7-45-1）","naisui":"","kazan":""}}
,{"type":"Feature","geometry":{"type":"Point","coordinates":[130.34796,33.58983]},"properties":{"Name":"くろだクリニック","Jusho":"福岡県福岡市早良区百道浜4-13-2","kouzui":"092-846-4466","gake":"","takashio":"〇","jishin":"〇","tsunami":"消化器内科外科","kaji":"","naisui":"","kazan":""}}
,{"type":"Feature","geometry":{"type":"Point","coordinates":[130.35522,33.58226]},"properties":{"Name":"ささき内科・糖尿病クリニック","Jusho":"福岡県福岡市早良区西新5-15-13-1F","kouzui":"092-821-3500","gake":"https://sasacli.jp","takashio":"〇","jishin":"〇","tsunami":"内科","kaji":"福岡大学西新病院（福岡県福岡市早良区祖原15-7）済生会福岡総合病院（福岡県福岡市中央区天神1-3-46）","naisui":"","kazan":""}}
,{"type":"Feature","geometry":{"type":"Point","coordinates":[130.3528,33.5606]},"properties":{"Name":"医療法人髙橋脳神経外科","Jusho":"福岡県福岡市早良区飯倉7丁目1-7","kouzui":"092-866-0777","gake":"https://takahashinouge.com/","takashio":"×","jishin":"〇","tsunami":"脳神経外科","kaji":"済生会福岡総合病院（福岡市中央区天神）九州医療センター（福岡市中央区地行浜）","naisui":"","kazan":""}}
,{"type":"Feature","geometry":{"type":"Point","coordinates":[130.36333,33.58397]},"properties":{"Name":"武石クリニック","Jusho":"早良区西新一丁目4番28号","kouzui":"841-0121","gake":"","takashio":"〇","jishin":"〇","tsunami":"小児科呼吸器内科アレルギー科","kaji":"九州医療センター（福岡市中央区地行浜1丁目8-1）福岡大学西新病院（福岡市早良区祖原15-7）福岡病院（福岡市南区屋形原4丁目39-1）浜の町病院（福岡市中央区長浜3丁目3-1）","naisui":"","kazan":""}}
,{"type":"Feature","geometry":{"type":"Point","coordinates":[130.35278,33.58119]},"properties":{"Name":"たける眼科","Jusho":"福岡県福岡市早良区高取1-3-20-201","kouzui":"092-846-3121","gake":"http://www.takeru-eye.com","takashio":"〇","jishin":"〇","tsunami":"眼科","kaji":"九州大学病院（福岡県福岡市東区馬出3-1-1）九州医療センター（福岡県福岡市中央区地行浜1-8-1）","naisui":"","kazan":""}}
,{"type":"Feature","geometry":{"type":"Point","coordinates":[130.34619,33.54369]},"properties":{"Name":"ひじおか眼科","Jusho":"福岡県福岡市早良区野芥4-2-15","kouzui":"092-407-8122","gake":"http://hijioka-ganka.com","takashio":"〇","jishin":"〇","tsunami":"眼科","kaji":"","naisui":"","kazan":""}}
,{"type":"Feature","geometry":{"type":"Point","coordinates":[130.35721,33.58261]},"properties":{"Name":"医療法人本多耳鼻咽喉科医院","Jusho":"福岡県福岡市早良区西新5-1-33","kouzui":"092-851-9893","gake":"","takashio":"〇","jishin":"〇","tsunami":"耳鼻咽喉科","kaji":"九州医療センター（福岡県福岡市中央区地行浜1-8-1）済生会福岡病院（福岡県福岡市中央区天神1-3-46）","naisui":"","kazan":""}}
,{"type":"Feature","geometry":{"type":"Point","coordinates":[130.3344,33.55594]},"properties":{"Name":"医療法人まいこクリニックまいこ小児科クリニック","Jusho":"福岡県福岡市早良区有田5-23-25","kouzui":"092-874-0033","gake":"https://www.maiko-clinic.com/","takashio":"×","jishin":"〇","tsunami":"小児科","kaji":"","naisui":"","kazan":""}}
,{"type":"Feature","geometry":{"type":"Point","coordinates":[130.34106,33.56548]},"properties":{"Name":"まつおクリニック","Jusho":"早良区原五丁目3番6号","kouzui":"833-0333","gake":"http://1112matsuo.com","takashio":"×","jishin":"〇","tsunami":"内科皮膚科","kaji":"","naisui":"","kazan":""}}
,{"type":"Feature","geometry":{"type":"Point","coordinates":[130.35864,33.583]},"properties":{"Name":"医療法人松口整形外科クリニック","Jusho":"福岡県福岡市早良区西新4-9-35-3Ｆ","kouzui":"092-844-1881","gake":"","takashio":"×","jishin":"〇","tsunami":"整形外科","kaji":"","naisui":"","kazan":""}}
,{"type":"Feature","geometry":{"type":"Point","coordinates":[130.34962,33.58842]},"properties":{"Name":"メンタルクリニック百道浜","Jusho":"早良区百道浜三丁目3番1-2Ｆ","kouzui":"833-2121","gake":"","takashio":"〇","jishin":"〇","tsunami":"精神科、心療内科","kaji":"","naisui":"","kazan":""}}
,{"type":"Feature","geometry":{"type":"Point","coordinates":[130.33389,33.5336]},"properties":{"Name":"やまうちクリニック","Jusho":"早良区重留七丁目18番1号","kouzui":"872-3300","gake":"http://yamauchi-clinic.info/","takashio":"×","jishin":"〇","tsunami":"皮膚科形成外科","kaji":"","naisui":"","kazan":""}}
,{"type":"Feature","geometry":{"type":"Point","coordinates":[130.44279,33.04999]},"properties":{"Name":"不知火病院","Jusho":"福岡県大牟田市大字手鎌1800","kouzui":"0944-55-2000","gake":"https://shiranui-byoin.or.jp/","takashio":"×","jishin":"〇","tsunami":"精神科","kaji":"","naisui":"","kazan":""}}
,{"type":"Feature","geometry":{"type":"Point","coordinates":[130.51595,33.31509]},"properties":{"Name":"医療法人楠病院","Jusho":"福岡県久留米市日吉町115","kouzui":"0942-35-2725","gake":"","takashio":"〇","jishin":"〇","tsunami":"内科外科整形外科","kaji":"","naisui":"","kazan":""}}
,{"type":"Feature","geometry":{"type":"Point","coordinates":[130.52075,33.30992]},"properties":{"Name":"新古賀病院","Jusho":"福岡県久留米市天神町120","kouzui":"0942-38-2222","gake":"http://www.tenjinkai.or.jp","takashio":"×","jishin":"〇","tsunami":"内科呼吸器内科循環器内科消化器内科血液内科神経内科外科呼吸器外科消化器外科乳腺外科脳神経外科形成外科膠原病・リウマチ科","kaji":"古賀病院21（福岡県久留米市）聖マリア病院（福岡県久留米市）久留米大学病院（福岡県久留米市）田主丸中央病院（福岡県久留米市）嶋田病院（福岡県小郡市）","naisui":"","kazan":""}}
,{"type":"Feature","geometry":{"type":"Point","coordinates":[130.51076,33.2639]},"properties":{"Name":"高良台リハビリテーション病院","Jusho":"久留米市藤光町965-2","kouzui":"0942-51-3838","gake":"","takashio":"×","jishin":"〇","tsunami":"内科","kaji":"","naisui":"","kazan":""}}
,{"type":"Feature","geometry":{"type":"Point","coordinates":[130.48375,33.26533]},"properties":{"Name":"医療法人善志会久留米南病院","Jusho":"福岡県久留米市荒木町下荒木1616-1","kouzui":"0942-26-0100","gake":"http://www.kurume-minami.com","takashio":"×","jishin":"〇","tsunami":"内科","kaji":"聖マリア病院（福岡県久留米市津福本町422）","naisui":"","kazan":""}}
,{"type":"Feature","geometry":{"type":"Point","coordinates":[130.54247,33.26959]},"properties":{"Name":"のぞえ総合心療病院","Jusho":"福岡県久留米市藤山町1730","kouzui":"0942-22-5311","gake":"http://nozoe.or.jp/","takashio":"×","jishin":"〇","tsunami":"精神科","kaji":"","naisui":"","kazan":""}}
,{"type":"Feature","geometry":{"type":"Point","coordinates":[130.62559,33.35417]},"properties":{"Name":"神代病院","Jusho":"福岡県久留米市北野町中川900-1","kouzui":"0942-78-3177","gake":"http://kumashiro-ho.or.jp","takashio":"×","jishin":"〇","tsunami":"外科内科神経内科循環器内科肛門外科放射線科整形外科リハビリテーション科消化器内科消化器外科皮膚科救急科","kaji":"","naisui":"","kazan":""}}
,{"type":"Feature","geometry":{"type":"Point","coordinates":[130.5123,33.31314]},"properties":{"Name":"秋吉内科","Jusho":"久留米市六ツ門町7番地43","kouzui":"32-5645","gake":"http://www.medakiyoshi.net","takashio":"×","jishin":"〇","tsunami":"内科呼吸器内科","kaji":"聖マリア病院（久留米市津福本町422番地）","naisui":"","kazan":""}}
,{"type":"Feature","geometry":{"type":"Point","coordinates":[130.47296,33.26917]},"properties":{"Name":"医療法人井上内科医院","Jusho":"福岡県久留米市大善寺南1-21-5","kouzui":"0942-51-3380","gake":"","takashio":"×","jishin":"〇","tsunami":"内科","kaji":"新古賀病院（福岡県久留米市天神町120）","naisui":"","kazan":""}}
,{"type":"Feature","geometry":{"type":"Point","coordinates":[130.52115,33.2966]},"properties":{"Name":"医療法人みらい今立内科クリニック","Jusho":"福岡県久留米市西町178-1","kouzui":"0942-21-3331","gake":"http://imadachinaika.com","takashio":"〇","jishin":"〇","tsunami":"内科消化器内科人工透析内科リハビリテーション科","kaji":"久留米総合病院（福岡県久留米市）新古賀病院（福岡県久留米市）聖マリア病院（福岡県久留米市）","naisui":"","kazan":""}}
,{"type":"Feature","geometry":{"type":"Point","coordinates":[130.52733,33.28872]},"properties":{"Name":"医療法人いわい会いわい内科胃腸科医院","Jusho":"福岡県久留米市上津1-6-11","kouzui":"0942-22-0123","gake":"","takashio":"×","jishin":"〇","tsunami":"内科胃腸科","kaji":"聖マリア病院（福岡県久留米市）新古賀病院（福岡県久留米市天神町120）JCHO久留米総合病院（福岡県久留米市）","naisui":"","kazan":""}}
,{"type":"Feature","geometry":{"type":"Point","coordinates":[130.49376,33.32579]},"properties":{"Name":"くらたクリニック","Jusho":"福岡県久留米市長門石1-5-32","kouzui":"0942-35-5543","gake":"","takashio":"〇","jishin":"〇","tsunami":"内科小児科","kaji":"聖マリア病院（福岡県久留米市）","naisui":"","kazan":""}}
,{"type":"Feature","geometry":{"type":"Point","coordinates":[130.50856,33.30153]},"properties":{"Name":"久留米大塩眼科クリニック","Jusho":"久留米市津福本町465-1","kouzui":"36-8200","gake":"http://yt-eyeclinic.or.jp","takashio":"×","jishin":"〇","tsunami":"眼科","kaji":"美川眼科医院（佐賀県佐賀市松原4-3-21）","naisui":"","kazan":""}}
,{"type":"Feature","geometry":{"type":"Point","coordinates":[130.48882,33.32965]},"properties":{"Name":"産科婦人科田崎クリニック","Jusho":"久留米市長門石2丁目8-5","kouzui":"33-7227","gake":"https://tasaki-cl.com","takashio":"×","jishin":"〇","tsunami":"産婦人科","kaji":"久留米大学病院（久留米市旭町67）ＪＣＨＯ久留米総合病院（久留米市柳原町21）聖マリア病院（久留米市福本町42）","naisui":"","kazan":""}}
,{"type":"Feature","geometry":{"type":"Point","coordinates":[130.53337,33.29733]},"properties":{"Name":"医療法人産科婦人科宮原クリニック","Jusho":"久留米市国分町1159-2","kouzui":"0942-22-3011","gake":"","takashio":"×","jishin":"〇","tsunami":"産科婦人科","kaji":"","naisui":"","kazan":""}}
,{"type":"Feature","geometry":{"type":"Point","coordinates":[130.48836,33.32665]},"properties":{"Name":"耳鼻咽喉科アレルギー科気管食道科ふじたクリニック","Jusho":"福岡県久留米市長門石3-4-38","kouzui":"0942-38-2816","gake":"","takashio":"×","jishin":"〇","tsunami":"耳鼻咽喉科アレルギー科気管食道科","kaji":"","naisui":"","kazan":""}}
,{"type":"Feature","geometry":{"type":"Point","coordinates":[130.51581,33.30845]},"properties":{"Name":"医療法人和寿会城皮膚科・形成外科","Jusho":"福岡県久留米市西町1173-9","kouzui":"0942-34-0915","gake":"","takashio":"×","jishin":"〇","tsunami":"皮膚科形成外科","kaji":"","naisui":"","kazan":""}}
,{"type":"Feature","geometry":{"type":"Point","coordinates":[130.52426,33.3028]},"properties":{"Name":"しろうず耳鼻咽喉科クリニック","Jusho":"福岡県久留米市諏訪野町1935-15","kouzui":"0942-36-3387","gake":"","takashio":"×","jishin":"〇","tsunami":"耳鼻咽喉科","kaji":"","naisui":"","kazan":""}}
,{"type":"Feature","geometry":{"type":"Point","coordinates":[130.47922,33.28012]},"properties":{"Name":"医療法人大善寺医院","Jusho":"福岡県久留米市大善寺町宮本390-2","kouzui":"0942-27-3851","gake":"","takashio":"×","jishin":"〇","tsunami":"内科","kaji":"聖マリア病院（福岡県久留米市津福本町422）古賀病院（福岡県久留米市天神町120）","naisui":"","kazan":""}}
,{"type":"Feature","geometry":{"type":"Point","coordinates":[130.51303,33.29688]},"properties":{"Name":"田山メディカルクリニック","Jusho":"福岡県久留米市津福本町60-3","kouzui":"0942-34-0021","gake":"","takashio":"×","jishin":"〇","tsunami":"呼吸器内科乳腺外科外科胃腸内科","kaji":"新古賀病院（福岡県久留米市天神町120）聖マリア病院（福岡県久留米市津福本町422）","naisui":"","kazan":""}}
,{"type":"Feature","geometry":{"type":"Point","coordinates":[130.61813,33.3259]},"properties":{"Name":"医療法人にしごおり医院","Jusho":"福岡県久留米市善導寺町飯田1409-1","kouzui":"0942-47-0777","gake":"","takashio":"〇","jishin":"〇","tsunami":"外科整形外科胃腸科","kaji":"新古賀病院（福岡県久留米市天神町120）","naisui":"","kazan":""}}
,{"type":"Feature","geometry":{"type":"Point","coordinates":[130.52007,33.32637]},"properties":{"Name":"はかたみち耳鼻咽喉科","Jusho":"福岡県久留米市東櫛原町450-1","kouzui":"0940-38-0801","gake":"http://www.hakatamichi.com/","takashio":"〇","jishin":"〇","tsunami":"耳鼻咽喉科","kaji":"","naisui":"","kazan":""}}
,{"type":"Feature","geometry":{"type":"Point","coordinates":[130.53259,33.30288]},"properties":{"Name":"ひふ科いのうクリニック","Jusho":"福岡県久留米市野中町1409-1","kouzui":"0943-30-5678","gake":"","takashio":"×","jishin":"〇","tsunami":"皮膚科","kaji":"聖マリア病院（福岡県久留米市）","naisui":"","kazan":""}}
,{"type":"Feature","geometry":{"type":"Point","coordinates":[130.5163,33.31466]},"properties":{"Name":"医療法人厚生会三橋耳鼻咽喉科クリニック","Jusho":"久留米市日吉町107-1","kouzui":"32-2720","gake":"","takashio":"〇","jishin":"〇","tsunami":"耳鼻咽喉科","kaji":"現在は不明","naisui":"","kazan":""}}
,{"type":"Feature","geometry":{"type":"Point","coordinates":[130.48715,33.32895]},"properties":{"Name":"医療法人恵有会森山整形外科院","Jusho":"福岡県久留米市長門石2-9-63","kouzui":"0940-30-1625","gake":"","takashio":"×","jishin":"〇","tsunami":"整形外科","kaji":"聖マリア病院（福岡県久留米市）新古賀病院（福岡県久留米市天神町120）久留米総合病院（福岡県久留米市）","naisui":"","kazan":""}}
,{"type":"Feature","geometry":{"type":"Point","coordinates":[130.53485,33.31017]},"properties":{"Name":"医療法人吉武泌尿器科医院","Jusho":"福岡県久留米市野中町866-16","kouzui":"0942-31-0011","gake":"","takashio":"×","jishin":"〇","tsunami":"泌尿器科","kaji":"JCHO久留米病院（福岡県久留米市櫛原町21）医）天神会古賀病院21（福岡県久留米市宮ノ陣3-3-8）","naisui":"","kazan":""}}
,{"type":"Feature","geometry":{"type":"Point","coordinates":[130.75783,33.76111]},"properties":{"Name":"直方中村病院","Jusho":"直方市大字頓野993-1","kouzui":"0949-26-1522","gake":"","takashio":"×","jishin":"〇","tsunami":"精神科","kaji":"","naisui":"","kazan":""}}
,{"type":"Feature","geometry":{"type":"Point","coordinates":[130.74345,33.75207]},"properties":{"Name":"魚住内科胃腸科医院","Jusho":"福岡県直方市頓野1919-4","kouzui":"0949-26-6610","gake":"http://www.citydo.com/sp/0949-26-6610","takashio":"〇","jishin":"〇","tsunami":"内科胃腸科呼吸器科循環器科","kaji":"福岡ゆたか中央病院（福岡県直方市感田523-5）","naisui":"","kazan":""}}
,{"type":"Feature","geometry":{"type":"Point","coordinates":[130.72673,33.74787]},"properties":{"Name":"（医）武田医院","Jusho":"福岡県直方市古町16-3","kouzui":"0949-22-0139","gake":"http://clinictakeda.com/","takashio":"×","jishin":"〇","tsunami":"胃腸内科内科","kaji":"飯塚病院（福岡県飯塚市芳雄町3-83）","naisui":"","kazan":""}}
,{"type":"Feature","geometry":{"type":"Point","coordinates":[130.71396,33.76614]},"properties":{"Name":"（医）ひさずみ内科医院","Jusho":"直方市下新入621-1","kouzui":"0949-25-7500","gake":"","takashio":"×","jishin":"〇","tsunami":"内科","kaji":"相手方病院の了解を得ていないので回答不可","naisui":"","kazan":""}}
,{"type":"Feature","geometry":{"type":"Point","coordinates":[130.72549,33.75028]},"properties":{"Name":"山口耳鼻咽喉科医院","Jusho":"福岡県直方市須崎町4-30","kouzui":"0949-29-5225","gake":"","takashio":"×","jishin":"〇","tsunami":"耳鼻咽喉科","kaji":"社会保険直方病院（福岡県直方市須崎町1-1）","naisui":"","kazan":""}}
,{"type":"Feature","geometry":{"type":"Point","coordinates":[130.68791,33.62769]},"properties":{"Name":"あい内科・消化器科クリニッ","Jusho":"福岡県飯塚市菰田西1-6-24","kouzui":"0948-22-0703","gake":"http://nttbj.ne.jp/0948220703/","takashio":"〇","jishin":"〇","tsunami":"内科","kaji":"飯塚市立病院（福岡県飯塚市弁分633-1）飯塚病院（福岡県飯塚市芳雄町3-83）済生会福岡第二病院（福岡県飯塚市太郎丸256）","naisui":"","kazan":""}}
,{"type":"Feature","geometry":{"type":"Point","coordinates":[130.68518,33.62329]},"properties":{"Name":"（医）上村クリニック□上村皮","Jusho":"福岡県飯塚市忠隈355-2","kouzui":"0948-22-2973","gake":"","takashio":"×","jishin":"〇","tsunami":"皮膚科","kaji":"飯塚病院（福岡県飯塚市芳雄町3-83）飯塚市立病院（福岡県飯塚市弁分）済生会飯塚嘉穂病院（福岡県飯塚市太郎丸）","naisui":"","kazan":""}}
,{"type":"Feature","geometry":{"type":"Point","coordinates":[130.6769,33.64831]},"properties":{"Name":"岡眼科飯塚クリニック","Jusho":"飯塚市川津371番1","kouzui":"0948-22-5155","gake":"","takashio":"〇","jishin":"〇","tsunami":"眼科","kaji":"飯塚市立病院（飯塚市弁分633-1）","naisui":"","kazan":""}}
,{"type":"Feature","geometry":{"type":"Point","coordinates":[130.68668,33.63573]},"properties":{"Name":"（医）田中耳鼻咽喉科医院","Jusho":"福岡県飯塚市飯塚6-1","kouzui":"0948-29-8474","gake":"","takashio":"×","jishin":"〇","tsunami":"耳鼻咽喉科","kaji":"","naisui":"","kazan":""}}
,{"type":"Feature","geometry":{"type":"Point","coordinates":[130.65981,33.65664]},"properties":{"Name":"（医）林医院","Jusho":"飯塚市相田262-3","kouzui":"0948-22-5333","gake":"","takashio":"×","jishin":"〇","tsunami":"内科","kaji":"飯塚市立病院（福岡県飯塚市弁分633）飯塚病院（福岡県飯塚市芳雄町3-83）済生会飯塚嘉穂病院（福岡県飯塚市太郎丸265）","naisui":"","kazan":""}}
,{"type":"Feature","geometry":{"type":"Point","coordinates":[130.68091,33.61559]},"properties":{"Name":"松口循環器科・内科医院","Jusho":"福岡県飯塚市楽市131-1","kouzui":"0948-26-0800","gake":"","takashio":"×","jishin":"〇","tsunami":"循環器内科","kaji":"","naisui":"","kazan":""}}
,{"type":"Feature","geometry":{"type":"Point","coordinates":[130.6846,33.62355]},"properties":{"Name":"（医）宮嶋医院","Jusho":"福岡県飯塚市忠隈380","kouzui":"0948-22-1477","gake":"","takashio":"×","jishin":"〇","tsunami":"内科小児科","kaji":"","naisui":"","kazan":""}}
,{"type":"Feature","geometry":{"type":"Point","coordinates":[130.799,33.66078]},"properties":{"Name":"田川市立病院","Jusho":"福岡県田川市大字糒1700-2","kouzui":"0947-44-2100","gake":"","takashio":"×","jishin":"〇","tsunami":"全診療科","kaji":"","naisui":"","kazan":""}}
,{"type":"Feature","geometry":{"type":"Point","coordinates":[130.80048,33.63368]},"properties":{"Name":"岡部内科循環器内科","Jusho":"福岡県田川市平松町13-6","kouzui":"0947-42-1349","gake":"","takashio":"×","jishin":"〇","tsunami":"内科循環器内科小児科","kaji":"","naisui":"","kazan":""}}
,{"type":"Feature","geometry":{"type":"Point","coordinates":[130.80009,33.62516]},"properties":{"Name":"かじ内科クリニック","Jusho":"福岡県田川市上本町7-7","kouzui":"0947-44-0213","gake":"https://www.kaji-ci.jp","takashio":"×","jishin":"〇","tsunami":"内科","kaji":"社会保険田川病院（福岡県田川市上本町10-18）田川市立病院（福岡県田川市大字糒1700-2）","naisui":"","kazan":""}}
,{"type":"Feature","geometry":{"type":"Point","coordinates":[130.82259,33.62364]},"properties":{"Name":"（医）百武医院","Jusho":"田川市伊加利2195番地26","kouzui":"42-9100","gake":"","takashio":"×","jishin":"〇","tsunami":"泌尿器科内科","kaji":"田川市立病院（田川市大字糒1700番地2）","naisui":"","kazan":""}}
,{"type":"Feature","geometry":{"type":"Point","coordinates":[130.38275,33.16843]},"properties":{"Name":"医療法人金子病院","Jusho":"福岡県柳川市久々原65","kouzui":"0944-73-3407","gake":"http://kaneko-hp.or.jp/","takashio":"〇","jishin":"〇","tsunami":"内科","kaji":"筑後市立病院（福岡県筑後市）","naisui":"","kazan":""}}
,{"type":"Feature","geometry":{"type":"Point","coordinates":[130.42635,33.14903]},"properties":{"Name":"医療法人津留医院","Jusho":"福岡県柳川市大和町豊原130-9","kouzui":"0944-74-5099","gake":"","takashio":"〇","jishin":"〇","tsunami":"外科消化器科肛門科","kaji":"","naisui":"","kazan":""}}
,{"type":"Feature","geometry":{"type":"Point","coordinates":[130.42749,33.14263]},"properties":{"Name":"内田医院","Jusho":"福岡県柳川市大和町塩塚721","kouzui":"0944-76-3003","gake":"","takashio":"×","jishin":"〇","tsunami":"外科内科","kaji":"","naisui":"","kazan":""}}
,{"type":"Feature","geometry":{"type":"Point","coordinates":[130.42998,33.1406]},"properties":{"Name":"溝上整形外科医院","Jusho":"柳川市大和町塩塚643-1","kouzui":"0944-76-1234","gake":"","takashio":"×","jishin":"〇","tsunami":"整形外科","kaji":"柳川市医師会関係医療機関","naisui":"","kazan":""}}
,{"type":"Feature","geometry":{"type":"Point","coordinates":[130.44423,33.17963]},"properties":{"Name":"中川ごうクリニック","Jusho":"柳川市三橋町木元368-5","kouzui":"0944-75-1105","gake":"","takashio":"×","jishin":"〇","tsunami":"泌尿器科腎臓内科美容外科","kaji":"高木病院（福岡県大川市酒見141-11）長田病院（福岡県柳川市下宮永町523-1）","naisui":"","kazan":""}}
,{"type":"Feature","geometry":{"type":"Point","coordinates":[130.76344,33.24858]},"properties":{"Name":"山口医院","Jusho":"八女市星野村12038","kouzui":"0943-52-3131","gake":"","takashio":"〇","jishin":"〇","tsunami":"内科","kaji":"公立八女総合病院（八女市高塚540番地2）聖ルチア病院（福岡県久留米市津福本町1012番地）","naisui":"","kazan":""}}
,{"type":"Feature","geometry":{"type":"Point","coordinates":[130.50862,33.20829]},"properties":{"Name":"こばやし医院","Jusho":"福岡県筑後市大字長浜2358","kouzui":"0942-53-1001","gake":"","takashio":"×","jishin":"〇","tsunami":"内科外科","kaji":"筑後市立病院（福岡県筑後市長浜2-358）","naisui":"","kazan":""}}
,{"type":"Feature","geometry":{"type":"Point","coordinates":[130.49925,33.2133]},"properties":{"Name":"川村皮膚科形成外科医院","Jusho":"福岡県筑後市大字山ノ井1075-3","kouzui":"0942-53-3051","gake":"","takashio":"×","jishin":"〇","tsunami":"皮膚科形成外科","kaji":"久留米大学病院（福岡県久留米市旭町67）","naisui":"","kazan":""}}
,{"type":"Feature","geometry":{"type":"Point","coordinates":[130.49284,33.21938]},"properties":{"Name":"医療法人おおうち内科クリ","Jusho":"福岡県筑後市大字久富868","kouzui":"0942-54-0600","gake":"","takashio":"〇","jishin":"〇","tsunami":"内科","kaji":"筑後市立病院（福岡県筑後市）","naisui":"","kazan":""}}
,{"type":"Feature","geometry":{"type":"Point","coordinates":[130.51695,33.20031]},"properties":{"Name":"柿添医院","Jusho":"筑後市大字新溝88-1","kouzui":"0942-51-1239","gake":"","takashio":"×","jishin":"〇","tsunami":"内科胃腸科呼吸器科小児科リハビリテーション科","kaji":"筑後市立病院（筑後市大字和泉917-1）公立八女総合病院（八女市高塚540番地2）","naisui":"","kazan":""}}
,{"type":"Feature","geometry":{"type":"Point","coordinates":[130.41014,33.21972]},"properties":{"Name":"医療法人いちのせファミリークリニック","Jusho":"大川市中八院1247","kouzui":"0944-86-2366","gake":"","takashio":"×","jishin":"〇","tsunami":"総合診療科","kaji":"高木病院（福岡県大川市）聖マリア病院（福岡県久留米市）久留米大学病院（福岡県久留米市）","naisui":"","kazan":""}}
,{"type":"Feature","geometry":{"type":"Point","coordinates":[130.39998,33.21174]},"properties":{"Name":"医療法人宿正会宿里医院","Jusho":"大川市大字本木室507-1","kouzui":"0944-86ー4069","gake":"","takashio":"×","jishin":"〇","tsunami":"内科","kaji":"","naisui":"","kazan":""}}
,{"type":"Feature","geometry":{"type":"Point","coordinates":[130.96353,33.7247]},"properties":{"Name":"医療法人森和会行橋中央病院","Jusho":"福岡県行橋市西宮市5-5-42","kouzui":"0930-26-7111","gake":"https://www.vch21.com","takashio":"×","jishin":"〇","tsunami":"内科糖尿病内科リウマチ科","kaji":"やまうち内科クリニック（福岡県行橋市中央2-7-8）","naisui":"","kazan":""}}
,{"type":"Feature","geometry":{"type":"Point","coordinates":[130.96719,33.70707]},"properties":{"Name":"やまみち胃腸科内科","Jusho":"福岡県行橋市西泉7-2-1","kouzui":"0930-23-2208","gake":"","takashio":"×","jishin":"〇","tsunami":"内科胃腸科","kaji":"新行橋病院（福岡県行橋市道場寺1411）小波瀬病院（福岡県京都郡苅田町新津1598）","naisui":"","kazan":""}}
,{"type":"Feature","geometry":{"type":"Point","coordinates":[130.73418,33.82057]},"properties":{"Name":"豊川内科・循環器内科クリニック","Jusho":"中間市通谷2-24-1","kouzui":"093-245-8100","gake":"","takashio":"×","jishin":"〇","tsunami":"内科循環器内科呼吸器内科","kaji":"産業医科大学（福岡県北九州市八幡西区医生ヶ丘1-1）JCHO九州病院（福岡県北九州市八幡西区岸の浦1-8-1）中間市立病院（福岡県中間市蓮花寺3-1-7）新水巻病院（福岡県遠賀郡立屋敷1-2-1）","naisui":"","kazan":""}}
,{"type":"Feature","geometry":{"type":"Point","coordinates":[130.71977,33.82288]},"properties":{"Name":"医療法人柳整形外科医院","Jusho":"福岡県中間市中央5-2-10","kouzui":"093-243-3380","gake":"http://yanagi-clinic.sakura.ne.jp","takashio":"×","jishin":"〇","tsunami":"整形外科リウマチ科リハビリテーション科","kaji":"産業医科大学（福岡県北九州市八幡西区）福岡新水巻病院（福岡県遠賀郡水巻町）健愛記念病院（遠賀郡遠賀町）","naisui":"","kazan":""}}
,{"type":"Feature","geometry":{"type":"Point","coordinates":[130.55391,33.39625]},"properties":{"Name":"嶋田病院","Jusho":"福岡県小郡市小郡217-1","kouzui":"0942-72-2236","gake":"http://www.shimadahp.jp","takashio":"×","jishin":"〇","tsunami":"全診療科","kaji":"","naisui":"","kazan":""}}
,{"type":"Feature","geometry":{"type":"Point","coordinates":[130.53474,33.48389]},"properties":{"Name":"みぎた眼科","Jusho":"福岡県筑紫野市針摺中央2-15-13","kouzui":"092-555-5001","gake":"","takashio":"×","jishin":"〇","tsunami":"眼科","kaji":"福岡大学筑紫病院（福岡県筑紫野市）福岡大学病院（福岡県福岡市城南区）","naisui":"","kazan":""}}
,{"type":"Feature","geometry":{"type":"Point","coordinates":[130.54106,33.47125]},"properties":{"Name":"沓掛内科医院","Jusho":"筑紫野市桜台2-23-1","kouzui":"922-1011","gake":"","takashio":"×","jishin":"〇","tsunami":"内科呼吸器内科","kaji":"福岡大学筑紫病院（筑紫野市俗明院一丁目1番1号）福岡県済生会二日市病院（筑紫野市湯町三丁目13番1号）","naisui":"","kazan":""}}
,{"type":"Feature","geometry":{"type":"Point","coordinates":[130.51855,33.50003]},"properties":{"Name":"飯野内科","Jusho":"筑紫野市二日市中央4丁目14番23号","kouzui":"986-3161","gake":"","takashio":"×","jishin":"〇","tsunami":"内科","kaji":"福岡大学筑紫病院（筑紫野市俗明院1-1-1）","naisui":"","kazan":""}}
,{"type":"Feature","geometry":{"type":"Point","coordinates":[130.43813,33.52908]},"properties":{"Name":"医療法人和田整形外科医","Jusho":"春日市泉2-14","kouzui":"591-0511","gake":"","takashio":"×","jishin":"〇","tsunami":"整形外科リウマチ科リハビリテーション科","kaji":"福岡徳洲会病院（春日市須玖北4-5）浜の町病院（福岡市中央区長浜3丁目3-1）福岡赤十字病院（福岡市南区大楠3丁目1-1）九州大学病院（福岡市東区馬出3丁目1-1）九州医療センター（福岡市中央区地行浜1丁目8-1）九州中央病院（福岡市南区塩原3-23-1）福岡大学病院（福岡市城南区七隈七丁目45番1号）国立病院機構九州がんセンター（福岡市南区野多目3丁目1-1）","naisui":"","kazan":""}}
,{"type":"Feature","geometry":{"type":"Point","coordinates":[130.48567,33.53081]},"properties":{"Name":"医療法人文佑会原病院","Jusho":"福岡県大野城市白木原5-1-15","kouzui":"092-581-1631","gake":"https://www.harahp.com/","takashio":"×","jishin":"〇","tsunami":"内科脳神経内科消化器内科","kaji":"福岡徳洲会病院（福岡県春日市）福岡大学筑紫病院（福岡県筑紫野市）済生会二日市病院（福岡県筑紫野市）福岡大学病院（福岡県福岡市城南区）九州大学病院（福岡県福岡市東区）","naisui":"","kazan":""}}
,{"type":"Feature","geometry":{"type":"Point","coordinates":[130.48904,33.52159]},"properties":{"Name":"ゆうおう内科","Jusho":"大野城市下大利1-13-12","kouzui":"501-7586","gake":"http://shimori.or.jp","takashio":"〇","jishin":"〇","tsunami":"内科胃腸科腎臓内科","kaji":"福岡県済生会二日市病院（筑紫野市湯町三丁目13番1号）福岡大学筑紫病院（筑紫野市俗明院一丁目1番1号）","naisui":"","kazan":""}}
,{"type":"Feature","geometry":{"type":"Point","coordinates":[130.48645,33.53194]},"properties":{"Name":"医療法人原外科医院","Jusho":"大野城市白木原5-3-11","kouzui":"591-2122","gake":"","takashio":"×","jishin":"〇","tsunami":"内科整形外科","kaji":"","naisui":"","kazan":""}}
,{"type":"Feature","geometry":{"type":"Point","coordinates":[130.48221,33.52953]},"properties":{"Name":"医療法人鴻佑井本内科小児科医院","Jusho":"福岡県大野城市白木原3-8-16","kouzui":"092-581-1421","gake":"","takashio":"×","jishin":"〇","tsunami":"内科小児科循環器科呼吸器科","kaji":"福岡徳洲会病院（福岡県春日市）福岡大学筑紫病院（福岡県筑紫野市）済生会二日市病院（福岡県筑紫野市）","naisui":"","kazan":""}}
,{"type":"Feature","geometry":{"type":"Point","coordinates":[130.48779,33.52459]},"properties":{"Name":"医療法人天信会あまがせ産婦人科","Jusho":"大野城市東大利1-14-6","kouzui":"572-5503","gake":"","takashio":"×","jishin":"〇","tsunami":"産婦人科","kaji":"","naisui":"","kazan":""}}
,{"type":"Feature","geometry":{"type":"Point","coordinates":[130.47052,33.5012]},"properties":{"Name":"久冨内科医院","Jusho":"福岡県大野城市牛頸3-2-5","kouzui":"092-589-2801","gake":"","takashio":"×","jishin":"〇","tsunami":"内科","kaji":"","naisui":"","kazan":""}}
,{"type":"Feature","geometry":{"type":"Point","coordinates":[130.48119,33.50377]},"properties":{"Name":"平田医院リハビリテーションクリニック","Jusho":"大野城市南ヶ丘3-2-7","kouzui":"092-558-8777","gake":"","takashio":"〇","jishin":"〇","tsunami":"内科","kaji":"済生会二日市病院（福岡県筑紫野市湯町3-13-1）","naisui":"","kazan":""}}
,{"type":"Feature","geometry":{"type":"Point","coordinates":[130.56918,33.80739]},"properties":{"Name":"医療法人あかま整形クリニック","Jusho":"宗像市栄町3-5","kouzui":"0940-35-6440","gake":"","takashio":"×","jishin":"〇","tsunami":"整形外科","kaji":"蜂須賀病院（宗像市野坂2650）","naisui":"","kazan":""}}
,{"type":"Feature","geometry":{"type":"Point","coordinates":[130.56404,33.81269]},"properties":{"Name":"くりた耳鼻咽喉科","Jusho":"宗像市くりえいと2-3-17","kouzui":"0940-39-3939","gake":"http://www.kuritajibika.com","takashio":"〇","jishin":"〇","tsunami":"耳鼻咽喉科","kaji":"","naisui":"","kazan":""}}
,{"type":"Feature","geometry":{"type":"Point","coordinates":[130.57002,33.80868]},"properties":{"Name":"なかのクリニック","Jusho":"宗像市赤間駅前1-4-1-5Ｆ","kouzui":"0940-38-2525","gake":"http://nakano.clinic/","takashio":"〇","jishin":"〇","tsunami":"内科消化器内科","kaji":"宗像医師会病院（福岡県宗像市田熊）","naisui":"","kazan":""}}
,{"type":"Feature","geometry":{"type":"Point","coordinates":[130.57147,33.79969]},"properties":{"Name":"医療法人林外科医院","Jusho":"宗像市田久4-15-12","kouzui":"0940-33-5577","gake":"","takashio":"×","jishin":"〇","tsunami":"外科","kaji":"宗像医師会病院（宗像市田熊5-5-3）","naisui":"","kazan":""}}
,{"type":"Feature","geometry":{"type":"Point","coordinates":[130.49512,33.50109]},"properties":{"Name":"うえだ皮膚科クリニック","Jusho":"太宰府市大佐野3丁目1番50号","kouzui":"919-5128","gake":"","takashio":"×","jishin":"〇","tsunami":"皮膚科","kaji":"","naisui":"","kazan":""}}
,{"type":"Feature","geometry":{"type":"Point","coordinates":[130.49512,33.50109]},"properties":{"Name":"ひぐち内科胃腸クリニック","Jusho":"福岡県太宰府市大佐野3-1-51","kouzui":"092-408-3538","gake":"","takashio":"×","jishin":"〇","tsunami":"内科消化器内科","kaji":"福岡徳洲会病院（福岡県春日市）済生会二日市病院（福岡県筑紫野市）","naisui":"","kazan":""}}
,{"type":"Feature","geometry":{"type":"Point","coordinates":[130.4807,33.76435]},"properties":{"Name":"医療法人たけなかこどもクリニック","Jusho":"福岡県福津市中央6-22-33","kouzui":"0940-42-0043","gake":"https://takenaka-clinic.jp","takashio":"〇","jishin":"〇","tsunami":"小児科（初再診）内科（再診のみ）","kaji":"福岡東医療センター（福岡県古賀市千鳥1-1-1）","naisui":"","kazan":""}}
,{"type":"Feature","geometry":{"type":"Point","coordinates":[130.49579,33.7594]},"properties":{"Name":"耳鼻咽喉科工藤こうじクリニック","Jusho":"福津市日蒔野5丁目14-1","kouzui":"0940-34-9077","gake":"","takashio":"×","jishin":"〇","tsunami":"耳鼻咽喉科","kaji":"","naisui":"","kazan":""}}
,{"type":"Feature","geometry":{"type":"Point","coordinates":[130.51352,33.77589]},"properties":{"Name":"医療法人保利ほりクリニッ","Jusho":"福岡県福津市東福間1-3-1","kouzui":"0940-43-1177","gake":"http://hori-cl.com/","takashio":"×","jishin":"〇","tsunami":"内科腎臓内科","kaji":"福岡東医療センター（福岡県古賀市千鳥1-1-1）宗像水光会総合病院（福岡県福津市日蒔野5-7-1）宗像医師会病院（福岡県宗像市田熊5-5-3）","naisui":"","kazan":""}}
,{"type":"Feature","geometry":{"type":"Point","coordinates":[130.80114,33.33763]},"properties":{"Name":"医療法人浮羽クリニック","Jusho":"うきは市浮羽町東隈上342-9","kouzui":"0943(77)7111","gake":"","takashio":"×","jishin":"〇","tsunami":"整形外科","kaji":"田主丸中央病院（久留米市田主丸町益生田892番地）","naisui":"","kazan":""}}
,{"type":"Feature","geometry":{"type":"Point","coordinates":[130.6559,33.72968]},"properties":{"Name":"医療法人安倍病院","Jusho":"福岡県宮若市長井鶴250-3","kouzui":"0949-32-0080","gake":"","takashio":"×","jishin":"〇","tsunami":"内科","kaji":"","naisui":"","kazan":""}}
,{"type":"Feature","geometry":{"type":"Point","coordinates":[130.69057,33.72172]},"properties":{"Name":"（医）下川医院","Jusho":"宮若市鶴田1794-212","kouzui":"0949-32-0073","gake":"","takashio":"×","jishin":"〇","tsunami":"内科","kaji":"飯塚病院（飯塚市芳雄町3-83）","naisui":"","kazan":""}}
,{"type":"Feature","geometry":{"type":"Point","coordinates":[130.6684,33.72719]},"properties":{"Name":"（医）山近内科医院","Jusho":"宮若市本城569-1","kouzui":"0949-32-0135","gake":"","takashio":"×","jishin":"〇","tsunami":"内科、消化器内科","kaji":"現在特定していない","naisui":"","kazan":""}}
,{"type":"Feature","geometry":{"type":"Point","coordinates":[130.48055,33.15592]},"properties":{"Name":"きくち胃腸科内科クリニック","Jusho":"福岡県みやま市瀬高町下庄2175","kouzui":"0944-63-2223","gake":"http://y-kikuchi-clinic.com","takashio":"〇","jishin":"〇","tsunami":"胃腸科内科","kaji":"筑後市立病院（福岡県筑後市大字和泉917-1）ヨコクラ病院（福岡県みやま市高田町濃施480-2）柳川病院（福岡県柳川市筑紫町29）大牟田病院（福岡県大牟田市大字橘1044-1）","naisui":"","kazan":""}}
,{"type":"Feature","geometry":{"type":"Point","coordinates":[130.50869,33.17218]},"properties":{"Name":"医療法人東山康生会大鶴脳神経外科","Jusho":"福岡県みやま市瀬高町長田4812-2","kouzui":"0944-64-4130","gake":"","takashio":"×","jishin":"〇","tsunami":"脳神経外科","kaji":"筑後市立病院（福岡県筑後市和泉917-1）公立八女総合病院（福岡県八女市高塚540-2）","naisui":"","kazan":""}}
,{"type":"Feature","geometry":{"type":"Point","coordinates":[130.4597,33.15998]},"properties":{"Name":"たなか皮ふ科クリニック","Jusho":"みやま市瀬高町上庄744-3","kouzui":"0944-63-4112","gake":"","takashio":"×","jishin":"〇","tsunami":"皮膚科","kaji":"","naisui":"","kazan":""}}
,{"type":"Feature","geometry":{"type":"Point","coordinates":[130.51343,33.13017]},"properties":{"Name":"植田医院","Jusho":"みやま市山川町尾野2040","kouzui":"0944-67-2737","gake":"http://www.ueda-clinic-miyama.com","takashio":"〇","jishin":"〇","tsunami":"内科","kaji":"姉川脳神経外科（久留米市野中町1449-3）ヨコクラ病院（みやま市高田町濃施480番地2）","naisui":"","kazan":""}}
,{"type":"Feature","geometry":{"type":"Point","coordinates":[130.20221,33.551]},"properties":{"Name":"みなかぜ病院","Jusho":"福岡県糸島市篠原西1-14-1","kouzui":"092-322-3261","gake":"http://www.minamikaze.jp/","takashio":"×","jishin":"〇","tsunami":"精神科心療内科","kaji":"","naisui":"","kazan":""}}
,{"type":"Feature","geometry":{"type":"Point","coordinates":[130.18947,33.55812]},"properties":{"Name":"医療法人恵真会渡辺整形外科病院","Jusho":"糸島市前原1811-1","kouzui":"092-323-0013","gake":"http://www.keishin.or.jp/","takashio":"×","jishin":"〇","tsunami":"整形外科","kaji":"","naisui":"","kazan":""}}
,{"type":"Feature","geometry":{"type":"Point","coordinates":[130.22653,33.56083]},"properties":{"Name":"井上病院","Jusho":"福岡県糸島市波多江699-1","kouzui":"092-322-3681","gake":"","takashio":"×","jishin":"〇","tsunami":"外科整形外科内科（消化器、循環器、糖尿病）緩和ケア内科","kaji":"","naisui":"","kazan":""}}
,{"type":"Feature","geometry":{"type":"Point","coordinates":[130.17024,33.57516]},"properties":{"Name":"可也病院","Jusho":"福岡県糸島市志摩師吉1200","kouzui":"092-327-0131","gake":"https://kayahospital.com","takashio":"×","jishin":"〇","tsunami":"精神科内科リハビリテーション科","kaji":"","naisui":"","kazan":""}}
,{"type":"Feature","geometry":{"type":"Point","coordinates":[130.1393,33.56239]},"properties":{"Name":"小富士病院","Jusho":"糸島市志摩久家2400","kouzui":"092-328-2334","gake":"","takashio":"×","jishin":"〇","tsunami":"内科","kaji":"糸島医師会病院（福岡県糸島市浦志532-1）","naisui":"","kazan":""}}
,{"type":"Feature","geometry":{"type":"Point","coordinates":[130.43538,33.5115]},"properties":{"Name":"じんのうち耳鼻咽喉科","Jusho":"福岡県那珂川市松木1-146","kouzui":"092-951-3387","gake":"https://jinjinclinic.com","takashio":"×","jishin":"〇","tsunami":"耳鼻咽喉科","kaji":"福岡徳洲会病院（福岡県春日市）福岡日赤病院（福岡県福岡市南区）九州大学病院（福岡県福岡市東区）済生会福岡総合病院（福岡県福岡市中央区）","naisui":"","kazan":""}}
,{"type":"Feature","geometry":{"type":"Point","coordinates":[130.43079,33.52119]},"properties":{"Name":"水ノ江医院","Jusho":"福岡県那珂川市今光3-11","kouzui":"092-952-8648","gake":"http://mizunoeiin.jp","takashio":"〇","jishin":"〇","tsunami":"内科小児科","kaji":"","naisui":"","kazan":""}}
,{"type":"Feature","geometry":{"type":"Point","coordinates":[130.69714,33.85905]},"properties":{"Name":"はら耳鼻咽喉科","Jusho":"水巻町頃末北4-7-3","kouzui":"093-701-8841","gake":"http://www.hara-net.com","takashio":"×","jishin":"〇","tsunami":"耳鼻咽喉科","kaji":"産業医科大学病院（北九州市八幡西区医生ヶ丘1番1号）ＪＣＨＯ九州病院（北九州市八幡西区岸の浦一丁目8番1","naisui":"","kazan":""}}
,{"type":"Feature","geometry":{"type":"Point","coordinates":[130.69545,33.85161]},"properties":{"Name":"水巻クリニック","Jusho":"水巻町頃末南3-13-5","kouzui":"093-201-8500","gake":"","takashio":"×","jishin":"〇","tsunami":"内科","kaji":"済生会八幡総合病院（北九州市八幡東区春の町五丁目9番27号）九州大学病院（福岡市東区馬出3丁目1-1）","naisui":"","kazan":""}}
,{"type":"Feature","geometry":{"type":"Point","coordinates":[130.66737,33.83562]},"properties":{"Name":"医療法人健愛会健愛記念病院","Jusho":"遠賀郡遠賀町大字木守字江の上1191","kouzui":"093-293-7090","gake":"","takashio":"〇","jishin":"〇","tsunami":"呼吸器外科呼吸器内科","kaji":"産業医科大学（福岡県北九州市八幡西区）遠賀中間医師会おんが病院（福岡県遠賀郡遠賀郡町）","naisui":"","kazan":""}}
,{"type":"Feature","geometry":{"type":"Point","coordinates":[130.68777,33.78222]},"properties":{"Name":"地方独立行政法人くらて病院","Jusho":"福岡県鞍手郡鞍手町大字中山2425-9","kouzui":"0949-42-1231","gake":"http://kurate-hp.com/","takashio":"×","jishin":"〇","tsunami":"内科呼吸器内科循環器内科消化器内科糖尿病内科総合診療科","kaji":"","naisui":"","kazan":""}}
,{"type":"Feature","geometry":{"type":"Point","coordinates":[130.68867,33.79048]},"properties":{"Name":"（医）梅谷外科胃腸科医院","Jusho":"鞍手郡鞍手町中山2262番地の3","kouzui":"0949-42-3377","gake":"","takashio":"×","jishin":"〇","tsunami":"外科、胃腸科、内科","kaji":"くらて病院（鞍手郡鞍手町）、直方病院（直方市）、福岡ゆたか中央病院（直方市）","naisui":"","kazan":""}}
,{"type":"Feature","geometry":{"type":"Point","coordinates":[130.68556,33.56657]},"properties":{"Name":"（医）青柳医院","Jusho":"福岡県嘉穂郡桂川町土師2431-3","kouzui":"0948-65-0013","gake":"","takashio":"〇","jishin":"〇","tsunami":"内科皮膚科","kaji":"","naisui":"","kazan":""}}
,{"type":"Feature","geometry":{"type":"Point","coordinates":[130.81041,33.6065]},"properties":{"Name":"長主病院","Jusho":"福岡県田川郡川崎町大字田原1121","kouzui":"0947-72-7383","gake":"","takashio":"〇","jishin":"〇","tsunami":"内科","kaji":"","naisui":"","kazan":""}}
,{"type":"Feature","geometry":{"type":"Point","coordinates":[130.82364,33.59789]},"properties":{"Name":"柏村医院","Jusho":"福岡県田川郡川崎町大字川崎403-2","kouzui":"0947-73-2682","gake":"","takashio":"〇","jishin":"〇","tsunami":"内科","kaji":"社会保険田川病院（福岡県田川郡川崎町）田川市立病院（福岡県田川市）","naisui":"","kazan":""}}
,{"type":"Feature","geometry":{"type":"Point","coordinates":[130.77221,33.68852]},"properties":{"Name":"たくまクリニック","Jusho":"福岡県田川郡福智町金田1858-10","kouzui":"0947-22-7770","gake":"","takashio":"×","jishin":"〇","tsunami":"内科","kaji":"飯塚病院（福岡県飯塚市芳雄町3-83）","naisui":"","kazan":""}}
]};