var nigata={"type":"FeatureCollection","name":"nigata","features":[
{"type":"Feature","geometry":{"type":"Point","coordinates":[139.21291,37.9142]},"properties":{"Name":"堀医院","Jusho":"新潟県新潟市北区白新町4-6-19","kouzui":"025-387-5780","gake":"","takashio":"〇","jishin":"〇","tsunami":"内科","kaji":"豊栄病院（新潟県新潟市北区石動1丁目11番地1）新潟県立新発田病院（新潟県新発田市本町1-2-8）","naisui":"","kazan":""}}
,{"type":"Feature","geometry":{"type":"Point","coordinates":[139.21985,37.90891]},"properties":{"Name":"小飯塚医院","Jusho":"新潟県新潟市北区嘉山5-6-4","kouzui":"025-388-2321","gake":"","takashio":"×","jishin":"〇","tsunami":"内科","kaji":"","naisui":"","kazan":""}}
,{"type":"Feature","geometry":{"type":"Point","coordinates":[139.22135,37.92015]},"properties":{"Name":"小黒内科胃腸科医院","Jusho":"新潟県新潟市北区太田5633","kouzui":"025-387-0096","gake":"","takashio":"×","jishin":"〇","tsunami":"内科胃腸科","kaji":"","naisui":"","kazan":""}}
,{"type":"Feature","geometry":{"type":"Point","coordinates":[139.14384,37.95271]},"properties":{"Name":"たきざわクリニック松浜","Jusho":"新潟県新潟市北区松浜1-1-12","kouzui":"025-255-7551","gake":"","takashio":"〇","jishin":"〇","tsunami":"内科","kaji":"たきざわクリニック松浜（新潟県新潟市北区松浜1-1-12）","naisui":"","kazan":""}}
,{"type":"Feature","geometry":{"type":"Point","coordinates":[139.18697,37.91698]},"properties":{"Name":"すこやか医院","Jusho":"新潟県新潟市北区須戸695-1","kouzui":"025-387-6633","gake":"http://www.sukoyakaiin.com","takashio":"〇","jishin":"〇","tsunami":"内科小児科皮膚科","kaji":"","naisui":"","kazan":""}}
,{"type":"Feature","geometry":{"type":"Point","coordinates":[139.16241,37.93118]},"properties":{"Name":"やまもと小児科","Jusho":"新潟県新潟市北区濁川165-1","kouzui":"025-255-7272","gake":"https://yamamotoshounika.com/","takashio":"〇","jishin":"〇","tsunami":"小児科アレルギー科","kaji":"","naisui":"","kazan":""}}
,{"type":"Feature","geometry":{"type":"Point","coordinates":[139.21301,37.92169]},"properties":{"Name":"いぬかい耳鼻科クリニック","Jusho":"新潟県新潟市北区石動1-16-8","kouzui":"025-384-3311","gake":"https://inukai-jibika.net/","takashio":"〇","jishin":"〇","tsunami":"耳鼻咽喉科","kaji":"豊栄病院（新潟県新潟市北区1-11-1）新潟市民病院（新潟県新潟市中央区鐘木463番地7）","naisui":"","kazan":""}}
,{"type":"Feature","geometry":{"type":"Point","coordinates":[139.15485,37.95465]},"properties":{"Name":"松浜病院","Jusho":"新潟県新潟市北区松浜町3396番地","kouzui":"025-259-3241","gake":"https://matsuhama-hp.or.jp/","takashio":"×","jishin":"〇","tsunami":"精神科心療内科内科","kaji":"","naisui":"","kazan":""}}
,{"type":"Feature","geometry":{"type":"Point","coordinates":[139.21931,37.91703]},"properties":{"Name":"青木整形外科医院","Jusho":"新潟県新潟市北区葛塚3188","kouzui":"025-386-9751","gake":"","takashio":"×","jishin":"〇","tsunami":"整形外科","kaji":"","naisui":"","kazan":""}}
,{"type":"Feature","geometry":{"type":"Point","coordinates":[139.09439,37.94736]},"properties":{"Name":"ときわ診療所","Jusho":"新潟県新潟市東区空港西1丁目15番17号","kouzui":"025-274-2714","gake":"http://niigata-min.or.jp/tokiwa/","takashio":"×","jishin":"〇","tsunami":"内科","kaji":"","naisui":"","kazan":""}}
,{"type":"Feature","geometry":{"type":"Point","coordinates":[139.11414,37.92009]},"properties":{"Name":"髙橋小児科医院","Jusho":"新潟県新潟市東区逢谷内1-2-8","kouzui":"025-270-2480","gake":"http://takahashi-shonika.com/","takashio":"〇","jishin":"〇","tsunami":"小児科内科","kaji":"木戸病院（新潟県新潟市東区竹尾4-13-3）新潟市民病院（新潟県新潟市中央区鐘木463-7）","naisui":"","kazan":""}}
,{"type":"Feature","geometry":{"type":"Point","coordinates":[139.07271,37.93573]},"properties":{"Name":"阿部胃腸科内科医院","Jusho":"新潟県新潟市東区長者町6-3","kouzui":"025-273-3535","gake":"","takashio":"×","jishin":"〇","tsunami":"内科","kaji":"","naisui":"","kazan":""}}
,{"type":"Feature","geometry":{"type":"Point","coordinates":[139.09474,37.92864]},"properties":{"Name":"風の笛クリニック","Jusho":"新潟県新潟市東区下木戸2-28-16","kouzui":"025-288-7200","gake":"","takashio":"×","jishin":"〇","tsunami":"内科麻酔科","kaji":"木戸病院（新潟県新潟市東区竹尾4-13-3）新潟市民病院（新潟県新潟市中央区鐘木463-7）新潟臨港病院（新潟市東区桃山町1-114-3）","naisui":"","kazan":""}}
,{"type":"Feature","geometry":{"type":"Point","coordinates":[139.10225,37.91497]},"properties":{"Name":"田中クリニック","Jusho":"新潟県新潟市東区はなみずき1?14?18","kouzui":"025-279-5030","gake":"","takashio":"×","jishin":"〇","tsunami":"内科消化器内科肛門外科","kaji":"木戸病院（新潟市東区竹尾4?13?3）","naisui":"","kazan":""}}
,{"type":"Feature","geometry":{"type":"Point","coordinates":[139.08243,37.91255]},"properties":{"Name":"東新潟まやま眼科","Jusho":"新潟県新潟市東区中山7-11-11","kouzui":"025-282-5586","gake":"http://mayamaganka.jp/","takashio":"〇","jishin":"〇","tsunami":"眼科","kaji":"新潟市民病院（新潟県新潟市中央区鐘木463番地7）","naisui":"","kazan":""}}
,{"type":"Feature","geometry":{"type":"Point","coordinates":[139.07497,37.94493]},"properties":{"Name":"末広橋病院","Jusho":"新潟県新潟市東区臨港町2-25-1","kouzui":"025-274-6311","gake":"","takashio":"×","jishin":"〇","tsunami":"精神科","kaji":"","naisui":"","kazan":""}}
,{"type":"Feature","geometry":{"type":"Point","coordinates":[139.10429,37.89992]},"properties":{"Name":"小田医院","Jusho":"新潟県新潟市東区中野山6-1-17","kouzui":"025-277-9191","gake":"http://www.oda-clinic.jpn.com/","takashio":"×","jishin":"〇","tsunami":"内科循環器内科","kaji":"","naisui":"","kazan":""}}
,{"type":"Feature","geometry":{"type":"Point","coordinates":[139.11748,37.92089]},"properties":{"Name":"浦野耳鼻咽喉科医院","Jusho":"新潟県新潟市東区逢谷内3-1-26","kouzui":"025-270-3387","gake":"http://www.urano-ent.jp/","takashio":"×","jishin":"〇","tsunami":"耳鼻咽喉科","kaji":"新潟市民病院（新潟市中央区鐘木463番地7）","naisui":"","kazan":""}}
,{"type":"Feature","geometry":{"type":"Point","coordinates":[139.08505,37.91533]},"properties":{"Name":"梅沢こども診療所","Jusho":"新潟県新潟市東区中山6-20-11","kouzui":"025-273-6957","gake":"http://umekodo.crayonsite.com","takashio":"〇","jishin":"〇","tsunami":"小児科","kaji":"新潟市民病院（新潟県新潟市中央区鐘木463番地7）","naisui":"","kazan":""}}
,{"type":"Feature","geometry":{"type":"Point","coordinates":[139.11259,37.89669]},"properties":{"Name":"小児科廣川医院","Jusho":"新潟県新潟市東区若葉町1-20-8","kouzui":"025-383-8839","gake":"http://www.hirokawaiin.jp/","takashio":"×","jishin":"〇","tsunami":"小児科","kaji":"","naisui":"","kazan":""}}
,{"type":"Feature","geometry":{"type":"Point","coordinates":[139.0854,37.89914]},"properties":{"Name":"佐野医院","Jusho":"新潟県新潟市東区東明2-9-2","kouzui":"025-286-5363","gake":"http://sano-iin.com/","takashio":"〇","jishin":"〇","tsunami":"内科小児科","kaji":"新潟市民病院（新潟市中央区鐘木463-7）","naisui":"","kazan":""}}
,{"type":"Feature","geometry":{"type":"Point","coordinates":[139.11465,37.92282]},"properties":{"Name":"医療法人社団すずき医院","Jusho":"新潟県新潟市東区逢谷内6-8-34","kouzui":"025-279-5511","gake":"http://www9.plala.or.jp/cir/","takashio":"×","jishin":"〇","tsunami":"内科","kaji":"","naisui":"","kazan":""}}
,{"type":"Feature","geometry":{"type":"Point","coordinates":[139.11301,37.93454]},"properties":{"Name":"医療法人社団源川産婦人科クリニック","Jusho":"新潟県新潟市東区松崎1-18-12","kouzui":"025-272-5252","gake":"http://www.minagawa-lc.com/","takashio":"〇","jishin":"〇","tsunami":"産婦人科","kaji":"","naisui":"","kazan":""}}
,{"type":"Feature","geometry":{"type":"Point","coordinates":[139.12278,37.93292]},"properties":{"Name":"もとやま内科クリニック","Jusho":"新潟県新潟市東区海老ケ瀬3012","kouzui":"025-250-3311","gake":"https://www.motoyama-naika.cm","takashio":"〇","jishin":"〇","tsunami":"内科","kaji":"新潟臨港病院（新潟県新潟市東区桃山町1-114-3）木戸病院（新潟県新潟市東区竹尾4-13-3）","naisui":"","kazan":""}}
,{"type":"Feature","geometry":{"type":"Point","coordinates":[139.09737,37.89555]},"properties":{"Name":"五味キッズクリニック","Jusho":"新潟県新潟市東区石山4-4-14","kouzui":"0025-276-8088","gake":"http://www.gomikids.com/","takashio":"〇","jishin":"〇","tsunami":"小児科","kaji":"新潟市民病院（新潟県新潟市中央区鐘木436番地7）","naisui":"","kazan":""}}
,{"type":"Feature","geometry":{"type":"Point","coordinates":[139.02774,37.88206]},"properties":{"Name":"きしもと医院","Jusho":"新潟県新潟市中央区大島172-65","kouzui":"025-290-0055","gake":"http://nttbj.itp.ne.jp/0252900055/","takashio":"〇","jishin":"〇","tsunami":"内科小児科","kaji":"","naisui":"","kazan":""}}
,{"type":"Feature","geometry":{"type":"Point","coordinates":[139.12222,37.79699]},"properties":{"Name":"にいつ眼科","Jusho":"新潟県新潟市秋葉区新津本町3丁目1-10","kouzui":"0250-23-3888","gake":"https://niitsu-ganka.com","takashio":"〇","jishin":"〇","tsunami":"眼科","kaji":"","naisui":"","kazan":""}}
,{"type":"Feature","geometry":{"type":"Point","coordinates":[139.05788,37.91753]},"properties":{"Name":"万代内科クリニック","Jusho":"新潟県新潟市中央区万代4-1-1B4ビル3階","kouzui":"025-244-0600","gake":"http://www.bandainaika.com/","takashio":"×","jishin":"〇","tsunami":"内科糖尿病内科","kaji":"新潟市内の総合病院","naisui":"","kazan":""}}
,{"type":"Feature","geometry":{"type":"Point","coordinates":[139.06088,37.91458]},"properties":{"Name":"東大通内科ラクラク","Jusho":"新潟県新潟市中央区東大通1-3-10医療福祉ビル2F","kouzui":"025-249-8555","gake":"","takashio":"×","jishin":"〇","tsunami":"内科","kaji":"","naisui":"","kazan":""}}
,{"type":"Feature","geometry":{"type":"Point","coordinates":[139.05783,37.91658]},"properties":{"Name":"村山内科","Jusho":"新潟県新潟市中央区万代1-1-32プリオール万代ビル4階","kouzui":"025-243-0088","gake":"http://murayama-naika.jp/","takashio":"×","jishin":"〇","tsunami":"内科","kaji":"","naisui":"","kazan":""}}
,{"type":"Feature","geometry":{"type":"Point","coordinates":[139.07231,37.91816]},"properties":{"Name":"日之出医院","Jusho":"新潟県新潟市中央区日之出1-9-14","kouzui":"025-244-3990","gake":"","takashio":"×","jishin":"〇","tsunami":"内科小児科","kaji":"","naisui":"","kazan":""}}
,{"type":"Feature","geometry":{"type":"Point","coordinates":[139.03955,37.87453]},"properties":{"Name":"新潟こころの発達クリニック","Jusho":"新潟県新潟市中央区湖南21-5","kouzui":"025-281-3556","gake":"https://niigata-kokoro.com","takashio":"×","jishin":"△","tsunami":"精神科心療内科","kaji":"","naisui":"","kazan":""}}
,{"type":"Feature","geometry":{"type":"Point","coordinates":[139.03122,37.91016]},"properties":{"Name":"新井内科・消化器科クリニック","Jusho":"新潟県新潟市中央区川岸町2-8-2","kouzui":"025-232-3262","gake":"http://arai-clinic.life.coocan.jp/","takashio":"×","jishin":"〇","tsunami":"内科消化器内科","kaji":"","naisui":"","kazan":""}}
,{"type":"Feature","geometry":{"type":"Point","coordinates":[139.04402,37.87367]},"properties":{"Name":"こなん内科クリニック","Jusho":"新潟県新潟市中央区湖南29-1","kouzui":"025-283-1181","gake":"https://www.konanclinic.com/","takashio":"×","jishin":"〇","tsunami":"内科呼吸器科","kaji":"新潟市民病院（新潟市中央区鐘木463-7）","naisui":"","kazan":""}}
,{"type":"Feature","geometry":{"type":"Point","coordinates":[139.01976,37.9124]},"properties":{"Name":"鈴木内科小児科医院","Jusho":"新潟県新潟市中央区関屋本村町1-147","kouzui":"025-266-1917","gake":"","takashio":"×","jishin":"〇","tsunami":"内科小児科","kaji":"","naisui":"","kazan":""}}
,{"type":"Feature","geometry":{"type":"Point","coordinates":[139.04956,37.90394]},"properties":{"Name":"勝見整形外科","Jusho":"新潟県新潟市中央区堀之内南1-32-13","kouzui":"025-241-0145","gake":"http://www.katsumiseikei.org/","takashio":"×","jishin":"〇","tsunami":"整形外科","kaji":"","naisui":"","kazan":""}}
,{"type":"Feature","geometry":{"type":"Point","coordinates":[139.05684,37.90467]},"properties":{"Name":"しむら皮膚科クリニック","Jusho":"新潟県新潟市中央区米山5-9-11","kouzui":"025-248-2000","gake":"http://shimuraskinclnic.jp","takashio":"〇","jishin":"〇","tsunami":"皮膚科","kaji":"","naisui":"","kazan":""}}
,{"type":"Feature","geometry":{"type":"Point","coordinates":[139.01314,37.91104]},"properties":{"Name":"堀川内科・神経内科医院","Jusho":"新潟県新潟市中央区浜浦町1丁目161番地3","kouzui":"025-266-3770","gake":"","takashio":"△","jishin":"〇","tsunami":"内科神経内科","kaji":"","naisui":"","kazan":""}}
,{"type":"Feature","geometry":{"type":"Point","coordinates":[139.06435,37.90827]},"properties":{"Name":"ラサ内科皮膚科クリニック","Jusho":"新潟県新潟市中央区南笹口1-1-30","kouzui":"025-247-3811","gake":"","takashio":"×","jishin":"〇","tsunami":"内科皮膚科","kaji":"","naisui":"","kazan":""}}
,{"type":"Feature","geometry":{"type":"Point","coordinates":[139.07028,37.91153]},"properties":{"Name":"ワシオ皮フ科","Jusho":"新潟県新潟市中央区笹口3-1-19","kouzui":"025-247-7771","gake":"","takashio":"〇","jishin":"〇","tsunami":"皮膚科","kaji":"","naisui":"","kazan":""}}
,{"type":"Feature","geometry":{"type":"Point","coordinates":[139.04004,37.88719]},"properties":{"Name":"あべ内科クリニック","Jusho":"新潟県新潟市中央区小張木2-13-30","kouzui":"025-378-8580","gake":"http://abenaika.org/","takashio":"△","jishin":"〇","tsunami":"内科","kaji":"新潟南病院（新潟市中央区鳥屋野2007-6)新潟市民病院（新潟市中央区鐘木463-7)","naisui":"","kazan":""}}
,{"type":"Feature","geometry":{"type":"Point","coordinates":[139.05659,37.93433]},"properties":{"Name":"舟江診療所","Jusho":"新潟県新潟市中央区入船町3-3629-1","kouzui":"025-229-3588","gake":"","takashio":"×","jishin":"〇","tsunami":"内科","kaji":"","naisui":"","kazan":""}}
,{"type":"Feature","geometry":{"type":"Point","coordinates":[139.02458,37.90097]},"properties":{"Name":"エンゼルマザークリニック","Jusho":"新潟県新潟市中央区出来島1-5-15","kouzui":"025-281-1103","gake":"","takashio":"〇","jishin":"×","tsunami":"産婦人科","kaji":"新潟市民病院（新潟市中央区鐘木463-7)","naisui":"","kazan":""}}
,{"type":"Feature","geometry":{"type":"Point","coordinates":[139.06711,37.88392]},"properties":{"Name":"大滝耳鼻科クリニック","Jusho":"新潟県新潟市中央区長潟1204-4","kouzui":"025-287-1831","gake":"https://www.ohtaki-ent-clinic.jp/","takashio":"×","jishin":"〇","tsunami":"耳鼻咽喉科","kaji":"新潟市民病院(新潟市中央区鐘木463番地7)","naisui":"","kazan":""}}
,{"type":"Feature","geometry":{"type":"Point","coordinates":[139.01077,37.91204]},"properties":{"Name":"日本歯科大学医科病院","Jusho":"新潟県新潟市中央区浜浦町1-8","kouzui":"025-267-1500","gake":"http://www.ngt.ndu.ac.jp/hospital/","takashio":"×","jishin":"〇","tsunami":"内科外科耳鼻咽喉科","kaji":"","naisui":"","kazan":""}}
,{"type":"Feature","geometry":{"type":"Point","coordinates":[139.02766,37.92022]},"properties":{"Name":"新潟県はまぐみ小児療育センター","Jusho":"新潟県新潟市中央区水道町1丁目5932番地","kouzui":"025-266-0151","gake":"https://www.pref.niigata.lg.jp/site/humagumi/hamagumi.html","takashio":"×","jishin":"△","tsunami":"小児科","kaji":"","naisui":"","kazan":""}}
,{"type":"Feature","geometry":{"type":"Point","coordinates":[139.05466,37.91092]},"properties":{"Name":"尾崎クリニック","Jusho":"新潟県新潟市中央区水島町3-19","kouzui":"025-243-1101","gake":"","takashio":"〇","jishin":"〇","tsunami":"内科","kaji":"","naisui":"","kazan":""}}
,{"type":"Feature","geometry":{"type":"Point","coordinates":[139.03508,37.91973]},"properties":{"Name":"新潟大学医歯学総合病院","Jusho":"新潟県新潟市中央区旭町通一番町754番地","kouzui":"025-223-6161","gake":"https://www.nuh.niigata-u.ac.jp/","takashio":"×","jishin":"〇","tsunami":"全診療科","kaji":"","naisui":"","kazan":""}}
,{"type":"Feature","geometry":{"type":"Point","coordinates":[139.03151,37.90952]},"properties":{"Name":"大橋みなこキッズクリニック","Jusho":"新潟県新潟市中央区川岸町2-7-18","kouzui":"025-234-0084","gake":"http://www.minako-kidsclinic.com/","takashio":"〇","jishin":"〇","tsunami":"小児科","kaji":"新潟市民病院（新潟県新潟市中央区鍾木463-7）","naisui":"","kazan":""}}
,{"type":"Feature","geometry":{"type":"Point","coordinates":[139.07739,37.89033]},"properties":{"Name":"ふるしまクリニック","Jusho":"新潟県新潟市中央区姥ヶ山5-6-20","kouzui":"025-257-7070","gake":"http://www001.upp.so-net.ne.jp/furushimaclinic/index.html","takashio":"〇","jishin":"〇","tsunami":"内科","kaji":"新潟市民病院（新潟県新潟市中央区鐘木463番地7）","naisui":"","kazan":""}}
,{"type":"Feature","geometry":{"type":"Point","coordinates":[139.05629,37.91597]},"properties":{"Name":"野本真由美スキンケアクリニック","Jusho":"新潟県新潟市中央区万代1-3-7NDK万代ビル2階","kouzui":"025-247-8800","gake":"http://www.mayumi-beautifulskin.com/","takashio":"〇","jishin":"〇","tsunami":"皮膚科","kaji":"野本真由美スキンケアクリニック","naisui":"","kazan":""}}
,{"type":"Feature","geometry":{"type":"Point","coordinates":[139.06262,37.91732]},"properties":{"Name":"あじさい耳鼻科・アレルギー科クリニック","Jusho":"新潟県新潟市中央区東万代町9-38","kouzui":"025-240-3500","gake":"","takashio":"×","jishin":"〇","tsunami":"耳鼻咽喉科アレルギー科","kaji":"新潟大学医歯学総合病院（新潟市中央区旭町通一番町754番地）新潟市民病院（新潟市中央区鐘木463番地7）","naisui":"","kazan":""}}
,{"type":"Feature","geometry":{"type":"Point","coordinates":[139.04153,37.87571]},"properties":{"Name":"新潟市民病院","Jusho":"新潟県新潟市中央区鐘木463番地7","kouzui":"025-281-5151","gake":"https://www.hosp.niigata.niigata.jp","takashio":"×","jishin":"〇","tsunami":"全診療科","kaji":"","naisui":"","kazan":""}}
,{"type":"Feature","geometry":{"type":"Point","coordinates":[139.06377,37.91098]},"properties":{"Name":"プラーカ中村クリニック","Jusho":"新潟県新潟市中央区笹口1-1","kouzui":"025-240-0426","gake":"http://plaka-nakamura-clinic.skr.jp/","takashio":"〇","jishin":"〇","tsunami":"内科消化器科乳腺外科肛門外科","kaji":"","naisui":"","kazan":""}}
,{"type":"Feature","geometry":{"type":"Point","coordinates":[139.05887,37.91607]},"properties":{"Name":"川合クリニック","Jusho":"新潟県新潟市中央区東大通2-3-26プレイス新潟3階","kouzui":"025-242-1311","gake":"http://www.ne.jp/asahi/kawai/clinic/index.html","takashio":"〇","jishin":"〇","tsunami":"消化器内科外科内科","kaji":"万代病院（新潟県新潟市中央区八千代2-2-8）日本歯科大学医科病院（新潟県新潟市中央区浜浦町1?8）","naisui":"","kazan":""}}
,{"type":"Feature","geometry":{"type":"Point","coordinates":[139.04628,37.92036]},"properties":{"Name":"本町いとう内科クリニック","Jusho":"新潟県新潟市中央区本町通6番町1108-1ぷらっと本町ビル3階","kouzui":"025-222-4181","gake":"https://www.itou-naika.com/","takashio":"×","jishin":"〇","tsunami":"内科","kaji":"","naisui":"","kazan":""}}
,{"type":"Feature","geometry":{"type":"Point","coordinates":[139.05081,37.92641]},"properties":{"Name":"ひろさわ内科医院","Jusho":"新潟県新潟市中央区東湊町通一ノ町2545-24","kouzui":"025-225-8880","gake":"https://www.konpiranaika.jp/index.html","takashio":"〇","jishin":"〇","tsunami":"内科","kaji":"前田内科医院（新潟県新潟市中央区曙町3160-4）おかむら内科下町クリニック（新潟県新潟市中央区田町1-3239-1）","naisui":"","kazan":""}}
,{"type":"Feature","geometry":{"type":"Point","coordinates":[139.07011,37.88983]},"properties":{"Name":"やなぎさわクリニック","Jusho":"新潟県新潟市中央区長潟2-3-1","kouzui":"025-287-1555","gake":"","takashio":"×","jishin":"〇","tsunami":"内科","kaji":"","naisui":"","kazan":""}}
,{"type":"Feature","geometry":{"type":"Point","coordinates":[139.04366,37.91968]},"properties":{"Name":"古町心療クリニック","Jusho":"新潟県新潟市中央区古町通五番町608番地","kouzui":"025-224-7771","gake":"http://www.fmc-niigata.org/","takashio":"×","jishin":"〇","tsunami":"精神科","kaji":"","naisui":"","kazan":""}}
,{"type":"Feature","geometry":{"type":"Point","coordinates":[139.00969,37.90429]},"properties":{"Name":"有明台整形外科","Jusho":"新潟県新潟市中央区堀割町2-6","kouzui":"025-234-0510","gake":"http://ariakedai.jimdo.com/","takashio":"〇","jishin":"〇","tsunami":"整形外科","kaji":"新潟中央病院（新潟県新潟市中央区新光町1-18）西新潟中央病院（新潟県新潟市西区真砂1-14-1）","naisui":"","kazan":""}}
,{"type":"Feature","geometry":{"type":"Point","coordinates":[139.04956,37.90394]},"properties":{"Name":"勝見整形外科医院","Jusho":"新潟県新潟市中央区堀之内南1-32-13","kouzui":"025-241-0145","gake":"http://www.katsumiseikei.org","takashio":"〇","jishin":"〇","tsunami":"整形外科","kaji":"","naisui":"","kazan":""}}
,{"type":"Feature","geometry":{"type":"Point","coordinates":[139.02078,37.90939]},"properties":{"Name":"たきい耳鼻科クリニック","Jusho":"新潟県新潟市中央区関新1丁目8?24","kouzui":"025-201-1333","gake":"","takashio":"×","jishin":"〇","tsunami":"耳鼻咽喉科","kaji":"","naisui":"","kazan":""}}
,{"type":"Feature","geometry":{"type":"Point","coordinates":[139.02859,37.91183]},"properties":{"Name":"筒井内科クリニック","Jusho":"新潟県新潟市中央区白山浦2-646-97","kouzui":"025-234-2511","gake":"","takashio":"△","jishin":"〇","tsunami":"内科","kaji":"済生会新潟病院（新潟県新潟市西区寺地280-7）","naisui":"","kazan":""}}
,{"type":"Feature","geometry":{"type":"Point","coordinates":[139.04799,37.92011]},"properties":{"Name":"本町ふるまち耳鼻科","Jusho":"新潟県新潟市中央区上大川前通六番町1212-1","kouzui":"025-210-8520","gake":"https://honcho-furumachi.jp/","takashio":"×","jishin":"〇","tsunami":"耳鼻咽喉科","kaji":"新潟大学医歯学総合病院（新潟市中央区旭町通一番町754）新潟市民病院（新潟市中央区鐘木463番地7）日本歯科大学新潟病院・日本歯科大学医科病院（新潟市中央区浜浦町1?8）","naisui":"","kazan":""}}
,{"type":"Feature","geometry":{"type":"Point","coordinates":[139.06085,37.91679]},"properties":{"Name":"植木外科医院","Jusho":"新潟県新潟市中央区東大通2-10-26","kouzui":"025-241-5553","gake":"","takashio":"×","jishin":"〇","tsunami":"外科消化器内科","kaji":"中村外科胃腸科医院（新潟県新潟市西区内野町750）おおかわクリニック（新潟県新潟市東区竹尾2-19-5）いが医院（新潟県村上市南町2-8-30）","naisui":"","kazan":""}}
,{"type":"Feature","geometry":{"type":"Point","coordinates":[139.04564,37.90149]},"properties":{"Name":"近江わたなべクリニック","Jusho":"新潟県新潟市中央区近江3丁目5番5号","kouzui":"025-250-7656","gake":"http://r.goope.jp/omiwatanabe-clin","takashio":"〇","jishin":"〇","tsunami":"内科","kaji":"新潟南病院（新潟市中央区鳥屋野2007番地6）新潟市民病院（新潟市中央区鐘木463番地7）","naisui":"","kazan":""}}
,{"type":"Feature","geometry":{"type":"Point","coordinates":[139.07028,37.91153]},"properties":{"Name":"おのクリニック","Jusho":"新潟県新潟市中央区笹口3-21","kouzui":"025-290-3131","gake":"http://www.onoclinic.net","takashio":"×","jishin":"〇","tsunami":"脳神経外科神経内科","kaji":"新潟市民病院（新潟市中央区鐘木463-7）桑名病院（新潟市東区河渡甲140）新潟大学医歯学総合病院（新潟市中央区旭町通1-754）","naisui":"","kazan":""}}
,{"type":"Feature","geometry":{"type":"Point","coordinates":[139.05516,37.89717]},"properties":{"Name":"総合リハビリテーションセンター・みどり病院","Jusho":"新潟県新潟市中央区神道寺2丁目5番1号","kouzui":"025-244-0080","gake":"https://www.midori-gr.jp/","takashio":"×","jishin":"〇","tsunami":"内科神経内科リハビリテーション科","kaji":"","naisui":"","kazan":""}}
,{"type":"Feature","geometry":{"type":"Point","coordinates":[139.05951,37.91026]},"properties":{"Name":"羽賀心臓血管外科クリニック","Jusho":"新潟県新潟市中央区天神1-12-7LEXN1-2F","kouzui":"025-244-5539","gake":"http://www.haga-clinic.com","takashio":"×","jishin":"〇","tsunami":"心臓血管外科内科","kaji":"新潟市民病院（新潟県新潟市中央区鐘木463番地7）","naisui":"","kazan":""}}
,{"type":"Feature","geometry":{"type":"Point","coordinates":[139.04134,37.90234]},"properties":{"Name":"杉村クリニック","Jusho":"新潟県新潟市中央区新和1丁目3-29","kouzui":"025-385-7580","gake":"https://www.sugimura-clinic.jp/","takashio":"×","jishin":"〇","tsunami":"内科消化器内科","kaji":"","naisui":"","kazan":""}}
,{"type":"Feature","geometry":{"type":"Point","coordinates":[139.02368,37.9004]},"properties":{"Name":"なかやま眼科","Jusho":"新潟県新潟市中央区出来島1-6-1","kouzui":"025-281-1066","gake":"","takashio":"〇","jishin":"〇","tsunami":"眼科","kaji":"","naisui":"","kazan":""}}
,{"type":"Feature","geometry":{"type":"Point","coordinates":[139.0394,37.87547]},"properties":{"Name":"猫山宮尾病院","Jusho":"新潟県新潟市中央区湖南14-7","kouzui":"025-282-2323","gake":"https://www.nekoyama.jp/","takashio":"×","jishin":"〇","tsunami":"内科","kaji":"","naisui":"","kazan":""}}
,{"type":"Feature","geometry":{"type":"Point","coordinates":[139.05299,37.91497]},"properties":{"Name":"新潟万代病院","Jusho":"新潟県新潟市中央区八千代2-2-8","kouzui":"025-244-4700","gake":"http://www.n-bandaihp.com","takashio":"×","jishin":"〇","tsunami":"内科整形外科眼科産婦人科","kaji":"","naisui":"","kazan":""}}
,{"type":"Feature","geometry":{"type":"Point","coordinates":[139.05754,37.89898]},"properties":{"Name":"よいこの小児科さとう","Jusho":"新潟県新潟市中央区神道寺1-5-47","kouzui":"025-242-2525","gake":"http://www.e-yoiko.com","takashio":"〇","jishin":"〇","tsunami":"小児科","kaji":"","naisui":"","kazan":""}}
,{"type":"Feature","geometry":{"type":"Point","coordinates":[139.06044,37.91534]},"properties":{"Name":"にいがた在宅診療所","Jusho":"新潟県新潟市中央区東大通2-5-1カープ新潟ビル4F","kouzui":"025-247-1221","gake":"","takashio":"×","jishin":"〇","tsunami":"内科","kaji":"","naisui":"","kazan":""}}
,{"type":"Feature","geometry":{"type":"Point","coordinates":[139.04941,37.90991]},"properties":{"Name":"岡田内科医院","Jusho":"新潟県新潟市中央区幸町7-25","kouzui":"025-244-1367","gake":"http://okada-medical-clinic.la.coocan.jp/","takashio":"×","jishin":"〇","tsunami":"内科","kaji":"","naisui":"","kazan":""}}
,{"type":"Feature","geometry":{"type":"Point","coordinates":[139.03896,37.86852]},"properties":{"Name":"うえの内科外科クリニック","Jusho":"新潟県新潟市江南区鐘木579-2","kouzui":"025-280-0808","gake":"","takashio":"〇","jishin":"〇","tsunami":"内科","kaji":"","naisui":"","kazan":""}}
,{"type":"Feature","geometry":{"type":"Point","coordinates":[139.09586,37.86636]},"properties":{"Name":"こんの脳神経クリニック","Jusho":"新潟県新潟市江南区泉町1-2-30","kouzui":"025-383-1355","gake":"http://www.konno-clinic.com/","takashio":"〇","jishin":"〇","tsunami":"脳神経外科","kaji":"新潟市民病院（新潟市中央区鐘木63-7)亀田第一病院（新潟市江南区西町2-5-22)","naisui":"","kazan":""}}
,{"type":"Feature","geometry":{"type":"Point","coordinates":[139.14165,37.85625]},"properties":{"Name":"吉田医院","Jusho":"新潟県新潟市江南区茜ヶ丘2番1号","kouzui":"025-385-3131","gake":"","takashio":"×","jishin":"〇","tsunami":"内科","kaji":"亀田第一病院（新潟県新潟市江南区西町2-5-22）","naisui":"","kazan":""}}
,{"type":"Feature","geometry":{"type":"Point","coordinates":[139.09778,37.83862]},"properties":{"Name":"佐藤医院","Jusho":"新潟県新潟市江南区割野666","kouzui":"025-280-2413","gake":"","takashio":"〇","jishin":"〇","tsunami":"内科小児科","kaji":"新潟市民病院（新潟県新潟市中央区鐘木463-7）亀田第一病院（新潟県新潟市江南区西町2-5-22）下越病院（新潟県新潟市秋葉区東金沢1459-1）","naisui":"","kazan":""}}
,{"type":"Feature","geometry":{"type":"Point","coordinates":[139.12675,37.86039]},"properties":{"Name":"発達クリニックぱすてる","Jusho":"新潟県新潟市江南区曙町3丁目4-9","kouzui":"025-288-7200","gake":"http://clinic-pasuteru.com/","takashio":"×","jishin":"〇","tsunami":"児童精神科神経小児科","kaji":"","naisui":"","kazan":""}}
,{"type":"Feature","geometry":{"type":"Point","coordinates":[139.10945,37.87871]},"properties":{"Name":"かめだ泌尿器科クリニック","Jusho":"新潟県新潟市江南区亀田向陽3-2-29","kouzui":"025-385-8500","gake":"https://kameda-urology.jp/","takashio":"×","jishin":"〇","tsunami":"泌尿器科","kaji":"","naisui":"","kazan":""}}
,{"type":"Feature","geometry":{"type":"Point","coordinates":[139.11438,37.87581]},"properties":{"Name":"ゆきよしクリニック","Jusho":"新潟県新潟市江南区稲葉1-4-3","kouzui":"025-382-3450","gake":"http://www.rnhj.jp/","takashio":"〇","jishin":"〇","tsunami":"整形外科リハビリテーション科","kaji":"亀田第一病院（新潟県新潟市江南区）丸山診療所（新潟県新潟市江南区）","naisui":"","kazan":""}}
,{"type":"Feature","geometry":{"type":"Point","coordinates":[139.11021,37.87438]},"properties":{"Name":"かめだ在宅診療所","Jusho":"新潟県新潟市江南区諏訪1丁目2-7","kouzui":"025-250-6501","gake":"","takashio":"×","jishin":"〇","tsunami":"内科","kaji":"","naisui":"","kazan":""}}
,{"type":"Feature","geometry":{"type":"Point","coordinates":[139.09723,37.87002]},"properties":{"Name":"ささがわ小児科クリニック","Jusho":"新潟県新潟市江南区亀田四ツ興野2-5-14","kouzui":"025-383-5500","gake":"http://www.sasagawa-syounika.com/","takashio":"〇","jishin":"〇","tsunami":"小児科アレルギー科","kaji":"新潟市民病院（新潟県新潟市中央区鐘木463番地7）","naisui":"","kazan":""}}
,{"type":"Feature","geometry":{"type":"Point","coordinates":[139.11736,37.86331]},"properties":{"Name":"横田内科医院","Jusho":"新潟県新潟市江南区袋津5-4-25","kouzui":"025-381-2729","gake":"","takashio":"〇","jishin":"〇","tsunami":"内科呼吸器内科","kaji":"新潟市民病院（新潟市中央区鐘木463-7）済生会新潟病院（新潟市西区寺地280-7）","naisui":"","kazan":""}}
,{"type":"Feature","geometry":{"type":"Point","coordinates":[139.10402,37.87506]},"properties":{"Name":"医療法人愛仁会亀田第一病院","Jusho":"新潟県新潟市江南区西町2丁目5番22号","kouzui":"025-382-3111","gake":"http://ijn.or.jp","takashio":"×","jishin":"〇","tsunami":"内科外科産婦人科","kaji":"","naisui":"","kazan":""}}
,{"type":"Feature","geometry":{"type":"Point","coordinates":[139.14519,37.85365]},"properties":{"Name":"新津産科婦人科クリニック","Jusho":"新潟県新潟市江南区横越中央7丁目1番7号","kouzui":"025-384-4103","gake":"http://www.sankafujinka.jp/","takashio":"×","jishin":"〇","tsunami":"産科婦人科","kaji":"新潟市民病院（新潟市中央区鐘木463-7）新潟大学医歯学総合病院（新潟市中央区旭町通1番町754）","naisui":"","kazan":""}}
,{"type":"Feature","geometry":{"type":"Point","coordinates":[139.11021,37.87438]},"properties":{"Name":"かめだ在宅診療所","Jusho":"新潟県新潟市江南区諏訪1丁目2-7","kouzui":"025-250-6501","gake":"","takashio":"×","jishin":"〇","tsunami":"内科","kaji":"","naisui":"","kazan":""}}
,{"type":"Feature","geometry":{"type":"Point","coordinates":[139.14175,37.80117]},"properties":{"Name":"りんどう川野眼科","Jusho":"新潟県新潟市秋葉区新津東町2-4-29","kouzui":"0250-22-1010","gake":"","takashio":"×","jishin":"〇","tsunami":"眼科","kaji":"","naisui":"","kazan":""}}
,{"type":"Feature","geometry":{"type":"Point","coordinates":[139.11523,37.83826]},"properties":{"Name":"佐藤医院荻川診療所","Jusho":"新潟県新潟市秋葉区中野2-8-8","kouzui":"0250-22-1203","gake":"","takashio":"〇","jishin":"〇","tsunami":"内科小児科","kaji":"新潟市民病院（新潟県新潟市中央区鐘木463-7）亀田第一病院（新潟県新潟市江南区西町2-5-22）下越病院（新潟県新潟市秋葉区東金沢1459-1）","naisui":"","kazan":""}}
,{"type":"Feature","geometry":{"type":"Point","coordinates":[139.12833,37.79924]},"properties":{"Name":"小出耳鼻咽喉科","Jusho":"新潟県新潟市秋葉区新町1-5-25","kouzui":"0250-22-0202","gake":"","takashio":"〇","jishin":"〇","tsunami":"耳鼻咽喉科","kaji":"新潟市民病院（新潟市中央区鐘木463-7）","naisui":"","kazan":""}}
,{"type":"Feature","geometry":{"type":"Point","coordinates":[139.14378,37.80426]},"properties":{"Name":"かえつクリニック","Jusho":"新潟県新潟市秋葉区新津東町3-4-28","kouzui":"0250-22-5888","gake":"http://niigata-min.or.jp/kaetsuclinic/","takashio":"×","jishin":"〇","tsunami":"糖尿病内科循環器内科消化器内科呼吸器内科内科","kaji":"下越病院（新潟県新潟市秋葉区東金沢1459-1）","naisui":"","kazan":""}}
,{"type":"Feature","geometry":{"type":"Point","coordinates":[139.14566,37.80369]},"properties":{"Name":"下越病院","Jusho":"新潟県新潟市秋葉区東金沢1459番地1","kouzui":"0250-22-4711","gake":"http://niigata-min.or.jp/kaetsu/","takashio":"×","jishin":"〇","tsunami":"消化器内科循環器内科呼吸器内科総合診療科糖尿病内科内科神経内科リハビリテーション科小児科外科整形外科","kaji":"","naisui":"","kazan":""}}
,{"type":"Feature","geometry":{"type":"Point","coordinates":[139.12231,37.79755]},"properties":{"Name":"小島耳鼻咽喉科医院","Jusho":"新潟県新潟市秋葉区新津本町1-3-10","kouzui":"0250-22-1047","gake":"http://www.kojima-jibika.jp/","takashio":"〇","jishin":"〇","tsunami":"耳鼻咽喉科","kaji":"","naisui":"","kazan":""}}
,{"type":"Feature","geometry":{"type":"Point","coordinates":[139.02061,37.83782]},"properties":{"Name":"KOYANAGI真柄CLINIC","Jusho":"新潟県新潟市南区鷲ノ木新田5724-1","kouzui":"025-377-2011","gake":"https://www.km-c.org/","takashio":"〇","jishin":"〇","tsunami":"内科循環器内科呼吸器内科","kaji":"","naisui":"","kazan":""}}
,{"type":"Feature","geometry":{"type":"Point","coordinates":[139.01598,37.76015]},"properties":{"Name":"水戸部クリニック","Jusho":"新潟県新潟市南区上下諏訪木731-1","kouzui":"025-372-0755","gake":"https://miotbe-clinic.com/","takashio":"〇","jishin":"〇","tsunami":"内科漢方内科","kaji":"","naisui":"","kazan":""}}
,{"type":"Feature","geometry":{"type":"Point","coordinates":[139.01239,37.76157]},"properties":{"Name":"田邉医院","Jusho":"新潟県新潟市南区白根3052番地","kouzui":"025-372-2076","gake":"","takashio":"〇","jishin":"〇","tsunami":"内科","kaji":"","naisui":"","kazan":""}}
,{"type":"Feature","geometry":{"type":"Point","coordinates":[139.01465,37.76502]},"properties":{"Name":"耳鼻咽喉科和田医院","Jusho":"新潟県新潟市南区白根魚町2-21","kouzui":"025-372-3806","gake":"","takashio":"×","jishin":"〇","tsunami":"耳鼻咽喉科","kaji":"","naisui":"","kazan":""}}
,{"type":"Feature","geometry":{"type":"Point","coordinates":[139.04105,37.79798]},"properties":{"Name":"広川医院","Jusho":"新潟県新潟市南区西笠巻66-2","kouzui":"035-373-3221","gake":"","takashio":"〇","jishin":"〇","tsunami":"内科","kaji":"","naisui":"","kazan":""}}
,{"type":"Feature","geometry":{"type":"Point","coordinates":[139.00253,37.89499]},"properties":{"Name":"わたなべ内科青山クリニック","Jusho":"新潟県新潟市西区青山1-2-21","kouzui":"025-232-5588","gake":"https://watanabe-aoyama.com","takashio":"×","jishin":"〇","tsunami":"内科消化器内科循環器内科呼吸器内科アレルギー科","kaji":"新潟医療センター（新潟県新潟市小針3-27-11)西新潟中央病院（新潟市西区真砂1-14-1)済生会新潟病院（新潟市西区寺地280-7)日本歯科大学医科病院（新潟市中央区浜浦町1-8)新潟市民病院（新潟市中央区鐘木463-7)","naisui":"","kazan":""}}
,{"type":"Feature","geometry":{"type":"Point","coordinates":[138.9565,37.86801]},"properties":{"Name":"木村内科医院","Jusho":"新潟県新潟市西区坂井865-2","kouzui":"025-260-7770","gake":"","takashio":"×","jishin":"〇","tsunami":"内科","kaji":"木村内科医院（新潟県新潟市西区坂井865-2）","naisui":"","kazan":""}}
,{"type":"Feature","geometry":{"type":"Point","coordinates":[138.99786,37.88549]},"properties":{"Name":"月岡内科医院","Jusho":"新潟県新潟市西区小針4-4-1","kouzui":"025-234-1666","gake":"","takashio":"〇","jishin":"〇","tsunami":"内科呼吸器科アレルギー科","kaji":"済生会新潟病院（新潟市西区寺地280-7)新潟医療センター（新潟市西区小針3-27-11)西新潟中央病院（新潟市西区真砂1-14-1)","naisui":"","kazan":""}}
,{"type":"Feature","geometry":{"type":"Point","coordinates":[138.98177,37.87726]},"properties":{"Name":"前田内科クリニック","Jusho":"新潟県新潟市西区坂井東2-2-29","kouzui":"025-268-1108","gake":"","takashio":"〇","jishin":"〇","tsunami":"内科","kaji":"新潟市民病院（新潟県新潟市中央区鐘木463-7）","naisui":"","kazan":""}}
,{"type":"Feature","geometry":{"type":"Point","coordinates":[139.00418,37.90015]},"properties":{"Name":"築井医院","Jusho":"新潟県新潟市西区浦山1-3-30","kouzui":"025-266-5353","gake":"https://tsukuiiin.com","takashio":"〇","jishin":"〇","tsunami":"内科小児科","kaji":"済生会新潟病院（新潟県新潟市西区寺地280-7）西新潟中央病院（新潟県新潟市西区真砂1-14-1）","naisui":"","kazan":""}}
,{"type":"Feature","geometry":{"type":"Point","coordinates":[138.99117,37.88006]},"properties":{"Name":"なごや小児科医院","Jusho":"新潟県新潟市西区小針7-10-13","kouzui":"025-231-1007","gake":"","takashio":"×","jishin":"〇","tsunami":"小児科","kaji":"","naisui":"","kazan":""}}
,{"type":"Feature","geometry":{"type":"Point","coordinates":[138.95044,37.85991]},"properties":{"Name":"新通あけみ皮膚科医院","Jusho":"新潟県新潟市西区新通1052-13","kouzui":"025-211-0112","gake":"","takashio":"×","jishin":"〇","tsunami":"皮膚科","kaji":"","naisui":"","kazan":""}}
,{"type":"Feature","geometry":{"type":"Point","coordinates":[138.99841,37.88776]},"properties":{"Name":"新潟県厚生連新潟医療センター","Jusho":"新潟県新潟市西区小針3-27-11","kouzui":"025-232-0111","gake":"http://www.niigata-medical.jp/","takashio":"×","jishin":"〇","tsunami":"内科呼吸器内科循環器内科消化器内科内分泌糖尿病内科脳神経内科外科整形外科脳神経外科形成外科小児科皮膚科","kaji":"","naisui":"","kazan":""}}
,{"type":"Feature","geometry":{"type":"Point","coordinates":[138.9729,37.88907]},"properties":{"Name":"新潟信愛病院","Jusho":"新潟県新潟市西区上新栄町1-1-1","kouzui":"025-269-4101","gake":"http://www.sin-ai.jp/hospital_ngt/index.html","takashio":"×","jishin":"〇","tsunami":"精神科","kaji":"","naisui":"","kazan":""}}
,{"type":"Feature","geometry":{"type":"Point","coordinates":[138.97514,37.88733]},"properties":{"Name":"大島内科医院","Jusho":"新潟県新潟市西区松海が丘1-12-12","kouzui":"025-201-3333","gake":"https://itp.ne.jp/info/153760324106931190/","takashio":"×","jishin":"〇","tsunami":"内科","kaji":"","naisui":"","kazan":""}}
,{"type":"Feature","geometry":{"type":"Point","coordinates":[138.96033,37.87466]},"properties":{"Name":"はにゅうクリニック","Jusho":"新潟県新潟市西区五十嵐東1-1-15","kouzui":"025-201-6551","gake":"http://www.hanyuclinic.com","takashio":"×","jishin":"〇","tsunami":"内科眼科","kaji":"","naisui":"","kazan":""}}
,{"type":"Feature","geometry":{"type":"Point","coordinates":[138.96129,37.86997]},"properties":{"Name":"はせがわクリニック","Jusho":"新潟県新潟市西区坂井952-3","kouzui":"025-260-2222","gake":"https://www.h-naikaryumachi.com","takashio":"×","jishin":"〇","tsunami":"内科","kaji":"信楽園病院（新潟市西区新通南3-3-11）","naisui":"","kazan":""}}
,{"type":"Feature","geometry":{"type":"Point","coordinates":[138.99928,37.8864]},"properties":{"Name":"まことクリニック","Jusho":"新潟県新潟市西区小針3-31-2","kouzui":"025-211-3939","gake":"https://makoto-cl.jp/","takashio":"×","jishin":"〇","tsunami":"心療内科精神科","kaji":"","naisui":"","kazan":""}}
,{"type":"Feature","geometry":{"type":"Point","coordinates":[138.99248,37.87084]},"properties":{"Name":"小新女性クリニック","Jusho":"新潟県新潟市西区小新南1-8-7","kouzui":"025-230-6525","gake":"http://www.kosinjosei.com","takashio":"×","jishin":"〇","tsunami":"婦人科","kaji":"済生会新潟病院（新潟市西区寺地280-7）","naisui":"","kazan":""}}
,{"type":"Feature","geometry":{"type":"Point","coordinates":[138.99959,37.89865]},"properties":{"Name":"青山内科・眼科クリニック","Jusho":"新潟県新潟市西区青山4-1-28","kouzui":"025-233-0099","gake":"https://aoyama-naikaganka.com","takashio":"〇","jishin":"〇","tsunami":"内科循環器内科","kaji":"","naisui":"","kazan":""}}
,{"type":"Feature","geometry":{"type":"Point","coordinates":[138.97307,37.87249]},"properties":{"Name":"坂井輪診療所","Jusho":"新潟県新潟市西区寺尾東3丁目8-35","kouzui":"025-269-6630","gake":"http://niigata-min.or.jp/sakaiwa/","takashio":"×","jishin":"〇","tsunami":"内科","kaji":"","naisui":"","kazan":""}}
,{"type":"Feature","geometry":{"type":"Point","coordinates":[139.00565,37.89057]},"properties":{"Name":"橋本耳鼻科クリニック","Jusho":"新潟県新潟市西区平島1-18-22","kouzui":"025-234-2277","gake":"http://jibika-hashimoto.com","takashio":"×","jishin":"〇","tsunami":"耳鼻咽喉科","kaji":"新潟市民病院（新潟市中央区鐘木463番地7）","naisui":"","kazan":""}}
,{"type":"Feature","geometry":{"type":"Point","coordinates":[139.01215,37.87078]},"properties":{"Name":"たじま内科クリニック","Jusho":"新潟県新潟市西区山田3399-1","kouzui":"025-377-1213","gake":"http://tajima-naika.com","takashio":"〇","jishin":"〇","tsunami":"内科","kaji":"済生会新潟病院（新潟県新潟市西区寺地280-7）","naisui":"","kazan":""}}
,{"type":"Feature","geometry":{"type":"Point","coordinates":[139.00784,37.87312]},"properties":{"Name":"ときめきハートクリニック","Jusho":"新潟県新潟市西区ときめき西1-1-17","kouzui":"025-370-7810","gake":"http://tok1.info/","takashio":"×","jishin":"〇","tsunami":"内科","kaji":"","naisui":"","kazan":""}}
,{"type":"Feature","geometry":{"type":"Point","coordinates":[138.98642,37.88447]},"properties":{"Name":"なかの脳神経内科クリニック","Jusho":"新潟県新潟市西区寺尾朝日通16-31","kouzui":"025-234-3663","gake":"http://www.nakano-neurology.com/","takashio":"△","jishin":"〇","tsunami":"脳神経内科内科","kaji":"","naisui":"","kazan":""}}
,{"type":"Feature","geometry":{"type":"Point","coordinates":[139.01205,37.84971]},"properties":{"Name":"のむら耳鼻咽喉科","Jusho":"新潟県新潟市西区鳥原189-3","kouzui":"025-377-7777","gake":"https://nomurajibika.jp/","takashio":"×","jishin":"〇","tsunami":"耳鼻咽喉科アレルギー科","kaji":"新潟市民病院（新潟市中央区鐘木436番地7）済生会新潟病院（新潟市西区寺地280-7）新潟大学医歯学総合病院（新潟市中央区旭町通1番町754）","naisui":"","kazan":""}}
,{"type":"Feature","geometry":{"type":"Point","coordinates":[139.01172,37.88266]},"properties":{"Name":"新潟脳外科病院","Jusho":"新潟県新潟市西区山田3057番地","kouzui":"022-231-5111","gake":"http://niigata-nogeka.or.jp","takashio":"×","jishin":"〇","tsunami":"脳神経外科","kaji":"","naisui":"","kazan":""}}
,{"type":"Feature","geometry":{"type":"Point","coordinates":[138.9962,37.87827]},"properties":{"Name":"丸山リハビリテーション診療所","Jusho":"新潟県新潟市西区小新1083番地1サンロイヤル新潟1F","kouzui":"025-233-1177","gake":"http://www.unity.or.jp/","takashio":"〇","jishin":"〇","tsunami":"内科リハビリテーション科","kaji":"新潟市民病院（新潟県新潟市中央区鐘木463-7）","naisui":"","kazan":""}}
,{"type":"Feature","geometry":{"type":"Point","coordinates":[138.8873,37.75688]},"properties":{"Name":"長沼医院","Jusho":"新潟県新潟市西蒲区巻甲2486","kouzui":"0256-72-2210","gake":"","takashio":"×","jishin":"〇","tsunami":"内科","kaji":"","naisui":"","kazan":""}}
,{"type":"Feature","geometry":{"type":"Point","coordinates":[138.89552,37.75983]},"properties":{"Name":"おおくら耳鼻科","Jusho":"新潟県新潟市西蒲区巻甲4650-1","kouzui":"0256-73-1033","gake":"http:http://www.okura-jibika.jimdofree.com","takashio":"〇","jishin":"〇","tsunami":"耳鼻咽喉科","kaji":"","naisui":"","kazan":""}}
,{"type":"Feature","geometry":{"type":"Point","coordinates":[138.88556,37.76781]},"properties":{"Name":"大西医院神経内科・内科","Jusho":"新潟県新潟市西蒲区巻甲1784-1","kouzui":"0256-70-0024","gake":"","takashio":"×","jishin":"〇","tsunami":"神経内科内科","kaji":"西新潟中央病院（新潟市西区真砂1-14-1)","naisui":"","kazan":""}}
,{"type":"Feature","geometry":{"type":"Point","coordinates":[138.89314,37.75429]},"properties":{"Name":"新潟西蒲メディカルセンター病院","Jusho":"新潟県新潟市西蒲区巻甲4368番地","kouzui":"0256-72-3111","gake":"https://www.jojinkai.com/niigata/","takashio":"×","jishin":"〇","tsunami":"内科外科脳神経外科リハビリテーション科","kaji":"","naisui":"","kazan":""}}
,{"type":"Feature","geometry":{"type":"Point","coordinates":[138.96669,37.7692]},"properties":{"Name":"潟東クリニック","Jusho":"新潟県新潟市西蒲区三方138-1","kouzui":"0256-86-1118","gake":"http://www.katahigashi-clinic.jp/","takashio":"〇","jishin":"〇","tsunami":"内科・外科","kaji":"新潟白根総合病院（新潟市南区上下諏訪木）","naisui":"","kazan":""}}
,{"type":"Feature","geometry":{"type":"Point","coordinates":[138.99493,37.48386]},"properties":{"Name":"関内科医院","Jusho":"新潟県長岡市栄町3-3-12","kouzui":"0258-52-5828","gake":"","takashio":"×","jishin":"〇","tsunami":"内科","kaji":"","naisui":"","kazan":""}}
,{"type":"Feature","geometry":{"type":"Point","coordinates":[138.85178,37.46462]},"properties":{"Name":"じゅん脳外科内科","Jusho":"新潟県長岡市泉2-4-1","kouzui":"0258-39-8155","gake":"","takashio":"〇","jishin":"〇","tsunami":"脳神経外科内科","kaji":"立川綜合病院（新潟県長岡市旭岡1-24)長岡赤十字病院（新潟県長岡市千秋2-297-1)長岡中央綜合病院（長岡市川崎町2041)","naisui":"","kazan":""}}
,{"type":"Feature","geometry":{"type":"Point","coordinates":[138.83551,37.47244]},"properties":{"Name":"戸内整形外科クリニック","Jusho":"新潟県長岡市荻野1-7-38","kouzui":"0258-27-9987","gake":"https://touchi-clinic.com/","takashio":"〇","jishin":"〇","tsunami":"整形外科","kaji":"長岡赤十字病院（新潟県長岡市千秋2-297-1)","naisui":"","kazan":""}}
,{"type":"Feature","geometry":{"type":"Point","coordinates":[138.86855,37.46163]},"properties":{"Name":"美園内科クリニック","Jusho":"新潟県長岡市美園2-4-1","kouzui":"0258-35-0333","gake":"http://misono-naka.byoinnavi.jp","takashio":"×","jishin":"〇","tsunami":"内科","kaji":"美園内科クリニック（新潟県長岡市美園2-4-1）","naisui":"","kazan":""}}
,{"type":"Feature","geometry":{"type":"Point","coordinates":[138.87686,37.54349]},"properties":{"Name":"さえき内科","Jusho":"新潟県長岡市中之島569-6","kouzui":"0258-66-8500","gake":"","takashio":"〇","jishin":"〇","tsunami":"内科循環器内科","kaji":"長岡中央綜合病院（新潟県長岡市川崎町2041)長岡赤十字病院（新潟県長岡市千秋2-297-1)立川綜合病院（新潟県長岡市旭岡1-24)","naisui":"","kazan":""}}
,{"type":"Feature","geometry":{"type":"Point","coordinates":[138.80003,37.44396]},"properties":{"Name":"新産内科クリニック","Jusho":"新潟県長岡市南七日町30-7","kouzui":"0258-47-3555","gake":"","takashio":"〇","jishin":"〇","tsunami":"内科","kaji":"長岡赤十字病院（新潟県長岡市千秋2-297-1)立川綜合病院（新潟県長岡市旭岡1-24)長岡中央綜合病院（新潟県長岡市川崎町2041)","naisui":"","kazan":""}}
,{"type":"Feature","geometry":{"type":"Point","coordinates":[138.85091,37.45862]},"properties":{"Name":"田中医院","Jusho":"新潟県長岡市中島7-1-31","kouzui":"0258-35-3377","gake":"","takashio":"〇","jishin":"〇","tsunami":"内科外科","kaji":"長岡赤十字病院（長岡市千秋2-297-1）長岡中央綜合病院（長岡市川崎2041）立川綜合病院（長岡市旭丘1-24）","naisui":"","kazan":""}}
,{"type":"Feature","geometry":{"type":"Point","coordinates":[138.85616,37.44086]},"properties":{"Name":"青柳医院","Jusho":"新潟県長岡市四郎丸2-4-12","kouzui":"0258-32-3118","gake":"","takashio":"〇","jishin":"〇","tsunami":"内科","kaji":"青柳医院（新潟県長岡市四郎丸2-4-12）","naisui":"","kazan":""}}
,{"type":"Feature","geometry":{"type":"Point","coordinates":[138.77425,37.44757]},"properties":{"Name":"わきや医院","Jusho":"新潟県長岡市関原南2丁目4122-1","kouzui":"0258-47-1122","gake":"","takashio":"〇","jishin":"〇","tsunami":"内科循環器内科","kaji":"","naisui":"","kazan":""}}
,{"type":"Feature","geometry":{"type":"Point","coordinates":[138.85333,37.46091]},"properties":{"Name":"医療法人社団野々村医院","Jusho":"新潟県長岡市石内1丁目1-1","kouzui":"0258-32-8733","gake":"http://nonomuraiin.jp/","takashio":"×","jishin":"〇","tsunami":"耳鼻咽喉科","kaji":"","naisui":"","kazan":""}}
,{"type":"Feature","geometry":{"type":"Point","coordinates":[138.8434,37.44015]},"properties":{"Name":"医療法人社団鈴木内科医院","Jusho":"新潟県長岡市千手1丁目8番6号","kouzui":"0258-35-6946","gake":"","takashio":"×","jishin":"〇","tsunami":"内科","kaji":"","naisui":"","kazan":""}}
,{"type":"Feature","geometry":{"type":"Point","coordinates":[138.86278,37.42896]},"properties":{"Name":"おくむら耳鼻科クリニック","Jusho":"新潟県長岡市花園南1丁目64番地","kouzui":"0258-89-6088","gake":"","takashio":"×","jishin":"〇","tsunami":"耳鼻咽喉科アレルギー科","kaji":"長岡赤十字病院（新潟県長岡市千秋2丁目297番地1）","naisui":"","kazan":""}}
,{"type":"Feature","geometry":{"type":"Point","coordinates":[138.85915,37.43999]},"properties":{"Name":"長岡皮フ科・形成外科医院","Jusho":"新潟県長岡市学校町1-9-20","kouzui":"0258-30-1577","gake":"http://www.sakurakeisei.com","takashio":"〇","jishin":"〇","tsunami":"形成外科皮膚科","kaji":"","naisui":"","kazan":""}}
,{"type":"Feature","geometry":{"type":"Point","coordinates":[138.86196,37.49372]},"properties":{"Name":"黒条内科消化器クリニック","Jusho":"新潟県長岡市下の条町2836-1","kouzui":"0258-24-4976","gake":"http://kurojonaika.byoinnavi.jp/pc","takashio":"×","jishin":"〇","tsunami":"内科小児科","kaji":"長岡赤十字病院（長岡市千秋2-297-1）長岡中央綜合病院（長岡市川崎2041）立川綜合病院（長岡市旭丘1-24）","naisui":"","kazan":""}}
,{"type":"Feature","geometry":{"type":"Point","coordinates":[138.8662,37.46209]},"properties":{"Name":"中村整形外科医院","Jusho":"新潟県長岡市川崎町779-1","kouzui":"0258-36-7677","gake":"","takashio":"〇","jishin":"〇","tsunami":"整形外科","kaji":"長岡市内の各医療機関","naisui":"","kazan":""}}
,{"type":"Feature","geometry":{"type":"Point","coordinates":[138.84601,37.43533]},"properties":{"Name":"ながおか心のクリニック","Jusho":"新潟県長岡市千歳1-3-42","kouzui":"0258-38-5001","gake":"","takashio":"×","jishin":"〇","tsunami":"精神科心療内科内科","kaji":"","naisui":"","kazan":""}}
,{"type":"Feature","geometry":{"type":"Point","coordinates":[138.86499,37.4402]},"properties":{"Name":"ふくはら内科クリニック","Jusho":"新潟県長岡市美沢2-57-8","kouzui":"0258-36-0047","gake":"https://fukuharanaika.com/","takashio":"×","jishin":"〇","tsunami":"内科消化器科","kaji":"","naisui":"","kazan":""}}
,{"type":"Feature","geometry":{"type":"Point","coordinates":[138.82228,37.4504]},"properties":{"Name":"さいとう医院","Jusho":"新潟県長岡市緑町1-38-56","kouzui":"0258-28-1151","gake":"","takashio":"×","jishin":"〇","tsunami":"内科","kaji":"長岡赤十字病院（長岡市千秋2-297-1）長岡中央綜合病院（長岡市川崎2041）","naisui":"","kazan":""}}
,{"type":"Feature","geometry":{"type":"Point","coordinates":[138.85493,37.42966]},"properties":{"Name":"高橋内科医院","Jusho":"新潟県長岡市豊田町7-10","kouzui":"0258-36-5666","gake":"","takashio":"〇","jishin":"〇","tsunami":"内科","kaji":"長岡中央綜合病院（新潟県長岡市川崎町2041）","naisui":"","kazan":""}}
,{"type":"Feature","geometry":{"type":"Point","coordinates":[138.8372733,37.4759642]},"properties":{"Name":"江陽高田医院","Jusho":"新潟県新潟市県長岡市藤沢1-8-17","kouzui":"0258-28-1835","gake":"https://koyotakata.com/","takashio":"〇","jishin":"〇","tsunami":"内科","kaji":"長岡赤十字病院（新潟県長岡市千秋2-297-1）","naisui":"","kazan":""}}
,{"type":"Feature","geometry":{"type":"Point","coordinates":[138.82437,37.45057]},"properties":{"Name":"医療法人社団髙木内科クリニック","Jusho":"新潟県長岡市緑町1丁目37-2","kouzui":"0258-21-3500","gake":"http://www.takaki-naika.com","takashio":"×","jishin":"〇","tsunami":"内科糖尿病内科","kaji":"長岡赤十字病院（長岡市千秋2丁目297番地1）長岡中央綜合病院（長岡市川崎町2041番地）立川綜合病院（長岡市旭丘1丁目24番地）","naisui":"","kazan":""}}
,{"type":"Feature","geometry":{"type":"Point","coordinates":[138.81923,37.44548]},"properties":{"Name":"笹川眼科","Jusho":"新潟県長岡市大島本町5-113","kouzui":"0258-28-5005","gake":"https://www.sasagawa-ganka.jp/","takashio":"〇","jishin":"〇","tsunami":"眼科","kaji":"","naisui":"","kazan":""}}
,{"type":"Feature","geometry":{"type":"Point","coordinates":[138.82166,37.45523]},"properties":{"Name":"おくがわ小児クリニック","Jusho":"新潟県長岡市古正寺1-2838","kouzui":"0258-28-3111","gake":"https://www2.i-helios-net.com/pc/hw2_pc_login.php?MID=8472&portal=bnavi","takashio":"〇","jishin":"〇","tsunami":"小児科","kaji":"長岡赤十字病院（新潟県長岡市千秋2丁目297番地1）長岡中央綜合病院（新潟県長岡市川崎町2041番地）立川綜合病院（新潟県長岡市旭岡1丁目24番地）","naisui":"","kazan":""}}
,{"type":"Feature","geometry":{"type":"Point","coordinates":[138.77997,37.436]},"properties":{"Name":"悠遊健康村病院","Jusho":"新潟県長岡市大字日越337番地","kouzui":"0248-47-8500","gake":"https://www.tatikawa.or.jp/yuuyuu/","takashio":"×","jishin":"〇","tsunami":"内科精神科神経内科整形外科リハビリテーション科形成外科","kaji":"立川綜合病院（新潟県長岡市旭岡1丁目24番地）","naisui":"","kazan":""}}
,{"type":"Feature","geometry":{"type":"Point","coordinates":[138.84497,37.4438]},"properties":{"Name":"江部医院","Jusho":"新潟県長岡市千手3-1-12","kouzui":"0258-32-0971","gake":"http://ebe-clinic-nagaoka.jp/","takashio":"×","jishin":"〇","tsunami":"内科","kaji":"長岡赤十字病院（新潟県長岡市千秋2-297-1）立川綜合病院（新潟県長岡市旭岡1-24）","naisui":"","kazan":""}}
,{"type":"Feature","geometry":{"type":"Point","coordinates":[138.89002,37.32629]},"properties":{"Name":"長岡市山古志診療所","Jusho":"新潟県長岡市山古志竹沢甲2835","kouzui":"0258-59-3807","gake":"","takashio":"〇","jishin":"〇","tsunami":"内科","kaji":"","naisui":"","kazan":""}}
,{"type":"Feature","geometry":{"type":"Point","coordinates":[138.92727,37.35398]},"properties":{"Name":"長岡市種苧原診療所","Jusho":"新潟県長岡市山古志種苧原2676-1","kouzui":"0258-59-3032","gake":"","takashio":"〇","jishin":"〇","tsunami":"内科","kaji":"","naisui":"","kazan":""}}
,{"type":"Feature","geometry":{"type":"Point","coordinates":[138.8867921,37.3411659]},"properties":{"Name":"長岡市虫亀診療所","Jusho":"新潟県長岡市虫亀966-1","kouzui":"0258-59-2267","gake":"","takashio":"〇","jishin":"〇","tsunami":"内科","kaji":"","naisui":"","kazan":""}}
,{"type":"Feature","geometry":{"type":"Point","coordinates":[138.87727,37.45176]},"properties":{"Name":"新潟県厚生農業協同組合連合会長岡中央綜合病院","Jusho":"新潟県長岡市川崎町2041番地","kouzui":"②0258-35-3700","gake":"https://www.nagachu.jp/","takashio":"×","jishin":"〇","tsunami":"内科神経内科小児科外科脳神経外科産婦人科耳鼻咽喉科眼科整形外科形成外科皮膚科泌尿器科呼吸器外科心臓血管外科","kaji":"","naisui":"","kazan":""}}
,{"type":"Feature","geometry":{"type":"Point","coordinates":[138.82174,37.61505]},"properties":{"Name":"長岡市国民健康保険寺泊診療所","Jusho":"新潟県長岡市寺泊敦ケ曽根605-1","kouzui":"0256-97-2359","gake":"","takashio":"×","jishin":"△","tsunami":"内科","kaji":"","naisui":"","kazan":""}}
,{"type":"Feature","geometry":{"type":"Point","coordinates":[138.82837,37.45837]},"properties":{"Name":"長岡赤十字病院","Jusho":"新潟県長岡市千秋2丁目297番地1","kouzui":"0258-28-3600","gake":"http://www.nagaoka.jrc.or.jp/contents/","takashio":"×","jishin":"△","tsunami":"内科精神科神経内科小児科外科整形外科脳神経外科心臓血管外科小児外科皮膚科泌尿器科婦人科眼科耳鼻咽喉科歯科口腔外科形成外科","kaji":"","naisui":"","kazan":""}}
,{"type":"Feature","geometry":{"type":"Point","coordinates":[138.97656,37.63969]},"properties":{"Name":"阿部内科・消化器科医院","Jusho":"新潟県三条市塚野目4-20-30","kouzui":"0256-39-1133","gake":"","takashio":"×","jishin":"〇","tsunami":"内科消化器科","kaji":"","naisui":"","kazan":""}}
,{"type":"Feature","geometry":{"type":"Point","coordinates":[138.94791,37.61572]},"properties":{"Name":"篠田耳鼻咽喉科医院","Jusho":"新潟県三条市東本成寺21-38","kouzui":"0256-33-5875","gake":"http://sinoda-jibika.com/","takashio":"×","jishin":"〇","tsunami":"耳鼻咽喉科","kaji":"","naisui":"","kazan":""}}
,{"type":"Feature","geometry":{"type":"Point","coordinates":[138.98795,37.62196]},"properties":{"Name":"吉沢医院","Jusho":"新潟県三条市西大崎1-9-28","kouzui":"0256-38-3961","gake":"","takashio":"〇","jishin":"×","tsunami":"内科小児科","kaji":"","naisui":"","kazan":""}}
,{"type":"Feature","geometry":{"type":"Point","coordinates":[138.94724,37.62622]},"properties":{"Name":"むとう医院","Jusho":"新潟県三条市島田2-8-12","kouzui":"0256-34-6368","gake":"http://muto-clinic.com","takashio":"×","jishin":"〇","tsunami":"内科アレルギー科","kaji":"","naisui":"","kazan":""}}
,{"type":"Feature","geometry":{"type":"Point","coordinates":[138.94955,37.61525]},"properties":{"Name":"山口医院","Jusho":"新潟県三条市東本成寺12番1号","kouzui":"0256-46-8537","gake":"","takashio":"×","jishin":"〇","tsunami":"内科","kaji":"済生会三条病院（新潟県三条市大野畑6-18）三条総合病院（新潟県三条市塚目5-1-6）","naisui":"","kazan":""}}
,{"type":"Feature","geometry":{"type":"Point","coordinates":[138.9838,37.64065]},"properties":{"Name":"こころのケア三条クリニック","Jusho":"新潟県三条市鶴田2-1-10","kouzui":"0256-46-0911","gake":"https://www.kokoro-sanjo.com/","takashio":"〇","jishin":"〇","tsunami":"心療内科精神科","kaji":"","naisui":"","kazan":""}}
,{"type":"Feature","geometry":{"type":"Point","coordinates":[138.95578,37.62922]},"properties":{"Name":"坪井内科医院","Jusho":"新潟県三条市本町3-6-14","kouzui":"0256-33-1241","gake":"","takashio":"×","jishin":"〇","tsunami":"内科","kaji":"","naisui":"","kazan":""}}
,{"type":"Feature","geometry":{"type":"Point","coordinates":[138.95369,37.63396]},"properties":{"Name":"医療法人社団藤崎医院","Jusho":"新潟県三条市西裏館1-8-8","kouzui":"0256-32-1753","gake":"https://www.fujisakiiin.com","takashio":"×","jishin":"〇","tsunami":"耳鼻咽喉科","kaji":"三之町病院（新潟県三条市本町5丁目2番30号）新潟市民病院（新潟県新潟市中央区鐘木463番地7）長岡赤十字病院（新潟県長岡市千秋2丁目297番地1）","naisui":"","kazan":""}}
,{"type":"Feature","geometry":{"type":"Point","coordinates":[138.97275,37.6408]},"properties":{"Name":"新潟県厚生連三条総合病院","Jusho":"新潟県三条市塚野目五丁目1番62号","kouzui":"0256-32-1131","gake":"https://www.kouseiren-sanjo.jp/","takashio":"×","jishin":"〇","tsunami":"内科小児科外科産婦人科耳鼻咽喉科眼科整形外科皮膚科泌尿器科歯科口腔外科","kaji":"","naisui":"","kazan":""}}
,{"type":"Feature","geometry":{"type":"Point","coordinates":[138.9586,37.62418]},"properties":{"Name":"坂内小児科医院","Jusho":"新潟県三条市南新保1-3","kouzui":"0256-35-6633","gake":"http://www.sakauchi-clinic.com","takashio":"〇","jishin":"〇","tsunami":"小児科","kaji":"済生会三条病院（新潟県三条市大野畑6-18）","naisui":"","kazan":""}}
,{"type":"Feature","geometry":{"type":"Point","coordinates":[138.97072,37.63333]},"properties":{"Name":"富永草野クリニック","Jusho":"新潟県三条市興野2-11-28","kouzui":"0256-32-0669","gake":"https://www.shihatsudo.or.jp/clinic/","takashio":"×","jishin":"〇","tsunami":"整形外科循環器内科リウマチ科形成外科","kaji":"","naisui":"","kazan":""}}
,{"type":"Feature","geometry":{"type":"Point","coordinates":[138.55576,37.36655]},"properties":{"Name":"駅前クリニック前畑医院","Jusho":"新潟県柏崎市駅前2-2-3","kouzui":"0257-32-1700","gake":"","takashio":"〇","jishin":"〇","tsunami":"内科","kaji":"柏崎総合医療センター（新潟県柏崎市北半田2-11-3）","naisui":"","kazan":""}}
,{"type":"Feature","geometry":{"type":"Point","coordinates":[138.55397,37.37065]},"properties":{"Name":"医療法人社団宮尾医院","Jusho":"新潟県柏崎市東本町1-4-29","kouzui":"0257-23-5768","gake":"","takashio":"×","jishin":"〇","tsunami":"産婦人科","kaji":"柏崎総合医療センター（新潟県柏崎市北半田2-11-3）","naisui":"","kazan":""}}
,{"type":"Feature","geometry":{"type":"Point","coordinates":[138.55244,37.37015]},"properties":{"Name":"おぎた小児科医院","Jusho":"新潟県柏崎市西本町1-4-34","kouzui":"0257-22-2457","gake":"http://www.kisnet.or.jp/ogital/","takashio":"〇","jishin":"〇","tsunami":"小児科","kaji":"柏崎総合医療センター（新潟県柏崎市北半田2-11-3）国立病院機構新潟病院（新潟県柏崎市赤坂町3番52号）","naisui":"","kazan":""}}
,{"type":"Feature","geometry":{"type":"Point","coordinates":[138.57417,37.37335]},"properties":{"Name":"医療法人社団木村内科循環器科医院","Jusho":"新潟県柏崎市松美1-1-35","kouzui":"0257-22-1220","gake":"","takashio":"×","jishin":"〇","tsunami":"内科循環器内科","kaji":"柏崎総合医療センター（新潟県柏崎市北半田2-11-3）","naisui":"","kazan":""}}
,{"type":"Feature","geometry":{"type":"Point","coordinates":[138.55307,37.35216]},"properties":{"Name":"関病院","Jusho":"新潟県柏崎市元城町1番42号","kouzui":"0257-23-4314","gake":"http://www.meiseikai-mc.com/","takashio":"×","jishin":"〇","tsunami":"精神科","kaji":"","naisui":"","kazan":""}}
,{"type":"Feature","geometry":{"type":"Point","coordinates":[138.63895,37.22414]},"properties":{"Name":"柏崎市国民健康保険高柳診療所","Jusho":"新潟県柏崎市高柳町岡野町1849-1","kouzui":"0257-41-2025","gake":"","takashio":"〇","jishin":"〇","tsunami":"内科","kaji":"柏崎総合医療センター（新潟県柏崎市北半田）","naisui":"","kazan":""}}
,{"type":"Feature","geometry":{"type":"Point","coordinates":[138.57149,37.36433]},"properties":{"Name":"本間内科医院","Jusho":"新潟県柏崎市北半田1-1-48","kouzui":"0257-22-9282","gake":"http://www.kisnet.or.jp/honmaiin/honma.html","takashio":"×","jishin":"〇","tsunami":"内科","kaji":"","naisui":"","kazan":""}}
,{"type":"Feature","geometry":{"type":"Point","coordinates":[138.66334,37.35648]},"properties":{"Name":"柏崎市国民健康保険北条診療所","Jusho":"新潟県柏崎市大字大広田93番地","kouzui":"0257-25-3215","gake":"https://www.city.kashiwazaki.lg.jp/","takashio":"〇","jishin":"〇","tsunami":"内科神経内科","kaji":"柏崎総合医療センター（新潟県柏崎市北半田2丁目11-3）国立病院機構新潟病院（新潟県柏崎市赤坂町3-52）","naisui":"","kazan":""}}
,{"type":"Feature","geometry":{"type":"Point","coordinates":[138.57748,37.36219]},"properties":{"Name":"柏崎総合医療センター","Jusho":"新潟県柏崎市北半田2-11-3","kouzui":"0257-23-2165","gake":"http://www.kashiwazaki-ghmc.jp/","takashio":"×","jishin":"〇","tsunami":"内科小児科外科心臓血管外科脳神経外科産婦人科耳鼻咽喉科眼科整形外科皮膚科泌尿器科精神科歯科","kaji":"","naisui":"","kazan":""}}
,{"type":"Feature","geometry":{"type":"Point","coordinates":[138.56407,37.27711]},"properties":{"Name":"柏崎市国民健康保険野田診療所","Jusho":"新潟県柏崎市大字野田922番地6","kouzui":"0257-29-2005","gake":"","takashio":"〇","jishin":"〇","tsunami":"内科","kaji":"柏崎総合医療センター（新潟県柏崎市北半田2-11-3）","naisui":"","kazan":""}}
,{"type":"Feature","geometry":{"type":"Point","coordinates":[138.5015,37.3251]},"properties":{"Name":"柏崎市谷根診療所","Jusho":"新潟県柏崎市大字谷根3256番地1","kouzui":"0257-26-2502","gake":"","takashio":"〇","jishin":"〇","tsunami":"内科","kaji":"柏崎総合医療センター（新潟県柏崎市北半田2-11-3）","naisui":"","kazan":""}}
,{"type":"Feature","geometry":{"type":"Point","coordinates":[138.55339,37.36649]},"properties":{"Name":"柏崎中央病院","Jusho":"新潟県柏崎市駅前二丁目1番25号","kouzui":"0257-23-6254","gake":"https://www.k-central.or.jp","takashio":"×","jishin":"〇","tsunami":"内科","kaji":"","naisui":"","kazan":""}}
,{"type":"Feature","geometry":{"type":"Point","coordinates":[139.32773,37.95385]},"properties":{"Name":"東谷医院","Jusho":"新潟県新発田市大手町5-2-7","kouzui":"0254-24-5555","gake":"http://www9.plala.Or.jp/azumaya-iin/","takashio":"×","jishin":"〇","tsunami":"内科消化器科","kaji":"","naisui":"","kazan":""}}
,{"type":"Feature","geometry":{"type":"Point","coordinates":[139.31389,37.94428]},"properties":{"Name":"しばた心と体クリニック","Jusho":"新潟県新発田市住吉町4-8-26","kouzui":"0254-28-3200","gake":"https://shibata-kokokara.com/","takashio":"〇","jishin":"〇","tsunami":"内科心療内科精神科","kaji":"新潟県立新発田病院（新潟県新発田市本町1-2-8)有田病院（新潟県新発田市金谷197)","naisui":"","kazan":""}}
,{"type":"Feature","geometry":{"type":"Point","coordinates":[139.38005,38.01982]},"properties":{"Name":"医療法人社団笹川医院","Jusho":"新潟県新発田市下小中山392","kouzui":"0254-33-2427","gake":"","takashio":"〇","jishin":"〇","tsunami":"内科循環器内科","kaji":"新潟県立新発田病院（新潟県新発田市本町1-2-8)坂町病院（新潟県村上市鍛冶屋589)中条中央病院（新潟県胎内市西本町12-1)","naisui":"","kazan":""}}
,{"type":"Feature","geometry":{"type":"Point","coordinates":[139.31502,37.94758]},"properties":{"Name":"すずき医院","Jusho":"新潟県新発田市御幸町2-12-1","kouzui":"0254-20-5055","gake":"","takashio":"×","jishin":"〇","tsunami":"精神科","kaji":"","naisui":"","kazan":""}}
,{"type":"Feature","geometry":{"type":"Point","coordinates":[139.34189,37.94836]},"properties":{"Name":"安斎クリニック","Jusho":"新潟県新発田市東新町1-4-5","kouzui":"0254-21-3141","gake":"","takashio":"×","jishin":"〇","tsunami":"内科外科リハビリ科","kaji":"","naisui":"","kazan":""}}
,{"type":"Feature","geometry":{"type":"Point","coordinates":[139.33275,37.96063]},"properties":{"Name":"緑町内科・消化器科やまだクリニック","Jusho":"新潟県新発田市緑町2-16-9","kouzui":"0254-26-7179","gake":"http://www.yamada-clinic.e-doctor.info/","takashio":"〇","jishin":"〇","tsunami":"内科","kaji":"県立新発田病院（新潟県新発田市本町1-2-8）","naisui":"","kazan":""}}
,{"type":"Feature","geometry":{"type":"Point","coordinates":[139.3228,38.01815]},"properties":{"Name":"花野内科医院","Jusho":"新潟県新発田市稲荷岡2252","kouzui":"0254-41-2138","gake":"http://hanamasa.byoinnavi.jp.pc/","takashio":"〇","jishin":"〇","tsunami":"内科","kaji":"新潟県立新発田病院（新潟県新発田市本町1-2-8）","naisui":"","kazan":""}}
,{"type":"Feature","geometry":{"type":"Point","coordinates":[139.30228,37.95475]},"properties":{"Name":"渡部レディスクリニック","Jusho":"新潟県新発田市新栄町1-1-6","kouzui":"0254-26-6666","gake":"http://www.watanabe-lc.com","takashio":"×","jishin":"〇","tsunami":"産婦人科内科","kaji":"渡部レディスクリニック（新潟県新発田市新栄町1-1-6）県立新発田病院（新潟県新発田市本町1-2-8）","naisui":"","kazan":""}}
,{"type":"Feature","geometry":{"type":"Point","coordinates":[139.32233,37.95105]},"properties":{"Name":"中川内科医院","Jusho":"新潟県新発田市大手町2-1-8","kouzui":"0254-22-4658","gake":"","takashio":"×","jishin":"〇","tsunami":"内科","kaji":"県立新発田病院（新潟県新発田市本町1-2-8）","naisui":"","kazan":""}}
,{"type":"Feature","geometry":{"type":"Point","coordinates":[139.30009,37.95345]},"properties":{"Name":"医療法人社団三浦内科医院","Jusho":"新潟県新発田市新栄町1丁目6-17","kouzui":"0254-23-7111","gake":"https://www.miuranaika-clinic.com/home","takashio":"〇","jishin":"〇","tsunami":"内科","kaji":"県立新発田病院（新発田市本町1-2-8）","naisui":"","kazan":""}}
,{"type":"Feature","geometry":{"type":"Point","coordinates":[139.32906,37.94249]},"properties":{"Name":"田中医院","Jusho":"新潟県新発田市諏訪町3丁目4番6号","kouzui":"0254-22-3917","gake":"","takashio":"×","jishin":"〇","tsunami":"内科神経内科","kaji":"","naisui":"","kazan":""}}
,{"type":"Feature","geometry":{"type":"Point","coordinates":[139.33594,37.94169]},"properties":{"Name":"医療法人社団齋藤医院","Jusho":"新潟県新発田市豊町2-2-23","kouzui":"0254-24-1336","gake":"http://www.saitouiin-shibata.jp","takashio":"×","jishin":"〇","tsunami":"内科","kaji":"新潟県立新発田病院(新潟県新発田市本町1-2-8)","naisui":"","kazan":""}}
,{"type":"Feature","geometry":{"type":"Point","coordinates":[139.33647,37.94271]},"properties":{"Name":"すどう小児クリニック","Jusho":"新潟県新発田市豊町2-9-1","kouzui":"0254-26-8881","gake":"https://www2.i-helios-net.com/pc/hw2_pc_login.php?MID=9172&portal=bnavi","takashio":"〇","jishin":"〇","tsunami":"小児科","kaji":"新発田病院(新発田市本町1-2-8）","naisui":"","kazan":""}}
,{"type":"Feature","geometry":{"type":"Point","coordinates":[139.33386,37.94645]},"properties":{"Name":"新潟県立リウマチセンター","Jusho":"新潟県新発田市本町1-2-8","kouzui":"0254-23-7751","gake":"https://www.ra-center.com/","takashio":"×","jishin":"〇","tsunami":"リウマチ科","kaji":"","naisui":"","kazan":""}}
,{"type":"Feature","geometry":{"type":"Point","coordinates":[139.31676,37.96024]},"properties":{"Name":"城北クリニック","Jusho":"新潟県新発田市中曽根町1-3-25","kouzui":"0254-21-1171","gake":"http://johoku.server-shared.com/","takashio":"〇","jishin":"〇","tsunami":"内科消化器科","kaji":"県立新発田病院（新潟県新発田市本町1-2-8）","naisui":"","kazan":""}}
,{"type":"Feature","geometry":{"type":"Point","coordinates":[139.33264,37.95028]},"properties":{"Name":"松沢医院","Jusho":"新潟県新発田市本町2-8-13","kouzui":"0254-22-2880","gake":"","takashio":"×","jishin":"〇","tsunami":"耳鼻咽喉科","kaji":"","naisui":"","kazan":""}}
,{"type":"Feature","geometry":{"type":"Point","coordinates":[139.3111,37.94727]},"properties":{"Name":"片桐記念クリニック","Jusho":"新潟県新発田市住吉町4-3-9","kouzui":"0254-24-5515","gake":"https://kataguilli.sakura.ne.jp/","takashio":"×","jishin":"〇","tsunami":"内科","kaji":"","naisui":"","kazan":""}}
,{"type":"Feature","geometry":{"type":"Point","coordinates":[138.79652,37.31437]},"properties":{"Name":"池田内科医院","Jusho":"新潟県小千谷市城内2-6-5","kouzui":"0258-82-6568","gake":"","takashio":"×","jishin":"〇","tsunami":"内科","kaji":"","naisui":"","kazan":""}}
,{"type":"Feature","geometry":{"type":"Point","coordinates":[138.1502819,36.4373165]},"properties":{"Name":"大矢医院","Jusho":"新潟県小千谷市大字?生乙933-7","kouzui":"0258-83-0111","gake":"","takashio":"〇","jishin":"〇","tsunami":"内科外科","kaji":"厚生連小千谷総合病院（新潟県小千谷市）","naisui":"","kazan":""}}
,{"type":"Feature","geometry":{"type":"Point","coordinates":[138.79299,37.32155]},"properties":{"Name":"新潟県厚生連小千谷総合病院","Jusho":"新潟県小千谷市大字平沢新田111番地","kouzui":"0258-81-1600","gake":"https://www.ojiya-ghp.jp","takashio":"×","jishin":"〇","tsunami":"内科耳鼻咽喉科他※お問合せ下さい。","kaji":"","naisui":"","kazan":""}}
,{"type":"Feature","geometry":{"type":"Point","coordinates":[139.03674,37.68541]},"properties":{"Name":"堀内医院","Jusho":"新潟県加茂市大字加茂新田8358","kouzui":"0256-52-0953","gake":"http://www.horiuchi-cl.org/","takashio":"〇","jishin":"〇","tsunami":"内科皮膚科整形外科麻酔科","kaji":"加茂病院（新潟県加茂市青海町1丁目9番1号）","naisui":"","kazan":""}}
,{"type":"Feature","geometry":{"type":"Point","coordinates":[139.05563,37.66529]},"properties":{"Name":"新潟県立加茂病院","Jusho":"新潟県加茂市青海町1-9-1","kouzui":"56-52-07","gake":"http://www.kamo-hospital.kamo.niigata.jp","takashio":"×","jishin":"〇","tsunami":"内科外科整形外科総合診療科緩和ケア内科泌尿器科婦人科眼科神経内科耳鼻科","kaji":"","naisui":"","kazan":""}}
,{"type":"Feature","geometry":{"type":"Point","coordinates":[139.05621,37.65887]},"properties":{"Name":"小池内科消化器科クリニック","Jusho":"新潟県加茂市仲町1番37","kouzui":"0256-53-3355","gake":"http://www.koike-clinic","takashio":"〇","jishin":"〇","tsunami":"内科","kaji":"県立加茂病院（新潟県加茂市青海町1-9-1）","naisui":"","kazan":""}}
,{"type":"Feature","geometry":{"type":"Point","coordinates":[138.72543,37.09435]},"properties":{"Name":"たかき医院","Jusho":"新潟県十日町市馬場丙1550-1","kouzui":"025-758-2361","gake":"http://www.takakiiin.com","takashio":"×","jishin":"〇","tsunami":"産婦人科内科小児科","kaji":"十日町病院（新潟県十日町市高田町3-南32-9)魚沼基幹病院（新潟県南魚沼市浦佐4132)","naisui":"","kazan":""}}
,{"type":"Feature","geometry":{"type":"Point","coordinates":[138.60889,37.08681]},"properties":{"Name":"松之山診療所","Jusho":"新潟県十日町市松之山1596-1","kouzui":"025-596-2240","gake":"","takashio":"×","jishin":"〇","tsunami":"内科","kaji":"","naisui":"","kazan":""}}
,{"type":"Feature","geometry":{"type":"Point","coordinates":[138.76236,37.13528]},"properties":{"Name":"田中外科医院","Jusho":"新潟県十日町市田中町本通り272番地3","kouzui":"025-752-2403","gake":"","takashio":"〇","jishin":"〇","tsunami":"内科外科","kaji":"","naisui":"","kazan":""}}
,{"type":"Feature","geometry":{"type":"Point","coordinates":[138.75912,37.12897]},"properties":{"Name":"池田医院","Jusho":"新潟県十日町市本町西1丁目314-1","kouzui":"025-752-2581","gake":"","takashio":"〇","jishin":"〇","tsunami":"内科小児科","kaji":"県立十日町病院（新潟県十日町市高田町3丁目南32-9）","naisui":"","kazan":""}}
,{"type":"Feature","geometry":{"type":"Point","coordinates":[138.75894,37.13107]},"properties":{"Name":"医療法人社団山口医院","Jusho":"新潟県十日町市袋町中208番地","kouzui":"025-752-2174","gake":"","takashio":"〇","jishin":"〇","tsunami":"内科小児科","kaji":"","naisui":"","kazan":""}}
,{"type":"Feature","geometry":{"type":"Point","coordinates":[138.75459,37.13511]},"properties":{"Name":"メディカルフォレスト十日町中央クリニック","Jusho":"新潟県十日町市稲荷町3丁目南1-9","kouzui":"025-761-7606","gake":"","takashio":"×","jishin":"〇","tsunami":"内科外科","kaji":"新潟県立十日町病院（新潟県十日町市高田町3丁目南32-9）","naisui":"","kazan":""}}
,{"type":"Feature","geometry":{"type":"Point","coordinates":[138.77797,37.19629]},"properties":{"Name":"医療法人社団山口医院","Jusho":"新潟県十日町市下条3丁目509番地","kouzui":"025-755-2003","gake":"http://www.funcs.net/~ymgtjimu/","takashio":"×","jishin":"〇","tsunami":"内科小児科","kaji":"県立十日町病院（新潟県十日町市高田町3丁目南32-9）","naisui":"","kazan":""}}
,{"type":"Feature","geometry":{"type":"Point","coordinates":[138.61505,37.13504]},"properties":{"Name":"新潟県立松代病院","Jusho":"新潟県十日町市松代3592-2","kouzui":"025-597-2100","gake":"http://www.matsudai-hp.server-shared.com/","takashio":"×","jishin":"〇","tsunami":"内科","kaji":"魚沼基幹病院（新潟県南魚沼市浦佐4132）県立十日町病院（新潟県十日町市高田町3丁目南32番地9）町立津南病院（新潟県中魚沼郡津南町大字大字下船渡丁丁2）","naisui":"","kazan":""}}
,{"type":"Feature","geometry":{"type":"Point","coordinates":[138.9222382,37.5277502]},"properties":{"Name":"寺師医院","Jusho":"新潟県見附市1-4-46","kouzui":"0258-62-0137","gake":"","takashio":"〇","jishin":"〇","tsunami":"整形外科外科内科","kaji":"見附市立病院（新潟県見附市学校町2-13-50）","naisui":"","kazan":""}}
,{"type":"Feature","geometry":{"type":"Point","coordinates":[138.89935,37.53719]},"properties":{"Name":"星整形外科医院","Jusho":"新潟県見附市柳橋町274-6","kouzui":"0258-66-8808","gake":"","takashio":"〇","jishin":"〇","tsunami":"整形外科","kaji":"長岡赤十字病院（長岡市千秋2-297-1）長岡中央綜合病院（長岡市川崎2041）立川綜合病院（長岡市旭丘1-24）","naisui":"","kazan":""}}
,{"type":"Feature","geometry":{"type":"Point","coordinates":[138.88844,37.54274]},"properties":{"Name":"はしもと小児科","Jusho":"新潟県見附市上新田町449-7","kouzui":"0258-61-2400","gake":"http://zousantsushin.jp/","takashio":"〇","jishin":"〇","tsunami":"小児科アレルギー科","kaji":"長岡赤十字病院（新潟県長岡市千秋2丁目297番地1）長岡中央綜合病院（長岡市川崎町2041番地）立川綜合病院（長岡市旭岡1丁目24番地）済生会三条病院（三条市大野畑6番18号）","naisui":"","kazan":""}}
,{"type":"Feature","geometry":{"type":"Point","coordinates":[138.91246,37.53522]},"properties":{"Name":"山谷クリニック","Jusho":"新潟県見附市本所1-12-10","kouzui":"0258-61-1388","gake":"","takashio":"〇","jishin":"〇","tsunami":"内科小児科","kaji":"長岡赤十字病院（新潟県長岡市千秋2-297-1）","naisui":"","kazan":""}}
,{"type":"Feature","geometry":{"type":"Point","coordinates":[138.91895,37.53523]},"properties":{"Name":"お元気でクリニック","Jusho":"新潟県見附市学校町2-13-76","kouzui":"0258-63-3800","gake":"http://www.ogenkideclinic.com/","takashio":"〇","jishin":"〇","tsunami":"心療内科","kaji":"長岡赤十字病院（新潟県長岡市千秋2丁目297-1）","naisui":"","kazan":""}}
,{"type":"Feature","geometry":{"type":"Point","coordinates":[138.89935,37.53719]},"properties":{"Name":"貝瀬皮膚科","Jusho":"新潟県見附市柳橋町274-25","kouzui":"0258-66-8100","gake":"http://kaise.my.coocan.jp/","takashio":"〇","jishin":"〇","tsunami":"皮膚科","kaji":"新潟大学医歯学総合病院（新潟市中央区旭町通1番町754）長岡赤十字病院（長岡市千秋2丁目297?1）長岡中央綜合病院（長岡市川崎町2041）","naisui":"","kazan":""}}
,{"type":"Feature","geometry":{"type":"Point","coordinates":[139.47626,38.22365]},"properties":{"Name":"医療法人社団本間医院","Jusho":"新潟県村上市安良町4-13","kouzui":"0254-53-3071","gake":"","takashio":"×","jishin":"〇","tsunami":"内科","kaji":"","naisui":"","kazan":""}}
,{"type":"Feature","geometry":{"type":"Point","coordinates":[139.43015,38.15978]},"properties":{"Name":"澤田医院","Jusho":"新潟県村上市北新保678番地","kouzui":"0254-66-7811","gake":"","takashio":"×","jishin":"〇","tsunami":"内科小児科消化器科外科","kaji":"村上総合病院（新潟県村上市田端町2-17）県立坂町病院（新潟県村上市下鍛治屋589）","naisui":"","kazan":""}}
,{"type":"Feature","geometry":{"type":"Point","coordinates":[139.47365,38.21622]},"properties":{"Name":"いが医院","Jusho":"新潟県村上市南町2-8-30","kouzui":"0254-50-7123","gake":"","takashio":"×","jishin":"〇","tsunami":"内科","kaji":"村上総合病院(新潟県村上市田端町2-17)※対面診療が必要な場合は当院で往診で対応","naisui":"","kazan":""}}
,{"type":"Feature","geometry":{"type":"Point","coordinates":[138.91819,37.66465]},"properties":{"Name":"菊川脳神経内科","Jusho":"新潟県燕市杣木1428","kouzui":"0256-61-6000","gake":"","takashio":"×","jishin":"〇","tsunami":"脳神経内科","kaji":"県立燕労災病院（新潟県燕市佐渡633)県立吉田病院（新潟県燕市吉田大保町32-14)","naisui":"","kazan":""}}
,{"type":"Feature","geometry":{"type":"Point","coordinates":[138.88341,37.69823]},"properties":{"Name":"甲田内科クリニック","Jusho":"新潟県燕市吉田3748","kouzui":"0256-92-0001","gake":"http://www.asahi-net.or.jp/~wG8Y-KUO/KD/htro.html","takashio":"〇","jishin":"〇","tsunami":"内科","kaji":"","naisui":"","kazan":""}}
,{"type":"Feature","geometry":{"type":"Point","coordinates":[138.91381,37.67068]},"properties":{"Name":"水澤こどもクリニック","Jusho":"新潟県燕市東大田6864-1","kouzui":"0256-61-3456","gake":"","takashio":"〇","jishin":"〇","tsunami":"小児科","kaji":"","naisui":"","kazan":""}}
,{"type":"Feature","geometry":{"type":"Point","coordinates":[138.91902,37.66621]},"properties":{"Name":"青山医院","Jusho":"新潟県燕市杣木1470","kouzui":"0256-63-9151","gake":"","takashio":"×","jishin":"〇","tsunami":"内科整形外科皮膚科","kaji":"青山医院（新潟県燕市杣木1470）","naisui":"","kazan":""}}
,{"type":"Feature","geometry":{"type":"Point","coordinates":[138.87822,37.68817]},"properties":{"Name":"湧井医院","Jusho":"新潟県燕市吉田堤町3-16","kouzui":"0256-93-2220","gake":"http://www.wakui-clinic.com/","takashio":"△","jishin":"〇","tsunami":"内科","kaji":"","naisui":"","kazan":""}}
,{"type":"Feature","geometry":{"type":"Point","coordinates":[138.92572,37.67405]},"properties":{"Name":"燕こころのクリニック","Jusho":"新潟県燕市杣木814","kouzui":"0256-55-4432","gake":"http://tsubamekokoro.wixsite.com/ckinic","takashio":"×","jishin":"〇","tsunami":"精神科児童精神科","kaji":"","naisui":"","kazan":""}}
,{"type":"Feature","geometry":{"type":"Point","coordinates":[138.92782,37.65719]},"properties":{"Name":"医療法人社団浩純会山岸耳鼻科","Jusho":"新潟県燕市殿島2丁目7091の2","kouzui":"0256-63-8866","gake":"","takashio":"×","jishin":"〇","tsunami":"耳鼻咽喉科気道食道科アレルギー科","kaji":"","naisui":"","kazan":""}}
,{"type":"Feature","geometry":{"type":"Point","coordinates":[138.91568,37.66044]},"properties":{"Name":"本間医院","Jusho":"新潟県燕市秋葉町4-13-53","kouzui":"0256-63-3110","gake":"","takashio":"×","jishin":"〇","tsunami":"内科","kaji":"","naisui":"","kazan":""}}
,{"type":"Feature","geometry":{"type":"Point","coordinates":[138.88452,37.68015]},"properties":{"Name":"さいとう内科クリニック","Jusho":"新潟県燕市吉田法花堂1696-4","kouzui":"0256-91-0016","gake":"http://saito-1347.byoinnavi.jp/","takashio":"〇","jishin":"〇","tsunami":"内科","kaji":"","naisui":"","kazan":""}}
,{"type":"Feature","geometry":{"type":"Point","coordinates":[137.80017,37.02515]},"properties":{"Name":"山本医院","Jusho":"新潟県糸魚川市寺地232-1","kouzui":"025-562-245","gake":"","takashio":"〇","jishin":"〇","tsunami":"内科小児科","kaji":"糸魚川総合病院（新潟県糸魚川市竹ヶ花457-1）","naisui":"","kazan":""}}
,{"type":"Feature","geometry":{"type":"Point","coordinates":[137.85686,37.03411]},"properties":{"Name":"さいとう内科クリニック","Jusho":"新潟県糸魚川市上刈4-8-5","kouzui":"025-553-1844","gake":"","takashio":"×","jishin":"〇","tsunami":"内科","kaji":"糸魚川総合病院（新潟県糸魚川市竹ヶ花457-1）","naisui":"","kazan":""}}
,{"type":"Feature","geometry":{"type":"Point","coordinates":[137.92159,37.04192]},"properties":{"Name":"しまだ医院","Jusho":"新潟県糸魚川市大字西谷内53-5","kouzui":"025-555-2622","gake":"","takashio":"×","jishin":"〇","tsunami":"内科眼科","kaji":"糸魚川総合病院（新潟県糸魚川市竹ヶ花457-1）","naisui":"","kazan":""}}
,{"type":"Feature","geometry":{"type":"Point","coordinates":[137.86806,37.04243]},"properties":{"Name":"ひめかわ美野クリニック","Jusho":"新潟県糸魚川市南寺町2丁目10番30号","kouzui":"025-552-9946","gake":"","takashio":"×","jishin":"〇","tsunami":"内科脳外科","kaji":"","naisui":"","kazan":""}}
,{"type":"Feature","geometry":{"type":"Point","coordinates":[137.88041,37.04492]},"properties":{"Name":"すずき医院","Jusho":"新潟県糸魚川市押上3-4-37","kouzui":"","gake":"","takashio":"〇","jishin":"〇","tsunami":"内科","kaji":"糸魚川総合病院（新潟県糸魚川市竹ヶ花457-1）","naisui":"","kazan":""}}
,{"type":"Feature","geometry":{"type":"Point","coordinates":[137.84811,37.04176]},"properties":{"Name":"石田眼科糸魚川クリニック","Jusho":"新潟県糸魚川市横町5丁目6番52号","kouzui":"025-552-9995","gake":"http://www.ishidaeye.com","takashio":"×","jishin":"〇","tsunami":"眼科","kaji":"","naisui":"","kazan":""}}
,{"type":"Feature","geometry":{"type":"Point","coordinates":[137.88869,37.0489]},"properties":{"Name":"新潟県厚生連糸魚川総合病院","Jusho":"新潟県糸魚川市竹ヶ花457番地1","kouzui":"025-552-0280","gake":"https://www.itoigawa-hp.jp/","takashio":"×","jishin":"〇","tsunami":"内科外科脳神経外科産婦人科小児科心臓血管外科","kaji":"糸魚川総合病院（当院）","naisui":"","kazan":""}}
,{"type":"Feature","geometry":{"type":"Point","coordinates":[138.25923,37.05275]},"properties":{"Name":"医療法人社団塚田医院","Jusho":"新潟県妙高市柳井田町2-8-16","kouzui":"0255-70-1888","gake":"","takashio":"〇","jishin":"〇","tsunami":"内科","kaji":"新潟県立中央病院（新潟県上越市新南町205)","naisui":"","kazan":""}}
,{"type":"Feature","geometry":{"type":"Point","coordinates":[138.25085,37.03308]},"properties":{"Name":"揚石医院","Jusho":"新潟県妙高市石塚町1-14-8","kouzui":"0255-70-1155","gake":"http://www.ageishi.com/","takashio":"×","jishin":"〇","tsunami":"内科小児科循環器科","kaji":"新潟県立中央病院（新潟県上越市新南町205)けいなん総合病院（新潟県妙高市田町2-4-7)","naisui":"","kazan":""}}
,{"type":"Feature","geometry":{"type":"Point","coordinates":[138.25334,37.02752]},"properties":{"Name":"はやつクリニック内科呼吸器科","Jusho":"新潟県妙高市朝日町1-10-3","kouzui":"0255-72-8233","gake":"","takashio":"×","jishin":"〇","tsunami":"内科呼吸器内科","kaji":"けいなん総合病院（妙高市田町2-4-71)新潟県立中央病院（上越市新南町205)上越総合病院（上越市大道福田616)上越地域医療センター（上越市南高田町6-9)","naisui":"","kazan":""}}
,{"type":"Feature","geometry":{"type":"Point","coordinates":[139.18038,37.75081]},"properties":{"Name":"北五泉クリニック","Jusho":"新潟県五泉市三本木3042-2","kouzui":"0250-43-3880","gake":"http://kitagosen.byoinnavi.jp/pc/","takashio":"〇","jishin":"〇","tsunami":"内科","kaji":"五泉中央病院（新潟県五泉市太田489-1)","naisui":"","kazan":""}}
,{"type":"Feature","geometry":{"type":"Point","coordinates":[139.17542,37.69226]},"properties":{"Name":"金子医院","Jusho":"新潟県五泉市村松甲1772番地","kouzui":"0250-58-6073","gake":"","takashio":"〇","jishin":"〇","tsunami":"内科","kaji":"五泉中央病院（新潟県五泉市太田489-1)","naisui":"","kazan":""}}
,{"type":"Feature","geometry":{"type":"Point","coordinates":[139.1846,37.69628]},"properties":{"Name":"石曽根医院","Jusho":"新潟県五泉市石曽根7990","kouzui":"0250-58-6335","gake":"","takashio":"〇","jishin":"〇","tsunami":"内科","kaji":"石曽根医院（新潟県五泉市石曽根7990）五泉中央病院（新潟県五泉市太田489番地1）","naisui":"","kazan":""}}
,{"type":"Feature","geometry":{"type":"Point","coordinates":[139.18256,37.74576]},"properties":{"Name":"五泉中央病院","Jusho":"新潟県五泉市太田489番地1","kouzui":"0250-47-8150","gake":"http://www.sinjinkai.or.jp/gosenchuo/","takashio":"×","jishin":"〇","tsunami":"呼吸器内科他、個別に対応","kaji":"","naisui":"","kazan":""}}
,{"type":"Feature","geometry":{"type":"Point","coordinates":[139.1773,37.69877]},"properties":{"Name":"たけだ内科クリニック","Jusho":"新潟県五泉市村松1288番地1","kouzui":"0250-58-2113","gake":"http://www.takedanaika.com","takashio":"〇","jishin":"〇","tsunami":"内科小児科","kaji":"五泉中央病院（新潟県五泉市太田489番地1）","naisui":"","kazan":""}}
,{"type":"Feature","geometry":{"type":"Point","coordinates":[138.42727,37.15871]},"properties":{"Name":"浦川原診療所","Jusho":"新潟県上越市浦川原区有島75","kouzui":"025-599-2510","gake":"","takashio":"〇","jishin":"〇","tsunami":"内科","kaji":"新潟県立中央病院（新潟県上越市新南町205)上越総合病院（新潟県上越市大道福田616）","naisui":"","kazan":""}}
,{"type":"Feature","geometry":{"type":"Point","coordinates":[138.24406,37.11023]},"properties":{"Name":"清華ファミリークリニック","Jusho":"新潟県上越市本町3-1-7","kouzui":"025-520-8111","gake":"https://www.seikafel.jp","takashio":"×","jishin":"△","tsunami":"内科小児科他","kaji":"","naisui":"","kazan":""}}
,{"type":"Feature","geometry":{"type":"Point","coordinates":[138.23099,37.13414]},"properties":{"Name":"大学前クリニック笹川医院","Jusho":"新潟県上越市大学前203","kouzui":"025-526-3060","gake":"http://www.sasagawa.info/","takashio":"×","jishin":"〇","tsunami":"泌尿器科皮膚科内科","kaji":"","naisui":"","kazan":""}}
,{"type":"Feature","geometry":{"type":"Point","coordinates":[138.24295,37.10295]},"properties":{"Name":"植木医院","Jusho":"新潟県上越市本町1-4-8","kouzui":"025-523-4381","gake":"http://ueki-iin.webmedipr.jp","takashio":"〇","jishin":"〇","tsunami":"内科消化器内科","kaji":"新潟県立中央病院（新潟県上越市新南町205)上越総合病院（新潟県上越市大道福田616）上越地域医療センター病院（新潟県上越市南高田町6-9）","naisui":"","kazan":""}}
,{"type":"Feature","geometry":{"type":"Point","coordinates":[138.25638,37.11865]},"properties":{"Name":"さくらの木心臓血管外科クリニック","Jusho":"新潟県上越市北城町4-4-20","kouzui":"025-527-2727","gake":"","takashio":"×","jishin":"〇","tsunami":"心臓血管外科循環器内科内科・外科","kaji":"","naisui":"","kazan":""}}
,{"type":"Feature","geometry":{"type":"Point","coordinates":[138.24425,37.17596]},"properties":{"Name":"小林医院","Jusho":"新潟県上越市住吉町1-12","kouzui":"025-544-3227","gake":"","takashio":"〇","jishin":"〇","tsunami":"内科","kaji":"新潟県立中央病院（新潟県上越市新南町205)","naisui":"","kazan":""}}
,{"type":"Feature","geometry":{"type":"Point","coordinates":[138.44372,37.12754]},"properties":{"Name":"安塚診療所","Jusho":"新潟県上越市安塚区安塚2555-1","kouzui":"025-592-3330","gake":"","takashio":"×","jishin":"〇","tsunami":"内科外科小児科","kaji":"新潟県立中央病院（新潟県上越市新南町205番地）","naisui":"","kazan":""}}
,{"type":"Feature","geometry":{"type":"Point","coordinates":[138.27126,37.11405]},"properties":{"Name":"山﨑内科消化器科医院","Jusho":"新潟県上越市鴨島1丁目1-11","kouzui":"025-521-0303","gake":"","takashio":"×","jishin":"〇","tsunami":"内科","kaji":"","naisui":"","kazan":""}}
,{"type":"Feature","geometry":{"type":"Point","coordinates":[138.26207,37.17333]},"properties":{"Name":"古澤医院","Jusho":"新潟県上越市安江1丁目2番33号","kouzui":"025-544-3322","gake":"http://furusawa-clinic.com","takashio":"×","jishin":"〇","tsunami":"神経内科内科","kaji":"上越総合病院（新潟県上越市大道福田616）","naisui":"","kazan":""}}
,{"type":"Feature","geometry":{"type":"Point","coordinates":[138.29539,37.05162]},"properties":{"Name":"さいとう診療所","Jusho":"新潟県上越市板倉区針941","kouzui":"0255-78-5310","gake":"","takashio":"〇","jishin":"〇","tsunami":"内科神経内科","kaji":"","naisui":"","kazan":""}}
,{"type":"Feature","geometry":{"type":"Point","coordinates":[138.25414,37.17002]},"properties":{"Name":"古川内科医院","Jusho":"新潟県上越市春日新田1-22-15","kouzui":"025-544-2121","gake":"","takashio":"×","jishin":"〇","tsunami":"内科","kaji":"","naisui":"","kazan":""}}
,{"type":"Feature","geometry":{"type":"Point","coordinates":[138.25652,37.11945]},"properties":{"Name":"きたしろクリニック内科さとう医院","Jusho":"新潟県上越市北城町4-6-8","kouzui":"025-521-7311","gake":"","takashio":"×","jishin":"〇","tsunami":"内科リウマチ科","kaji":"新潟県立中央病院（新潟県上越市新南町205番地）","naisui":"","kazan":""}}
,{"type":"Feature","geometry":{"type":"Point","coordinates":[138.25707,37.15873]},"properties":{"Name":"みながわ内科・糖尿病クリニック","Jusho":"新潟県上越市上源入641-1エスペランサ1階","kouzui":"025-520-5504","gake":"https://www.minagawa-naika.com","takashio":"×","jishin":"〇","tsunami":"内科","kaji":"新潟県立中央病院（新潟県上越市新南町205番地）上越総合病院（新潟県上越市大道福田616）","naisui":"","kazan":""}}
,{"type":"Feature","geometry":{"type":"Point","coordinates":[138.34369,37.16546]},"properties":{"Name":"五十嵐医院","Jusho":"新潟県上越市青野239","kouzui":"025-520-2202","gake":"","takashio":"×","jishin":"〇","tsunami":"内科小児科","kaji":"","naisui":"","kazan":""}}
,{"type":"Feature","geometry":{"type":"Point","coordinates":[138.28006,37.19628]},"properties":{"Name":"やちほ内科クリニック","Jusho":"新潟県上越市下荒浜848-1","kouzui":"025-531-0024","gake":"","takashio":"〇","jishin":"〇","tsunami":"内科","kaji":"上越総合病院（新潟県上越市大道福田616）","naisui":"","kazan":""}}
,{"type":"Feature","geometry":{"type":"Point","coordinates":[138.25191,37.12333]},"properties":{"Name":"吉岡内科クリニック","Jusho":"新潟県上越市高土町1-10-35","kouzui":"025-526-2121","gake":"","takashio":"×","jishin":"〇","tsunami":"内科","kaji":"","naisui":"","kazan":""}}
,{"type":"Feature","geometry":{"type":"Point","coordinates":[138.2458,37.11401]},"properties":{"Name":"耳鼻咽喉科おきた医院","Jusho":"新潟県上越市大町4丁目4-12","kouzui":"025-522-3711","gake":"","takashio":"×","jishin":"〇","tsunami":"耳鼻咽喉科","kaji":"","naisui":"","kazan":""}}
,{"type":"Feature","geometry":{"type":"Point","coordinates":[138.24722,37.0973]},"properties":{"Name":"横山医院","Jusho":"新潟県上越市南高田町4-3","kouzui":"025-523-0115","gake":"","takashio":"×","jishin":"〇","tsunami":"内科小児科皮フ科","kaji":"保健所の紹介による医療機関","naisui":"","kazan":""}}
,{"type":"Feature","geometry":{"type":"Point","coordinates":[138.25331,37.14931]},"properties":{"Name":"小児科すこやかアレルギークリニック","Jusho":"新潟県上越市藤野新田1300","kouzui":"025-521-0700","gake":"http://www.sukoyaka-allergy.jp/","takashio":"×","jishin":"〇","tsunami":"小児科","kaji":"新潟県立中央病院（新潟県上越市新南町205番地）","naisui":"","kazan":""}}
,{"type":"Feature","geometry":{"type":"Point","coordinates":[138.24129,37.16764]},"properties":{"Name":"駅南クリニック富樫医院","Jusho":"新潟県上越市東雲町2-6-26","kouzui":"025-531-1577","gake":"","takashio":"×","jishin":"〇","tsunami":"内科","kaji":"上越総合病院（新潟県上越市大道福田616）県立中央病院（新潟県上越市新南町205）","naisui":"","kazan":""}}
,{"type":"Feature","geometry":{"type":"Point","coordinates":[138.50501,37.1199]},"properties":{"Name":"大島診療所","Jusho":"新潟県上越市大島区棚岡1540-1","kouzui":"025-594-2323","gake":"","takashio":"×","jishin":"〇","tsunami":"内科","kaji":"","naisui":"","kazan":""}}
,{"type":"Feature","geometry":{"type":"Point","coordinates":[138.23166,37.12548]},"properties":{"Name":"あおぞら皮ふ科クリニック","Jusho":"新潟県上越市大字飯2519","kouzui":"025-521-1112","gake":"http://www.aozorahifika.com","takashio":"×","jishin":"〇","tsunami":"皮膚科","kaji":"","naisui":"","kazan":""}}
,{"type":"Feature","geometry":{"type":"Point","coordinates":[138.23027,37.16659]},"properties":{"Name":"竹越内科医院","Jusho":"新潟県上越市五智新田10-24","kouzui":"025-543-3300","gake":"","takashio":"×","jishin":"〇","tsunami":"内科","kaji":"竹越内科医院（新潟県上越市五智新田10-24）","naisui":"","kazan":""}}
,{"type":"Feature","geometry":{"type":"Point","coordinates":[138.25812,37.12443]},"properties":{"Name":"まなべ整形外科クリニック","Jusho":"新潟県上越市高土町2-12-5","kouzui":"025-527-2800","gake":"","takashio":"×","jishin":"〇","tsunami":"整形外科","kaji":"新潟県立中央病院（上越市新南町205)","naisui":"","kazan":""}}
,{"type":"Feature","geometry":{"type":"Point","coordinates":[138.24869,37.08473]},"properties":{"Name":"畠山医院","Jusho":"新潟県上越市大和2-8-11","kouzui":"025-523-2300","gake":"","takashio":"×","jishin":"〇","tsunami":"内科消化器科","kaji":"","naisui":"","kazan":""}}
,{"type":"Feature","geometry":{"type":"Point","coordinates":[138.25028,37.14903]},"properties":{"Name":"上越総合病院","Jusho":"新潟県上越市大道福田616","kouzui":"025-524-3000","gake":"https://joetsu-hp.jp/","takashio":"×","jishin":"△","tsunami":"内科神経内科循環器内科小児科外科脳神経外科眼科整形外科泌尿器科皮膚科歯科口腔外科","kaji":"","naisui":"","kazan":""}}
,{"type":"Feature","geometry":{"type":"Point","coordinates":[138.39482,37.27836]},"properties":{"Name":"新潟県立柿崎病院","Jusho":"新潟県上越市柿崎区柿崎6412-1","kouzui":"025-536-3131","gake":"http://kakizaki-hp.niigata.jp/","takashio":"×","jishin":"〇","tsunami":"内科外科","kaji":"","naisui":"","kazan":""}}
,{"type":"Feature","geometry":{"type":"Point","coordinates":[138.23816,37.12415]},"properties":{"Name":"かわさき脳外科","Jusho":"新潟県上越市昭和町2-29-32","kouzui":"025-521-2288","gake":"http://www.kawasakinougeka.com/","takashio":"×","jishin":"〇","tsunami":"脳外科","kaji":"新潟県立中央病院上越総合病院上越労災病院上越地域医療センター病院（新潟県上越市）","naisui":"","kazan":""}}
,{"type":"Feature","geometry":{"type":"Point","coordinates":[138.24266,37.15875]},"properties":{"Name":"三交病院","Jusho":"新潟県上越市大字塩屋337-1","kouzui":"025-543-2624","gake":"http://sanko-hospital.org","takashio":"×","jishin":"〇","tsunami":"精神科","kaji":"","naisui":"","kazan":""}}
,{"type":"Feature","geometry":{"type":"Point","coordinates":[138.29062,37.10992]},"properties":{"Name":"医）斉藤医院","Jusho":"新潟県上越市新保古新田548-1","kouzui":"025-523-8500","gake":"","takashio":"×","jishin":"〇","tsunami":"内科呼吸器科","kaji":"","naisui":"","kazan":""}}
,{"type":"Feature","geometry":{"type":"Point","coordinates":[138.24619,37.10961]},"properties":{"Name":"栗原医院","Jusho":"新潟県上越市大手町1-22","kouzui":"025-523-2319","gake":"","takashio":"×","jishin":"〇","tsunami":"内科","kaji":"","naisui":"","kazan":""}}
,{"type":"Feature","geometry":{"type":"Point","coordinates":[138.22894,37.15007]},"properties":{"Name":"ふじわら耳鼻科","Jusho":"新潟県上越市春日野1?6?29","kouzui":"025-523-1733","gake":"http://fujiwarajibika.jp","takashio":"×","jishin":"〇","tsunami":"耳鼻咽喉科","kaji":"ふじわら耳鼻科（新潟県上越市春日野1?6?29）","naisui":"","kazan":""}}
,{"type":"Feature","geometry":{"type":"Point","coordinates":[138.23796,37.14735]},"properties":{"Name":"上越市役所前やまもとクリニック","Jusho":"新潟県上越市木田1-3-31","kouzui":"025-520-9130","gake":"http://www.yamamoto-clinic.biz","takashio":"×","jishin":"〇","tsunami":"内科","kaji":"県立中央病院（新潟県上越市新南町205）","naisui":"","kazan":""}}
,{"type":"Feature","geometry":{"type":"Point","coordinates":[138.25891,37.1725]},"properties":{"Name":"佐藤医院","Jusho":"新潟県上越市春日新田2-8-10","kouzui":"025-544-8877","gake":"http://www001.upp.so-net.ne.jp/satoiin/","takashio":"×","jishin":"〇","tsunami":"内科","kaji":"","naisui":"","kazan":""}}
,{"type":"Feature","geometry":{"type":"Point","coordinates":[138.33125,37.07801]},"properties":{"Name":"上越市国民健康保険清里診療所","Jusho":"新潟県上越市清里区岡嶺新田72","kouzui":"025-528-3313","gake":"","takashio":"〇","jishin":"〇","tsunami":"総合内科リウマチ科","kaji":"新潟県立中央病院（新潟県上越市新南町205）上越地域医療センター病院（新潟県上越市南高田町6-9）","naisui":"","kazan":""}}
,{"type":"Feature","geometry":{"type":"Point","coordinates":[138.24579,37.12418]},"properties":{"Name":"医療法人社団渡辺内科医院","Jusho":"新潟県上越市幸町14番9号","kouzui":"025-525-1170","gake":"http://amaterasu090.byoinnavi.jp/pc/index.html","takashio":"×","jishin":"〇","tsunami":"内科消化器内科循環器内科ペインクリニック内科","kaji":"新潟県立中央病院（新潟県上越市新南町205）","naisui":"","kazan":""}}
,{"type":"Feature","geometry":{"type":"Point","coordinates":[138.23145,37.12573]},"properties":{"Name":"飯内科クリニック","Jusho":"新潟県上越市大字飯2521-1","kouzui":"025-521-1171","gake":"http://iinaika.com/","takashio":"×","jishin":"〇","tsunami":"内科小児科リウマチ科漢方内科","kaji":"新潟県立中央病院（新潟県上越市新南町205）上越総合病院（新潟県上越市大道福田616）","naisui":"","kazan":""}}
,{"type":"Feature","geometry":{"type":"Point","coordinates":[139.21986,37.83475]},"properties":{"Name":"わだ耳鼻咽喉科クリニック","Jusho":"新潟県阿賀野市下条町13-11","kouzui":"0250-63-1212","gake":"http://www.wada-jibila.com","takashio":"×","jishin":"〇","tsunami":"耳鼻咽喉科アレルギー科","kaji":"","naisui":"","kazan":""}}
,{"type":"Feature","geometry":{"type":"Point","coordinates":[139.22124,37.83394]},"properties":{"Name":"あがの市民病院","Jusho":"新潟県阿賀野市岡山町13-23","kouzui":"0250-62-2780","gake":"https://www.niigata-kouseiren.jp/hospital/aganoshimin/","takashio":"×","jishin":"〇","tsunami":"","kaji":"","naisui":"","kazan":""}}
,{"type":"Feature","geometry":{"type":"Point","coordinates":[138.44284,38.075]},"properties":{"Name":"三國医院","Jusho":"新潟県佐渡市両津湊343-4","kouzui":"0259-27-2489","gake":"http://mikuni-clinic.com/","takashio":"〇","jishin":"〇","tsunami":"内科","kaji":"佐渡総合病院（新潟県佐渡市千種113-1)両津病院（新潟県佐渡市浜田177-1)","naisui":"","kazan":""}}
,{"type":"Feature","geometry":{"type":"Point","coordinates":[138.31156,38.00603]},"properties":{"Name":"汐彩クリニック","Jusho":"新潟県佐渡市窪田20-1","kouzui":"0259-57-4031","gake":"","takashio":"×","jishin":"〇","tsunami":"精神科","kaji":"真野みずほ病院（新潟県佐渡市真野73）","naisui":"","kazan":""}}
,{"type":"Feature","geometry":{"type":"Point","coordinates":[138.34739,37.9717]},"properties":{"Name":"まきやま内科クリニック","Jusho":"新潟県佐渡市長石192-5","kouzui":"0259-55-3110","gake":"","takashio":"〇","jishin":"〇","tsunami":"内科循環器内科","kaji":"佐渡総合病院（佐渡市千種161）","naisui":"","kazan":""}}
,{"type":"Feature","geometry":{"type":"Point","coordinates":[138.32587,37.99687]},"properties":{"Name":"佐和田病院","Jusho":"新潟県佐渡市八幡町332番地","kouzui":"0259-57-3333","gake":"http://www.ceres.dti.ne.jp/~sawatahp/","takashio":"〇","jishin":"〇","tsunami":"内科整形外科","kaji":"佐渡総合病院（新潟県佐渡市金井）","naisui":"","kazan":""}}
,{"type":"Feature","geometry":{"type":"Point","coordinates":[138.36665,38.01904]},"properties":{"Name":"新潟県厚生農業協同組合連合会佐渡総合病院","Jusho":"新潟県佐渡市千種161番地","kouzui":"0259-63-3121","gake":"http://sadosogo-hp.jp","takashio":"×","jishin":"〇","tsunami":"内科神経内科小児科外科脳神経外科産婦人科耳鼻咽喉科眼科整形外科皮膚科泌尿器科","kaji":"","naisui":"","kazan":""}}
,{"type":"Feature","geometry":{"type":"Point","coordinates":[138.34888,37.96354]},"properties":{"Name":"新潟県厚生農業協同組合連合会真野みずほ病院","Jusho":"新潟県佐渡市真野73番地","kouzui":"0259-55-1122","gake":"http://www.mano-mizuho.sado.jp","takashio":"×","jishin":"〇","tsunami":"精神科","kaji":"","naisui":"","kazan":""}}
,{"type":"Feature","geometry":{"type":"Point","coordinates":[138.96495,37.22053]},"properties":{"Name":"たちばな皮ふ科クリニック","Jusho":"新潟県魚沼市古新田179-1","kouzui":"025-793-3201","gake":"","takashio":"×","jishin":"〇","tsunami":"皮膚科","kaji":"","naisui":"","kazan":""}}
,{"type":"Feature","geometry":{"type":"Point","coordinates":[138.96004,37.23271]},"properties":{"Name":"上村医院","Jusho":"新潟県魚沼市諏訪町1丁目12","kouzui":"025-792-0143","gake":"https://www.kamimura-iin.com/","takashio":"〇","jishin":"〇","tsunami":"内科小児科","kaji":"市立小出病院（魚沼市日渡新田34番地）魚沼基幹病院（南魚沼市浦佐4132番地）","naisui":"","kazan":""}}
,{"type":"Feature","geometry":{"type":"Point","coordinates":[138.92822,37.23875]},"properties":{"Name":"堀之内駅前小玉医院","Jusho":"新潟県魚沼市堀之内3870-1","kouzui":"025-798-2000","gake":"","takashio":"×","jishin":"〇","tsunami":"内科循環器内科","kaji":"","naisui":"","kazan":""}}
,{"type":"Feature","geometry":{"type":"Point","coordinates":[138.92123,37.16917]},"properties":{"Name":"萌気園あやめ診療所","Jusho":"新潟県南魚沼市浦佐330‐7","kouzui":"025-780-4377","gake":"","takashio":"×","jishin":"〇","tsunami":"小児科精神科心療内科","kaji":"萌気園浦佐診療所（新潟県南魚沼市浦佐5363-1）","naisui":"","kazan":""}}
,{"type":"Feature","geometry":{"type":"Point","coordinates":[138.9368,37.17197]},"properties":{"Name":"南魚沼市立ゆきぐに大和病院","Jusho":"新潟県南魚沼市浦佐4115","kouzui":"025-777-2111","gake":"http://www.yukigunihp.jp/","takashio":"×","jishin":"〇","tsunami":"内科他","kaji":"魚沼基幹病院（新潟県南魚沼市浦佐4132）南魚沼市民病院（新潟県南魚沼市六日町2643-1）","naisui":"","kazan":""}}
,{"type":"Feature","geometry":{"type":"Point","coordinates":[138.92979,37.16871]},"properties":{"Name":"萌気園浦佐診療所","Jusho":"新潟県南魚沼市浦佐5363-1","kouzui":"025-777-5222","gake":"","takashio":"×","jishin":"〇","tsunami":"内科小児科整形外科","kaji":"魚沼基幹病院（新潟県南魚沼市浦佐4132)","naisui":"","kazan":""}}
,{"type":"Feature","geometry":{"type":"Point","coordinates":[138.9014,37.09068]},"properties":{"Name":"萌気園二日町診療所","Jusho":"新潟県南魚沼市二日町212-1","kouzui":"025-778-0088","gake":"","takashio":"〇","jishin":"〇","tsunami":"内科小児科整形外科リウマチ科神経内科","kaji":"魚沼基幹病院（新潟県南魚沼市浦佐4132)","naisui":"","kazan":""}}
,{"type":"Feature","geometry":{"type":"Point","coordinates":[139.40956,38.0588]},"properties":{"Name":"ちの泌尿器科・内科医院","Jusho":"新潟県胎内市東本町22-10-3","kouzui":"0254-43-6334","gake":"","takashio":"〇","jishin":"〇","tsunami":"内科","kaji":"","naisui":"","kazan":""}}
,{"type":"Feature","geometry":{"type":"Point","coordinates":[139.39879,38.04887]},"properties":{"Name":"中条駅前じゅん耳鼻科","Jusho":"新潟県胎内市表町6-17-8","kouzui":"0254-39-1155","gake":"http://www.junclinic.net","takashio":"×","jishin":"〇","tsunami":"耳鼻科","kaji":"","naisui":"","kazan":""}}
,{"type":"Feature","geometry":{"type":"Point","coordinates":[139.40738,38.05108]},"properties":{"Name":"小野耳鼻科医院","Jusho":"新潟県胎内市大川町15-10","kouzui":"0254-44-3387","gake":"","takashio":"×","jishin":"〇","tsunami":"耳鼻科","kaji":"","naisui":"","kazan":""}}
,{"type":"Feature","geometry":{"type":"Point","coordinates":[139.39381,38.0517]},"properties":{"Name":"(医)共生会中条中央病院","Jusho":"新潟県胎内市西本町12-1","kouzui":"0254-44-8800","gake":"http://www.kyouseikai-hosp.com/","takashio":"×","jishin":"〇","tsunami":"内科整形外科小児科眼科皮膚科","kaji":"","naisui":"","kazan":""}}
,{"type":"Feature","geometry":{"type":"Point","coordinates":[139.47677,37.71535]},"properties":{"Name":"阿賀町鹿瀬診療所","Jusho":"新潟県東蒲原郡阿賀町鹿瀬1154","kouzui":"0254-92-2219","gake":"","takashio":"×","jishin":"〇","tsunami":"内科","kaji":"新潟県立津川病院（新潟県東蒲原郡阿賀町津川200）","naisui":"","kazan":""}}
,{"type":"Feature","geometry":{"type":"Point","coordinates":[139.46579,37.62956]},"properties":{"Name":"阿賀町上川診療所","Jusho":"新潟県東蒲原郡阿賀町両郷甲2150番地","kouzui":"0254-95-2280","gake":"","takashio":"×","jishin":"〇","tsunami":"内科","kaji":"","naisui":"","kazan":""}}
,{"type":"Feature","geometry":{"type":"Point","coordinates":[139.46336,37.67806]},"properties":{"Name":"新潟県立津川病院","Jusho":"新潟県東蒲原郡阿賀町津川200","kouzui":"0254-92-3311","gake":"http://tsugawa-hospital.sakura.ne.jp","takashio":"×","jishin":"〇","tsunami":"内科","kaji":"","naisui":"","kazan":""}}
,{"type":"Feature","geometry":{"type":"Point","coordinates":[138.71558,37.53114]},"properties":{"Name":"佐藤医院","Jusho":"新潟県三島郡出雲崎町大字川面28-8","kouzui":"0258-78-2153","gake":"","takashio":"〇","jishin":"〇","tsunami":"内科小児科","kaji":"","naisui":"","kazan":""}}
,{"type":"Feature","geometry":{"type":"Point","coordinates":[138.64843,37.01565]},"properties":{"Name":"町立津南病院","Jusho":"新潟県中魚沼郡津南町大字下船渡丁2682番地","kouzui":"025-765-3161","gake":"https://tsunan-hospital.jp/","takashio":"×","jishin":"〇","tsunami":"内科外科整形外科小児科耳鼻咽喉科眼科泌尿器科","kaji":"","naisui":"","kazan":""}}
,{"type":"Feature","geometry":{"type":"Point","coordinates":[138.61848,37.42401]},"properties":{"Name":"刈羽診療所","Jusho":"新潟県刈羽郡刈羽村大字刈羽705番地6","kouzui":"0257-45-3555","gake":"","takashio":"×","jishin":"〇","tsunami":"内科小児科","kaji":"柏崎総合医療センター（新潟県柏崎市北半田2-11-3）","naisui":"","kazan":""}}
,{"type":"Feature","geometry":{"type":"Point","coordinates":[139.56576,38.08933]},"properties":{"Name":"関川村国民健康保険関川診療所","Jusho":"新潟県岩船郡関川村大字下関515-1","kouzui":"0254-64-1051","gake":"http://www.vill.sekikawa.niigata.jp/","takashio":"〇","jishin":"〇","tsunami":"内科小児科整形外科外科","kaji":"","naisui":"","kazan":""}}
,{"type":"Feature","geometry":{"type":"Point","coordinates":[139.53878,38.13813]},"properties":{"Name":"佐藤医院女川診療所","Jusho":"新潟県岩船郡関川村大字南中453-2","kouzui":"0254-64-1047","gake":"","takashio":"〇","jishin":"〇","tsunami":"内科小児科","kaji":"県立坂町病院（新潟県村上市下鍛冶屋589）","naisui":"","kazan":""}}
,{"type":"Feature","geometry":{"type":"Point","coordinates":[139.56388,38.08963]},"properties":{"Name":"佐藤内科小児科医院","Jusho":"新潟県岩船郡関川村下関915","kouzui":"0254-64-1047","gake":"","takashio":"〇","jishin":"〇","tsunami":"内科小児科","kaji":"県立坂町病院（新潟県村上市下鍛冶屋589）","naisui":"","kazan":""}}
]};