var okinawa={"type":"FeatureCollection","name":"okinawa","features":[
{"type":"Feature","geometry":{"type":"Point","coordinates":[127.69107,26.22178]},"properties":{"Name":"医療法人がじまるの会糸数病院","Jusho":"沖縄県那覇市泊1-28-1","kouzui":"098-863-4103","gake":"https://www.itokazu-hospital.com/","takashio":"×","jishin":"〇","tsunami":"産科婦人科","kaji":"・沖縄県立南部医療センター・こども医療センター（沖縄県島尻郡南風原町字新川118-1）・那覇市立病院（沖縄県那覇市古島2丁目31番地1）・沖縄赤十字病院（沖縄県那覇市与儀1-3-1）","naisui":"","kazan":""}}
,{"type":"Feature","geometry":{"type":"Point","coordinates":[127.69132,26.22154]},"properties":{"Name":"医療法人がじまるの会ウィメンズクリニック糸数","Jusho":"沖縄県那覇市泊1-29-12","kouzui":"098-869-8395","gake":"https://www.wcitokazu.com/","takashio":"〇","jishin":"〇","tsunami":"婦人科","kaji":"・沖縄県立八重山病院（沖縄県石垣市字真栄里584?1）・沖縄県立宮古病院（沖縄県宮古島市平良字下里427-1）・まつをレディースクリニック（沖縄県石垣市字真栄里233?3）・みやぎMS.クリニック（沖縄県宮古島市平良久貝1068?1","naisui":"","kazan":""}}
,{"type":"Feature","geometry":{"type":"Point","coordinates":[127.70422,26.23085]},"properties":{"Name":"仲本病院","Jusho":"沖縄県那覇市古島1丁目22番地の1","kouzui":"098-885-3333","gake":"https://www.hagoromo.or.jp/","takashio":"×","jishin":"〇","tsunami":"内科","kaji":"","naisui":"","kazan":""}}
,{"type":"Feature","geometry":{"type":"Point","coordinates":[127.69617,26.20561]},"properties":{"Name":"医療法人寿仁会沖縄セントラル病院","Jusho":"沖縄県那覇市与儀1-26-6","kouzui":"098-854-5511","gake":"http://central.jyujinkai.or.jp","takashio":"〇","jishin":"〇","tsunami":"内科循環器整形外科外科","kaji":"那覇市立病院（那覇市古島）沖縄赤十字病院（那覇市与儀）南部医療センター（南風原町新川）琉球大学病院（西原町上原）","naisui":"","kazan":""}}
,{"type":"Feature","geometry":{"type":"Point","coordinates":[127.73412,26.22979]},"properties":{"Name":"社会医療法人葦の会オリブ山病院","Jusho":"沖縄県那覇市首里石嶺町4-356","kouzui":"098-886-2311","gake":"https://oribuyama.jp/","takashio":"×","jishin":"〇","tsunami":"内科精神科脳神経内科","kaji":"","naisui":"","kazan":""}}
,{"type":"Feature","geometry":{"type":"Point","coordinates":[127.73686,26.27682]},"properties":{"Name":"医療法人球陽会海邦病院","Jusho":"沖縄県宜野湾市真志喜2-23-5","kouzui":"098-898-2111","gake":"https://kaiho.or.jp","takashio":"×","jishin":"〇","tsunami":"内科","kaji":"","naisui":"","kazan":""}}
,{"type":"Feature","geometry":{"type":"Point","coordinates":[124.18978,24.3399]},"properties":{"Name":"石垣島徳洲会病院","Jusho":"沖縄県石垣市大浜446-1","kouzui":"0980-88-0123","gake":"https://ishigakitoku.com/","takashio":"×","jishin":"〇","tsunami":"内科外科循環器科整形外科泌尿器科","kaji":"","naisui":"","kazan":""}}
,{"type":"Feature","geometry":{"type":"Point","coordinates":[127.71254,26.24364]},"properties":{"Name":"嶺井第一病院","Jusho":"沖縄県浦添市大平466番地","kouzui":"098-877-5806","gake":"http://www.ohirakai.or.jp/","takashio":"×","jishin":"〇","tsunami":"脳神経外科神経内科整形外科内科泌尿器科","kaji":"浦添総合病院（沖縄県浦添市伊祖4丁目16?1）","naisui":"","kazan":""}}
,{"type":"Feature","geometry":{"type":"Point","coordinates":[127.71585,26.26743]},"properties":{"Name":"牧港中央病院","Jusho":"沖縄県浦添市字牧港1199番地","kouzui":"098-877-0575","gake":"http://www.haku-ai.or.jp/","takashio":"×","jishin":"〇","tsunami":"循環器内科心臓血管外科","kaji":"","naisui":"","kazan":""}}
,{"type":"Feature","geometry":{"type":"Point","coordinates":[127.98636,26.59193]},"properties":{"Name":"沖縄県立北部病院","Jusho":"沖縄県名護市大中二丁目12番3号","kouzui":"0980-52-2719","gake":"http://www.hosp.pref.okinawa.jp/hokubu/","takashio":"×","jishin":"〇","tsunami":"全科","kaji":"","naisui":"","kazan":""}}
,{"type":"Feature","geometry":{"type":"Point","coordinates":[127.96643,26.60754]},"properties":{"Name":"公益社団法人北部地区医師会北部地区医師会病院","Jusho":"沖縄県名護市宇茂佐1712-3","kouzui":"0980-54-1111","gake":"http://hokubuishikai.com/","takashio":"×","jishin":"〇","tsunami":"消化器内科呼吸器内科内分泌内科循環器内科消化器外科乳腺外科心臓血管外科整形外科リウマチ科皮膚科","kaji":"","naisui":"","kazan":""}}
,{"type":"Feature","geometry":{"type":"Point","coordinates":[127.96643,26.60754]},"properties":{"Name":"名護療育医療センタ-","Jusho":"沖縄県名護市字宇茂佐1765","kouzui":"0980-52-0957","gake":"","takashio":"×","jishin":"〇","tsunami":"小児科","kaji":"","naisui":"","kazan":""}}
,{"type":"Feature","geometry":{"type":"Point","coordinates":[127.96442,26.597]},"properties":{"Name":"あき内科クリニック","Jusho":"沖縄県名護市字宇茂佐919-7番地","kouzui":"0980-45-0088","gake":"http://akinaikaclinic.jimdo.com/","takashio":"×","jishin":"〇","tsunami":"内科","kaji":"","naisui":"","kazan":""}}
,{"type":"Feature","geometry":{"type":"Point","coordinates":[127.70789,26.09882]},"properties":{"Name":"医療法人晴明会糸満晴明病院","Jusho":"沖縄県糸満市字大度520番地","kouzui":"098-997-2011","gake":"https://www.seimei.org","takashio":"×","jishin":"〇","tsunami":"精神科","kaji":"","naisui":"","kazan":""}}
,{"type":"Feature","geometry":{"type":"Point","coordinates":[127.81065,26.3288]},"properties":{"Name":"医療法人卯の会新垣病院","Jusho":"沖縄県沖縄市安慶田4-10-3","kouzui":"098-933-2756","gake":"http://unokai-arakaki.com","takashio":"〇","jishin":"〇","tsunami":"精神科","kaji":"","naisui":"","kazan":""}}
,{"type":"Feature","geometry":{"type":"Point","coordinates":[127.78217,26.32697]},"properties":{"Name":"翔南病院","Jusho":"沖縄県沖縄市山内3-14-28","kouzui":"098-930-3020","gake":"http://www.shonanhospital.com/","takashio":"×","jishin":"〇","tsunami":"内科","kaji":"中頭病院（沖縄市登川610）・中部徳洲会病院（北中城村比嘉801）・県立中部病院（うるま市宮里281）","naisui":"","kazan":""}}
,{"type":"Feature","geometry":{"type":"Point","coordinates":[127.8101,26.36587]},"properties":{"Name":"医療法人一灯の会沖縄中央病院","Jusho":"沖縄県沖縄市知花5丁目26番1号","kouzui":"098-938-3188","gake":"http://www.oc-hospital.com","takashio":"×","jishin":"〇","tsunami":"精神科心療内科","kaji":"","naisui":"","kazan":""}}
,{"type":"Feature","geometry":{"type":"Point","coordinates":[127.81931,26.31236]},"properties":{"Name":"沖縄中部療育医療センター","Jusho":"沖縄県沖縄市比屋根5丁目2-17","kouzui":"098-932-6077","gake":"http://www.okishikyo.jp/chubu/","takashio":"×","jishin":"〇","tsunami":"内科小児科リハビリテーション科","kaji":"なし","naisui":"","kazan":""}}
,{"type":"Feature","geometry":{"type":"Point","coordinates":[127.78677,26.32722]},"properties":{"Name":"安立医院","Jusho":"沖縄県沖縄市山内1丁目7-5","kouzui":"098-933-6200","gake":"http://adachi-cl.or.jp/","takashio":"×","jishin":"〇","tsunami":"内科","kaji":"","naisui":"","kazan":""}}
,{"type":"Feature","geometry":{"type":"Point","coordinates":[127.82523,26.42301]},"properties":{"Name":"医療法人うるまの杜カヨウ眼科","Jusho":"沖縄県うるま市石川白浜2-13-12","kouzui":"098-965-2020","gake":"http://kayoh-eyeclinic.com","takashio":"×","jishin":"〇","tsunami":"眼科","kaji":"ちばなクリニック（沖縄県沖縄市知花6-25-15）中頭病院（沖縄県沖縄市字登川610）","naisui":"","kazan":""}}
,{"type":"Feature","geometry":{"type":"Point","coordinates":[127.88425,26.65737]},"properties":{"Name":"もとぶ野毛病院","Jusho":"沖縄県国頭郡本部町字大浜880-1","kouzui":"0980-47-3001","gake":"https://www.noge.or.jp/","takashio":"〇","jishin":"〇","tsunami":"内科小児科訪問","kaji":"北部病院（沖縄県名護市大中2-12-3）北部地区医師会病院（沖縄県名護市字宇茂佐17123）","naisui":"","kazan":""}}
,{"type":"Feature","geometry":{"type":"Point","coordinates":[127.77295,26.32965]},"properties":{"Name":"北上中央病院","Jusho":"沖縄県中頭郡北谷町字上勢頭631-9","kouzui":"098-936-5111","gake":"https://kitagami.or.jp/","takashio":"×","jishin":"〇","tsunami":"内科泌尿器科","kaji":"※精神科と皮膚科については、電話再診は出来ませんが他診療科の医師が代診により前回と同じお薬を処方可能か、その都度判断しますので、まずはお問い合わせください。","naisui":"","kazan":""}}
,{"type":"Feature","geometry":{"type":"Point","coordinates":[127.7984527,26.2887332]},"properties":{"Name":"北中城若松病院","Jusho":"沖縄県北中城字大城311番地","kouzui":"098-935-2277","gake":"http://www.agapewakamatsu.or.jp/wakamatsu_hospital/","takashio":"×","jishin":"〇","tsunami":"内科精神科","kaji":"","naisui":"","kazan":""}}
,{"type":"Feature","geometry":{"type":"Point","coordinates":[127.75864,26.24225]},"properties":{"Name":"琉球大学病院","Jusho":"沖縄県中頭郡西原町字上原207番地","kouzui":"098-895-3331","gake":"http://www.hosp.u-ryukyu.ac.jp/","takashio":"×","jishin":"〇","tsunami":"全診療科","kaji":"","naisui":"","kazan":""}}
]};