var shiga={"type":"FeatureCollection","name":"shiga","features":[
{"type":"Feature","geometry":{"type":"Point","coordinates":[135.91599,34.94442]},"properties":{"Name":"藤岡内科医院","Jusho":"滋賀県大津市黒津2-2-3","kouzui":"077-536-3522","gake":"http://www.fujioka-naika.jp","takashio":"△","jishin":"△","tsunami":"内科","kaji":"市立大津市民病院（滋賀県大津市本宮2-9-9）","naisui":"","kazan":""}}
,{"type":"Feature","geometry":{"type":"Point","coordinates":[135.90849,34.95377]},"properties":{"Name":"医療法人赫照会ひらた医院","Jusho":"滋賀県大津市石山寺3-15-10","kouzui":"077-537-5537","gake":"","takashio":"〇","jishin":"〇","tsunami":"内科循環器内科","kaji":"大津市民病院（滋賀県大津市本宮2-9-9）ＪＣＨＯ滋賀病院(滋賀県大津市富士見台16-1）","naisui":"","kazan":""}}
,{"type":"Feature","geometry":{"type":"Point","coordinates":[135.8856,34.99758]},"properties":{"Name":"膳所診療所","Jusho":"滋賀県大津市昭和町2-17","kouzui":"077-524-8114","gake":"","takashio":"×","jishin":"〇","tsunami":"内科小児科","kaji":"坂本民主診療所(滋賀県大津市坂本6丁目25-30）","naisui":"","kazan":""}}
,{"type":"Feature","geometry":{"type":"Point","coordinates":[135.83061,34.99181]},"properties":{"Name":"竹内医院","Jusho":"滋賀県大津市横木1-8-10","kouzui":"077-522-4319","gake":"","takashio":"〇","jishin":"〇","tsunami":"内科小児科","kaji":"大津赤十字病院(滋賀県大津市長柄1丁目1-35）洛和会音羽病院(京都府京都市山科区音羽珍事口）","naisui":"","kazan":""}}
,{"type":"Feature","geometry":{"type":"Point","coordinates":[135.92819,34.99164]},"properties":{"Name":"瀬田しもぞの眼科","Jusho":"滋賀県大津市大将軍3丁目24番6号","kouzui":"077-545-8000","gake":"http://www.shimozonoganka.com","takashio":"〇","jishin":"〇","tsunami":"眼科","kaji":"滋賀医科大学附属病院(滋賀県大津市瀬田月輪町）大津赤十字病院(滋賀県大津市長柄1丁目1-35）草津総合病院(滋賀県草津市矢橋町1660）","naisui":"","kazan":""}}
,{"type":"Feature","geometry":{"type":"Point","coordinates":[135.89561,35.09782]},"properties":{"Name":"医療法人銀杏会まつだ内科胃腸科","Jusho":"滋賀県大津市雄琴北1丁目6-14","kouzui":"077-577-3210","gake":"http://web.kyoto-inet.or.jp/peopie/matsu35/","takashio":"〇","jishin":"〇","tsunami":"内科胃腸科","kaji":"大津赤十字病院(滋賀県大津市長柄1丁目1-35）市立大津市民病院（滋賀県大津市本宮2-9-9）","naisui":"","kazan":""}}
,{"type":"Feature","geometry":{"type":"Point","coordinates":[135.91405,35.18213]},"properties":{"Name":"ふくた診療所","Jusho":"滋賀県大津市八屋戸971-5","kouzui":"077-592-8003","gake":"","takashio":"〇","jishin":"〇","tsunami":"内科","kaji":"","naisui":"","kazan":""}}
,{"type":"Feature","geometry":{"type":"Point","coordinates":[135.86263,35.01107]},"properties":{"Name":"なかじま内科クリニック","Jusho":"滋賀県大津市浜大津2丁目1-32-1","kouzui":"077-536-5181","gake":"","takashio":"×","jishin":"〇","tsunami":"内科消化器内科","kaji":"大津赤十字病院(滋賀県大津市長柄1丁目1-35）市立大津市民病院（滋賀県大津市本宮2-9-9）","naisui":"","kazan":""}}
,{"type":"Feature","geometry":{"type":"Point","coordinates":[135.90237,34.97817]},"properties":{"Name":"いしやま内科整形外科","Jusho":"滋賀県大津市松原町14-7","kouzui":"077-574-7700","gake":"http://ishiyama-naika-seikei.com","takashio":"〇","jishin":"〇","tsunami":"内科呼吸器科","kaji":"","naisui":"","kazan":""}}
,{"type":"Feature","geometry":{"type":"Point","coordinates":[135.91492,34.97704]},"properties":{"Name":"矢沢耳鼻咽喉科医院","Jusho":"滋賀県大津市大江3-24-15","kouzui":"077-544-3110","gake":"http://www7a.biglobe.ne.jp/~yazawa-ent","takashio":"〇","jishin":"〇","tsunami":"耳鼻科","kaji":"大津市民病院（滋賀県大津市本宮2-9-9）ＪＣＨＯ滋賀病院(滋賀県大津市富士見台16-1）","naisui":"","kazan":""}}
,{"type":"Feature","geometry":{"type":"Point","coordinates":[135.873,35.00636]},"properties":{"Name":"高槻医院","Jusho":"滋賀県大津市松本2-4-37","kouzui":"077-522-3991","gake":"","takashio":"〇","jishin":"〇","tsunami":"内科小児科","kaji":"","naisui":"","kazan":""}}
,{"type":"Feature","geometry":{"type":"Point","coordinates":[135.86008,35.01292]},"properties":{"Name":"大西クリニック","Jusho":"滋賀県大津市浜大津3丁目7番23号","kouzui":"077-523-5911","gake":"","takashio":"〇","jishin":"〇","tsunami":"内科小児科","kaji":"大津赤十字病院(滋賀県大津市長柄1丁目1-35）","naisui":"","kazan":""}}
,{"type":"Feature","geometry":{"type":"Point","coordinates":[135.85776,35.02355]},"properties":{"Name":"西大津耳鼻咽喉科","Jusho":"滋賀県大津市皇子が丘2-10-25-104","kouzui":"077-510-5454","gake":"http://www.nishiotsu-ent.com","takashio":"〇","jishin":"〇","tsunami":"耳鼻咽喉科","kaji":"大津赤十字病院(滋賀県大津市長柄1丁目1-35）","naisui":"","kazan":""}}
,{"type":"Feature","geometry":{"type":"Point","coordinates":[135.92163,35.11128]},"properties":{"Name":"岡本医院","Jusho":"滋賀県大津市本堅田1丁目18-21","kouzui":"077-573-2838","gake":"https://okamoto-cl.jp","takashio":"〇","jishin":"〇","tsunami":"内科小児科","kaji":"大津赤十字病院(滋賀県大津市長柄1丁目1-35）大津赤十字志賀病院(滋賀県大津市和邇中298番地）市立大津市民病院（滋賀県大津市本宮2-9-9）","naisui":"","kazan":""}}
,{"type":"Feature","geometry":{"type":"Point","coordinates":[136.21996,35.23473]},"properties":{"Name":"医療法人高山内科循環器科","Jusho":"滋賀県彦根市日夏町2680-35","kouzui":"0749-28-7007","gake":"","takashio":"〇","jishin":"〇","tsunami":"内科","kaji":"彦根市立病院(滋賀県彦根市八坂町1882）","naisui":"","kazan":""}}
,{"type":"Feature","geometry":{"type":"Point","coordinates":[136.24197,35.25352]},"properties":{"Name":"藤野こどもクリニック","Jusho":"滋賀県彦根市戸賀町36-6","kouzui":"0749-47-5311","gake":"http://www.fujino-kodomo.jp","takashio":"〇","jishin":"〇","tsunami":"小児科","kaji":"彦根市立病院(滋賀県彦根市八坂町1882）","naisui":"","kazan":""}}
,{"type":"Feature","geometry":{"type":"Point","coordinates":[136.23956,35.27004]},"properties":{"Name":"石川耳鼻咽喉科","Jusho":"滋賀県彦根市中薮町727-8","kouzui":"0749-24-4187","gake":"","takashio":"×","jishin":"〇","tsunami":"耳鼻咽喉科","kaji":"彦根市立病院(滋賀県彦根市八坂町1882）","naisui":"","kazan":""}}
,{"type":"Feature","geometry":{"type":"Point","coordinates":[136.24071,35.25552]},"properties":{"Name":"松木診療所","Jusho":"滋賀県彦根市平田町678-10","kouzui":"0749-22-5185","gake":"","takashio":"×","jishin":"〇","tsunami":"内科","kaji":"","naisui":"","kazan":""}}
,{"type":"Feature","geometry":{"type":"Point","coordinates":[136.26303,35.25764]},"properties":{"Name":"辰巳医院","Jusho":"滋賀県彦根市西沼波町269-18","kouzui":"0749-22-1180","gake":"","takashio":"×","jishin":"〇","tsunami":"内科小児科","kaji":"彦根市立病院(滋賀県彦根市八坂町1882）","naisui":"","kazan":""}}
,{"type":"Feature","geometry":{"type":"Point","coordinates":[136.23737,35.24968]},"properties":{"Name":"いけだ内科医院","Jusho":"滋賀県彦根市野瀬町18-8","kouzui":"0749-21-6060","gake":"","takashio":"×","jishin":"〇","tsunami":"内科","kaji":"彦根市立病院(滋賀県彦根市八坂町1882）","naisui":"","kazan":""}}
,{"type":"Feature","geometry":{"type":"Point","coordinates":[136.21938,35.22666]},"properties":{"Name":"医療法人坂田整形外科","Jusho":"滋賀県彦根市清崎町288-37","kouzui":"0749-28-3737","gake":"","takashio":"〇","jishin":"〇","tsunami":"整形外科","kaji":"彦根市立病院(滋賀県彦根市八坂町1882）","naisui":"","kazan":""}}
,{"type":"Feature","geometry":{"type":"Point","coordinates":[136.22467,35.22804]},"properties":{"Name":"なかつか内科医院","Jusho":"滋賀県彦根市川瀬馬場町1082番地5","kouzui":"0749-29-0981","gake":"http://www.eonet.ne.jp/nakatsuka-c/","takashio":"〇","jishin":"〇","tsunami":"内科","kaji":"なかつか内科医院","naisui":"","kazan":""}}
,{"type":"Feature","geometry":{"type":"Point","coordinates":[136.27777,35.39285]},"properties":{"Name":"風の街こどもクリニック","Jusho":"滋賀県長浜市八幡中山町361","kouzui":"0749-68-2100","gake":"http://www.kazenomachi-kodomo.website/","takashio":"×","jishin":"△","tsunami":"小児科","kaji":"","naisui":"","kazan":""}}
,{"type":"Feature","geometry":{"type":"Point","coordinates":[136.12361,35.49845]},"properties":{"Name":"にしあざい診療所","Jusho":"滋賀県長浜市西浅井町大浦2590番地","kouzui":"0749-89-0012","gake":"https://nishiazai,jadecom.or.jp","takashio":"×","jishin":"〇","tsunami":"内科小児科","kaji":"塩津出張診療所菅浦出張診療所湖北病院マキノ病院","naisui":"","kazan":""}}
,{"type":"Feature","geometry":{"type":"Point","coordinates":[136.15946,35.52242]},"properties":{"Name":"塩津出張診療所","Jusho":"滋賀県長浜市西浅井町塩津浜1795番地","kouzui":"0749-88-0341","gake":"","takashio":"×","jishin":"〇","tsunami":"内科小児科","kaji":"にしあざい診療所湖北病院マキノ病院","naisui":"","kazan":""}}
,{"type":"Feature","geometry":{"type":"Point","coordinates":[136.14269,35.45963]},"properties":{"Name":"菅浦出張診療所","Jusho":"滋賀県長浜市西浅井町菅浦218番地","kouzui":"0749-89-0506","gake":"","takashio":"×","jishin":"〇","tsunami":"内科小児科","kaji":"にしあざい診療所塩津出張診療所湖北病院マキノ病院","naisui":"","kazan":""}}
,{"type":"Feature","geometry":{"type":"Point","coordinates":[136.2811,35.36837]},"properties":{"Name":"岩本整形外科","Jusho":"滋賀県長浜市大戌亥町738番地-4号","kouzui":"0749-64-1866","gake":"","takashio":"〇","jishin":"〇","tsunami":"整形外科","kaji":"長浜赤十字病院（滋賀県長浜市宮前町14-7）","naisui":"","kazan":""}}
,{"type":"Feature","geometry":{"type":"Point","coordinates":[136.26596,35.37985]},"properties":{"Name":"アップルクリニック","Jusho":"滋賀県長浜市南呉服町9-2中村屋ビル2F","kouzui":"0749-68-0355","gake":"http://apple-clinic.jp","takashio":"〇","jishin":"〇","tsunami":"心療内科","kaji":"長浜赤十字病院精神科（滋賀県長浜市宮前町14-7）","naisui":"","kazan":""}}
,{"type":"Feature","geometry":{"type":"Point","coordinates":[136.05511,35.11224]},"properties":{"Name":"伊良子医院","Jusho":"滋賀県近江八幡市十王町123","kouzui":"0748-36-8012","gake":"","takashio":"〇","jishin":"〇","tsunami":"内科","kaji":"近江八幡市立総合医療センター(滋賀県近江八幡市土田町1379）県立総合病院県立総合病院(滋賀県守山市5丁目4番30号)","naisui":"","kazan":""}}
,{"type":"Feature","geometry":{"type":"Point","coordinates":[136.09718,35.12617]},"properties":{"Name":"おうみリウマチ膠原病・内科クリニック","Jusho":"滋賀県近江八幡市中村町20-25","kouzui":"0748-31-1888","gake":"http://www.oumi-rc.com","takashio":"×","jishin":"〇","tsunami":"内科リウマチ科アレルギー科","kaji":"近江八幡市立総合医療センター(滋賀県近江八幡市土田町1379）","naisui":"","kazan":""}}
,{"type":"Feature","geometry":{"type":"Point","coordinates":[136.09608,35.12854]},"properties":{"Name":"まつだクリニック","Jusho":"滋賀県近江八幡市桜宮町211番地3","kouzui":"0748-33-2703","gake":"http://www.ok-health.jp/about/","takashio":"×","jishin":"〇","tsunami":"外科整形外科内科","kaji":"近江八幡市立総合医療センター(滋賀県近江八幡市土田町1379）","naisui":"","kazan":""}}
,{"type":"Feature","geometry":{"type":"Point","coordinates":[136.10704,35.12986]},"properties":{"Name":"医療法人社団柴田医院","Jusho":"滋賀県近江八幡市鷹飼町北1-8-6","kouzui":"0748-31-3637","gake":"","takashio":"×","jishin":"〇","tsunami":"内科消化器科","kaji":"","naisui":"","kazan":""}}
,{"type":"Feature","geometry":{"type":"Point","coordinates":[136.09728,35.12154]},"properties":{"Name":"医療法人宮腰内科医院","Jusho":"滋賀県近江八幡市白鳥町26-1","kouzui":"0748-32-0028","gake":"https://www.miyakoshi-naikaiin.com","takashio":"×","jishin":"〇","tsunami":"内科","kaji":"近江八幡市立総合医療センター(滋賀県近江八幡市土田町1379）","naisui":"","kazan":""}}
,{"type":"Feature","geometry":{"type":"Point","coordinates":[136.12041,35.10373]},"properties":{"Name":"浅野医院","Jusho":"滋賀県近江八幡市千僧供町265番地","kouzui":"0748-37-0246","gake":"","takashio":"×","jishin":"〇","tsunami":"内科","kaji":"","naisui":"","kazan":""}}
,{"type":"Feature","geometry":{"type":"Point","coordinates":[136.09941,35.12038]},"properties":{"Name":"白鳥医院","Jusho":"滋賀県近江八幡市鷹飼町450-5","kouzui":"0748-43-1178","gake":"https://shiratoriclinic.com","takashio":"〇","jishin":"〇","tsunami":"内科脳神経内科","kaji":"近江八幡市立総合医療センター(滋賀県近江八幡市土田町1379）田原整形外科","naisui":"","kazan":""}}
,{"type":"Feature","geometry":{"type":"Point","coordinates":[135.9577,35.00139]},"properties":{"Name":"近江草津徳洲会病院","Jusho":"滋賀県草津市東矢倉3-34-52","kouzui":"077-567-3610","gake":"https://www.oumi-kusatsu-hp.jp","takashio":"〇","jishin":"〇","tsunami":"規定なし","kaji":"","naisui":"","kazan":""}}
,{"type":"Feature","geometry":{"type":"Point","coordinates":[135.93346,35.02826]},"properties":{"Name":"北山田診療所","Jusho":"滋賀県草津市北山田町245-1","kouzui":"077-566-2560077-567-4611","gake":"","takashio":"〇","jishin":"〇","tsunami":"内科小児科","kaji":"済生会滋賀県病院（滋賀県栗東市大橋二丁目4番1号）草津総合病院(滋賀県草津市矢橋町1660）","naisui":"","kazan":""}}
,{"type":"Feature","geometry":{"type":"Point","coordinates":[135.97887,35.00335]},"properties":{"Name":"いづ井上内科","Jusho":"滋賀県草津市青地町481-3","kouzui":"077-567-8502","gake":"http://www.eonet.ne.jp/~kowloon/","takashio":"×","jishin":"〇","tsunami":"内科消化器循環器呼吸器","kaji":"","naisui":"","kazan":""}}
,{"type":"Feature","geometry":{"type":"Point","coordinates":[135.96439,34.99686]},"properties":{"Name":"そうむらこどもクリニック","Jusho":"滋賀県草津市追分南4-6-23","kouzui":"077-548-6655","gake":"http://soumura-cl.com","takashio":"〇","jishin":"〇","tsunami":"小児科","kaji":"そうむらこどもクリニック","naisui":"","kazan":""}}
,{"type":"Feature","geometry":{"type":"Point","coordinates":[135.95958,35.02386]},"properties":{"Name":"伊藤内科クリニック","Jusho":"滋賀県草津市西大路町4番32-106号1","kouzui":"077-563-3550","gake":"http://ito-med.com/","takashio":"×","jishin":"〇","tsunami":"循環器内科、内科","kaji":"済生会滋賀県病院（滋賀県栗東市大橋二丁目4番1号）市立大津市民病院（滋賀県大津市本宮2-9-9）草津総合病院(滋賀県草津市矢橋町1660）県立総合病院(滋賀県守山市5丁目4番30号)滋賀医科大学医学部附属病院(滋賀県大津市瀬田月輪町）","naisui":"","kazan":""}}
,{"type":"Feature","geometry":{"type":"Point","coordinates":[135.96713,35.00893]},"properties":{"Name":"おがわ耳鼻咽喉科医院","Jusho":"滋賀県草津市追分1丁目4番地25-2","kouzui":"077-516-8733","gake":"https://ssc3.doctorqube.com/ogawa-jibika/","takashio":"〇","jishin":"〇","tsunami":"耳鼻科","kaji":"済生会滋賀県病院（滋賀県栗東市大橋二丁目4番1号）","naisui":"","kazan":""}}
,{"type":"Feature","geometry":{"type":"Point","coordinates":[135.95155,35.00233]},"properties":{"Name":"南草津病院","Jusho":"滋賀県草津市野路5丁目2-39","kouzui":"077-562-0724","gake":"https://373932hp.jp/","takashio":"×","jishin":"〇","tsunami":"内科整形外科外科神経内科","kaji":"","naisui":"","kazan":""}}
,{"type":"Feature","geometry":{"type":"Point","coordinates":[135.99663,35.06134]},"properties":{"Name":"内科胃腸科井上クリニック","Jusho":"滋賀県守山市吉身3丁目14-46","kouzui":"077-581-1233","gake":"","takashio":"〇","jishin":"〇","tsunami":"内科胃腸科","kaji":"済生会滋賀県病院（滋賀県栗東市大橋二丁目4番1号）","naisui":"","kazan":""}}
,{"type":"Feature","geometry":{"type":"Point","coordinates":[135.99518,35.05818]},"properties":{"Name":"いしべ耳鼻咽喉科","Jusho":"滋賀県守山市吉身2丁目6-51","kouzui":"077-582-1334","gake":"http://www.e33.jp","takashio":"〇","jishin":"〇","tsunami":"耳鼻咽喉科アレルギー科小児科","kaji":"済生会滋賀県病院（滋賀県栗東市大橋二丁目4番1号）済生会守山市民病院(滋賀県守山市森山4丁目14-1)県立総合病院県立総合病院(滋賀県守山市5丁目4番30号)","naisui":"","kazan":""}}
,{"type":"Feature","geometry":{"type":"Point","coordinates":[135.98666,35.07534]},"properties":{"Name":"医療法人かさはら医院","Jusho":"滋賀県守山市播磨田町1456-1","kouzui":"077-514-0003","gake":"","takashio":"〇","jishin":"〇","tsunami":"内科整形外科外科神経内科","kaji":"済生会滋賀県病院（滋賀県栗東市大橋二丁目4番1号）草津総合病院(滋賀県草津市矢橋町1660）県立総合病院(滋賀県守山市5丁目4番30号)","naisui":"","kazan":""}}
,{"type":"Feature","geometry":{"type":"Point","coordinates":[135.96704,35.05946]},"properties":{"Name":"ひろたに医院","Jusho":"滋賀県守山市大林町214-5","kouzui":"077-581-3636","gake":"","takashio":"〇","jishin":"〇","tsunami":"内科小児科(6歳以上)","kaji":"済生会滋賀県病院（滋賀県栗東市大橋二丁目4番1号）草津総合病院(滋賀県草津市矢橋町1660）県立総合病院(滋賀県守山市5丁目4番30号)","naisui":"","kazan":""}}
,{"type":"Feature","geometry":{"type":"Point","coordinates":[135.97487,35.05429]},"properties":{"Name":"ヤザマ内科医院","Jusho":"滋賀県守山市大門町56-1","kouzui":"077-582-8627","gake":"https://www.yazamanaika.com/","takashio":"×","jishin":"〇","tsunami":"内科小児科","kaji":"済生会滋賀県病院（滋賀県栗東市大橋二丁目4番1号）県立総合病院(滋賀県守山市5丁目4番30号)","naisui":"","kazan":""}}
,{"type":"Feature","geometry":{"type":"Point","coordinates":[135.96466,35.04606]},"properties":{"Name":"うつのみや医院","Jusho":"滋賀県栗東市十里136-2","kouzui":"077-552-1888","gake":"https://shiga-doctor.net","takashio":"〇","jishin":"〇","tsunami":"内科小児科","kaji":"済生会滋賀県病院（滋賀県栗東市大橋二丁目4番1号）草津総合病院(滋賀県草津市矢橋町1660）","naisui":"","kazan":""}}
,{"type":"Feature","geometry":{"type":"Point","coordinates":[135.97055,35.02355]},"properties":{"Name":"医療法人社団三愛小児科診療所","Jusho":"滋賀県栗東市小柿6丁目10番2号","kouzui":"077-553-6656","gake":"http://www.sanaiped.com","takashio":"〇","jishin":"〇","tsunami":"小児科アレルギー科","kaji":"済生会滋賀県病院（滋賀県栗東市大橋二丁目4番1号）滋賀医科大学医学部附属病院(滋賀県大津市瀬田月輪町）","naisui":"","kazan":""}}
,{"type":"Feature","geometry":{"type":"Point","coordinates":[135.97284,35.0176]},"properties":{"Name":"びわこ皮フ科","Jusho":"滋賀県栗東市小柿10丁目16-14","kouzui":"077-554-4165","gake":"http://biwakohifuka.com/","takashio":"×","jishin":"〇","tsunami":"皮膚科","kaji":"草津総合病院(滋賀県草津市矢橋町1660）","naisui":"","kazan":""}}
,{"type":"Feature","geometry":{"type":"Point","coordinates":[135.98677,35.0349]},"properties":{"Name":"パームこどもクリニック","Jusho":"滋賀県栗東市野尻440","kouzui":"077-551-2110","gake":"https://www.palmclinic.net","takashio":"×","jishin":"〇","tsunami":"小児科アレルギー科心療内科","kaji":"済生会滋賀県病院（滋賀県栗東市大橋二丁目4番1号）草津総合病院(滋賀県草津市矢橋町1660）滋賀県立小児保健医療センター(滋賀県守山市守山5丁目7-30)市立長浜病院(滋賀県長浜市大戌亥町313)","naisui":"","kazan":""}}
,{"type":"Feature","geometry":{"type":"Point","coordinates":[136.01366,34.99305]},"properties":{"Name":"(一財）競馬共助会栗東診療所","Jusho":"滋賀県栗東市御園1028","kouzui":"077-558-0039","gake":"https://www.ritto-clinic.com","takashio":"〇","jishin":"〇","tsunami":"内科","kaji":"済生会滋賀県病院（滋賀県栗東市大橋二丁目4番1号）滋賀医科大学医学部附属病院(滋賀県大津市瀬田月輪町）","naisui":"","kazan":""}}
,{"type":"Feature","geometry":{"type":"Point","coordinates":[136.17471,34.94297]},"properties":{"Name":"寺井医院","Jusho":"滋賀県甲賀市甲南町希望ヶ丘本町6丁目857-81","kouzui":"0748-86-1112","gake":"","takashio":"〇","jishin":"〇","tsunami":"内科小児科呼吸器内科","kaji":"公立甲賀病院(滋賀県甲賀市水口町松尾1256）甲南病院(滋賀県甲賀市甲南町葛木958）","naisui":"","kazan":""}}
,{"type":"Feature","geometry":{"type":"Point","coordinates":[136.15941,34.97102]},"properties":{"Name":"みなくち内科・消化器内科","Jusho":"滋賀県甲賀市水口町南林口47-2","kouzui":"0748-63-2100","gake":"http://minakuchinaika.com","takashio":"×","jishin":"〇","tsunami":"内科消化器内科","kaji":"","naisui":"","kazan":""}}
,{"type":"Feature","geometry":{"type":"Point","coordinates":[136.24456,35.015]},"properties":{"Name":"あいさか小児科","Jusho":"滋賀県蒲生郡日野町松尾二丁目88番7","kouzui":"0748-53-8139","gake":"http://www.aisaka-shounika.com","takashio":"〇","jishin":"〇","tsunami":"小児科アレルギー科内科","kaji":"日野記念病院（滋賀県蒲生郡日野町上野田200-1）公立甲賀病院(滋賀県甲賀市水口町松尾1256）","naisui":"","kazan":""}}
,{"type":"Feature","geometry":{"type":"Point","coordinates":[136.16989,34.97877]},"properties":{"Name":"浅田クリニック","Jusho":"滋賀県甲賀市水口町東名坂226-1","kouzui":"0748-69-7755","gake":"http://asada-clinic.net","takashio":"〇","jishin":"〇","tsunami":"呼吸器内科内科耳鼻咽喉科","kaji":"公立甲賀病院(滋賀県甲賀市水口町松尾1256）","naisui":"","kazan":""}}
,{"type":"Feature","geometry":{"type":"Point","coordinates":[136.15676,34.95285]},"properties":{"Name":"やまもと内科外科クリニック","Jusho":"滋賀県甲賀市水口町虫生野中央111","kouzui":"0748-62-9559","gake":"http://www.yamamoto-cl.net","takashio":"×","jishin":"〇","tsunami":"内科外科","kaji":"公立甲賀病院(滋賀県甲賀市水口町松尾1256）","naisui":"","kazan":""}}
,{"type":"Feature","geometry":{"type":"Point","coordinates":[136.18039,34.91816]},"properties":{"Name":"布留クリニック","Jusho":"滋賀県甲賀市甲南町寺庄1098","kouzui":"0748-86-3135","gake":"http://www.furu-clinic.jp","takashio":"〇","jishin":"〇","tsunami":"内科リウマチ科整形外科皮膚科","kaji":"公立甲賀病院(滋賀県甲賀市水口町松尾1256）甲南病院(滋賀県甲賀市甲南町葛木958）","naisui":"","kazan":""}}
,{"type":"Feature","geometry":{"type":"Point","coordinates":[136.16665,34.97954]},"properties":{"Name":"佐藤眼科","Jusho":"滋賀県甲賀市水口町名坂781-1","kouzui":"0748-63-5234","gake":"https://satoganka.jp","takashio":"×","jishin":"〇","tsunami":"眼科","kaji":"公立甲賀病院(滋賀県甲賀市水口町松尾1256）滋賀医科大学附属病院(滋賀県大津市瀬田月輪町）","naisui":"","kazan":""}}
,{"type":"Feature","geometry":{"type":"Point","coordinates":[136.17961,34.91603]},"properties":{"Name":"ハートクリニックこころ","Jusho":"滋賀県甲賀市甲南町野尻411","kouzui":"0748-86-0011","gake":"http://www.kokoro-shiga.org/","takashio":"△","jishin":"〇","tsunami":"内科","kaji":"公立甲賀病院(滋賀県甲賀市水口町松尾1256）","naisui":"","kazan":""}}
,{"type":"Feature","geometry":{"type":"Point","coordinates":[136.19852,34.96083]},"properties":{"Name":"医療法人田代クリニック","Jusho":"滋賀県甲賀市水口町新城696","kouzui":"0748-63-0530","gake":"https://tashiro-cl.com","takashio":"×","jishin":"〇","tsunami":"内科外科整形外科","kaji":"公立甲賀病院(滋賀県甲賀市水口町松尾1256）","naisui":"","kazan":""}}
,{"type":"Feature","geometry":{"type":"Point","coordinates":[136.02551,35.07212]},"properties":{"Name":"医療法人たちいり小児科医院","Jusho":"滋賀県野洲市久野部198-1","kouzui":"077-588-0141","gake":"","takashio":"×","jishin":"〇","tsunami":"小児科内科","kaji":"済生会滋賀県病院（滋賀県栗東市大橋二丁目4番1号）済生会守山市民病院(滋賀県守山市森山4丁目14-1)近江草津徳洲会病院(滋賀県草津市東矢倉3丁目34-52）","naisui":"","kazan":""}}
,{"type":"Feature","geometry":{"type":"Point","coordinates":[136.0275,35.06298]},"properties":{"Name":"うえだこどもクリニック","Jusho":"滋賀県野洲市小篠原869-1","kouzui":"077-596-3751","gake":"https://ueda-kodomo.jp/","takashio":"〇","jishin":"〇","tsunami":"小児科","kaji":"済生会滋賀県病院（滋賀県栗東市大橋二丁目4番1号）","naisui":"","kazan":""}}
,{"type":"Feature","geometry":{"type":"Point","coordinates":[136.08494,35.00094]},"properties":{"Name":"医療生協こうせい駅前診療所","Jusho":"滋賀県湖南市針337-1","kouzui":"0748-71-3222","gake":"http://www.shiga-mcoop.jp/kousei/","takashio":"×","jishin":"〇","tsunami":"内科小児科","kaji":"済生会滋賀県病院（滋賀県栗東市大橋二丁目4番1号）","naisui":"","kazan":""}}
,{"type":"Feature","geometry":{"type":"Point","coordinates":[136.04309,35.40682]},"properties":{"Name":"一般財団法人近江愛隣院今津病院","Jusho":"滋賀県高島市今津町南新保87番地1","kouzui":"0740-22-2238","gake":"http://www.oumiairinen.org/","takashio":"〇","jishin":"〇","tsunami":"内科","kaji":"","naisui":"","kazan":""}}
,{"type":"Feature","geometry":{"type":"Point","coordinates":[136.03105,35.39865]},"properties":{"Name":"おかだ小児科医院","Jusho":"滋賀県高島市今津町名小路1丁目1-6","kouzui":"0740-22-8071","gake":"https://www.okadaiin.com","takashio":"〇","jishin":"〇","tsunami":"小児科","kaji":"","naisui":"","kazan":""}}
,{"type":"Feature","geometry":{"type":"Point","coordinates":[136.29902,35.07562]},"properties":{"Name":"東近江市永源寺診療所","Jusho":"滋賀県東近江市山上町1352","kouzui":"0748-27-1160","gake":"https://eigenji-clinic.jp","takashio":"〇","jishin":"〇","tsunami":"内科小児科","kaji":"東近江市あいとう診療所（東近江市妹町29番地）","naisui":"","kazan":""}}
,{"type":"Feature","geometry":{"type":"Point","coordinates":[136.18661,35.10684]},"properties":{"Name":"おざき内科医院","Jusho":"滋賀県東近江市小脇町2401-8","kouzui":"0748-23-1911","gake":"","takashio":"〇","jishin":"〇","tsunami":"内科消化器科循環器科","kaji":"東近江敬愛病院(滋賀県東近江市八日市東本町8-16）東近江総合医療センター(滋賀県東近江市五智町255)近江八幡市立総合医療センター(滋賀県近江八幡市土田町1379）","naisui":"","kazan":""}}
,{"type":"Feature","geometry":{"type":"Point","coordinates":[136.19478,35.11452]},"properties":{"Name":"医療法人社団双秀会小山眼科クリニック","Jusho":"滋賀県東近江市八日市浜野町487-1近江鉄道八日市駅駅舎1階","kouzui":"0748-25-0065","gake":"http://www.k-eye.cc","takashio":"〇","jishin":"〇","tsunami":"眼科","kaji":"","naisui":"","kazan":""}}
,{"type":"Feature","geometry":{"type":"Point","coordinates":[136.19812,35.11124]},"properties":{"Name":"島田医院","Jusho":"滋賀県東近江市八日市金屋2丁目1番7号","kouzui":"0748-22-0140","gake":"","takashio":"〇","jishin":"〇","tsunami":"内科","kaji":"東近江敬愛病院(滋賀県東近江市八日市東本町8-16）","naisui":"","kazan":""}}
,{"type":"Feature","geometry":{"type":"Point","coordinates":[136.24724,35.01117]},"properties":{"Name":"医療法人社団朝日医院","Jusho":"滋賀県蒲生郡日野町大窪1010-1","kouzui":"0748-52-0057","gake":"http://www.shigaken-asahi-iin.jp","takashio":"△","jishin":"〇","tsunami":"内科小児科","kaji":"日野記念病院（滋賀県蒲生郡日野町上野田200-1）","naisui":"","kazan":""}}
]};