var wakayama={"type":"FeatureCollection","name":"wakayama","features":[
{"type":"Feature","geometry":{"type":"Point","coordinates":[135.214702,34.063122]},"properties":{"Name":"ゆあさクリニック","Jusho":"和歌山県有田郡有田川町下津野1288-1","kouzui":"0737-52-8880","gake":"","takashio":"○","jishin":"○","tsunami":"内科","kaji":"済生会有田病院（和歌山県有田郡湯浅町吉川52-6）","naisui":"","kazan":""}}
,{"type":"Feature","geometry":{"type":"Point","coordinates":[135.20485,34.05892]},"properties":{"Name":"赤ちゃんからの平山こどもクリニック","Jusho":"和歌山県有田郡有田川町天満305-4","kouzui":"0737-52-8666","gake":"http://www.hirayama-kodomo.jp","takashio":"○","jishin":"○","tsunami":"小児科小児アレルギー科","kaji":"","naisui":"","kazan":""}}
,{"type":"Feature","geometry":{"type":"Point","coordinates":[135.17368,34.0349]},"properties":{"Name":"耳鼻咽喉科ごとう医院","Jusho":"和歌山県有田郡湯浅町湯浅128-2","kouzui":"0737-63-3838","gake":"","takashio":"○","jishin":"○","tsunami":"耳鼻咽喉科アレルギー科","kaji":"和歌山県立医科大学附属病院（和歌山市紀三井寺811-1）日赤和歌山医療センター（和歌山市小松原通4-20）","naisui":"","kazan":""}}
,{"type":"Feature","geometry":{"type":"Point","coordinates":[135.17509,34.03501]},"properties":{"Name":"平山内科皮膚泌尿器科","Jusho":"和歌山県有田郡湯浅町湯浅459","kouzui":"0737-63-1103","gake":"","takashio":"○","jishin":"○","tsunami":"内科","kaji":"","naisui":"","kazan":""}}
,{"type":"Feature","geometry":{"type":"Point","coordinates":[135.2345133,34.068219]},"properties":{"Name":"野田医院","Jusho":"和歌山県有田郡有田川町庄574","kouzui":"0737-52-7578","gake":"http://www.naxnet.or.jp/~non/","takashio":"×","jishin":"○","tsunami":"内科","kaji":"","naisui":"","kazan":""}}
,{"type":"Feature","geometry":{"type":"Point","coordinates":[135.24007,34.0649]},"properties":{"Name":"和歌山県立こころの医療センター","Jusho":"和歌山県有田郡有田川町庄31","kouzui":"0737-52-3221","gake":"https://www.pref.wakayama.lg.jp/prefg/050112/050112.html","takashio":"×","jishin":"○","tsunami":"精神科","kaji":"","naisui":"","kazan":""}}
,{"type":"Feature","geometry":{"type":"Point","coordinates":[135.429763,34.084094]},"properties":{"Name":"なかむら内科クリニック","Jusho":"和歌山県有田郡有田川町清水379-2","kouzui":"0737-25-9030","gake":"","takashio":"○","jishin":"○","tsunami":"内科小児科","kaji":"","naisui":"","kazan":""}}
,{"type":"Feature","geometry":{"type":"Point","coordinates":[135.40294,33.72998]},"properties":{"Name":"紀南病院","Jusho":"和歌山県田辺市新庄町46-70","kouzui":"0739-22-5000","gake":"http://www.kinan-hp.tanabe.wakayama.jp/","takashio":"×","jishin":"〇","tsunami":"全科（産婦人科除く）","kaji":"なし","naisui":"","kazan":""}}
,{"type":"Feature","geometry":{"type":"Point","coordinates":[135.39938,33.70075]},"properties":{"Name":"独立行政法人国立病院機構南和歌山医療センター","Jusho":"和歌山県田辺市たきない町27-1","kouzui":"0739-26-7050","gake":"https://minamiwakayama.hosp.go.jp/","takashio":"×","jishin":"〇","tsunami":"全科","kaji":"","naisui":"","kazan":""}}
,{"type":"Feature","geometry":{"type":"Point","coordinates":[135.4444,33.70834]},"properties":{"Name":"南紀医療福祉センター","Jusho":"和歌山県西牟婁郡上富田町岩田1776-1","kouzui":"0739-47-2175","gake":"https://www.wfj.or.jp/","takashio":"×","jishin":"○","tsunami":"精神科","kaji":"","naisui":"","kazan":""}}
,{"type":"Feature","geometry":{"type":"Point","coordinates":[135.39279,33.74608]},"properties":{"Name":"あきづクリニック","Jusho":"田辺市秋津町189-16","kouzui":"0739-34-3090","gake":"https://www.akizu-clinic.com/","takashio":"○","jishin":"○","tsunami":"脳神経内科リハビリ科","kaji":"紀南病院南和歌山医療センター田辺中央病院白浜はまゆう病院","naisui":"","kazan":""}}
,{"type":"Feature","geometry":{"type":"Point","coordinates":[135.385866,33.731141]},"properties":{"Name":"池畑医院","Jusho":"田辺市湊47-38","kouzui":"0739-25-1217","gake":"","takashio":"×","jishin":"○","tsunami":"皮フ科","kaji":"","naisui":"","kazan":""}}
,{"type":"Feature","geometry":{"type":"Point","coordinates":[135.35072,33.66518]},"properties":{"Name":"医療法人健仁会三谷医院","Jusho":"和歌山県西牟婁郡白浜町1400","kouzui":"0739-42-3606","gake":"https://www.mitani-clinic-shirahama.com/","takashio":"×","jishin":"○","tsunami":"内科消化器科","kaji":"","naisui":"","kazan":""}}
,{"type":"Feature","geometry":{"type":"Point","coordinates":[135.395269,33.737135]},"properties":{"Name":"医療法人桜菜会まろクリニック","Jusho":"田辺市下万呂393-5","kouzui":"0739-81-1200","gake":"http://maroclinic.sakura.ne.jp/","takashio":"×","jishin":"○","tsunami":"脳神経外科","kaji":"","naisui":"","kazan":""}}
,{"type":"Feature","geometry":{"type":"Point","coordinates":[135.35509,33.7343]},"properties":{"Name":"医療法人長嶋医院","Jusho":"田辺市目良32-32","kouzui":"0739-24-3220","gake":"","takashio":"×","jishin":"○","tsunami":"内科胃腸科","kaji":"","naisui":"","kazan":""}}
,{"type":"Feature","geometry":{"type":"Point","coordinates":[135.417395,33.693452]},"properties":{"Name":"上富田クリニック","Jusho":"和歌山県西牟婁郡上富田町朝来1407-1","kouzui":"0739-47-1100","gake":"","takashio":"×","jishin":"○","tsunami":"内科眼科外科","kaji":"南和歌山医療センター紀南病院","naisui":"","kazan":""}}
,{"type":"Feature","geometry":{"type":"Point","coordinates":[135.37431,33.73017]},"properties":{"Name":"外科内科辻医院","Jusho":"田辺市上屋敷3丁目11番14号","kouzui":"0739-22-0534","gake":"","takashio":"×","jishin":"○","tsunami":"外科内科","kaji":"","naisui":"","kazan":""}}
,{"type":"Feature","geometry":{"type":"Point","coordinates":[135.39317,33.73199]},"properties":{"Name":"坂口耳鼻咽喉科医院","Jusho":"田辺市あけぼの46-12","kouzui":"0739-22-8741","gake":"","takashio":"×","jishin":"○","tsunami":"耳鼻咽喉科アレルギー科","kaji":"紀南病院南和歌山医療センター","naisui":"","kazan":""}}
,{"type":"Feature","geometry":{"type":"Point","coordinates":[135.77192,33.837944]},"properties":{"Name":"田辺市本宮さくら診療所","Jusho":"田辺市本宮町本宮921番地の2","kouzui":"0735-42-8101","gake":"","takashio":"○","jishin":"○","tsunami":"内科","kaji":"","naisui":"","kazan":""}}
,{"type":"Feature","geometry":{"type":"Point","coordinates":[135.382031,33.729345]},"properties":{"Name":"中西内科胃腸科医院","Jusho":"田辺市下屋敷14-2","kouzui":"0739-25-2500","gake":"","takashio":"×","jishin":"○","tsunami":"内科","kaji":"","naisui":"","kazan":""}}
,{"type":"Feature","geometry":{"type":"Point","coordinates":[135.433046,33.74647]},"properties":{"Name":"野の花診療所","Jusho":"田辺市下三栖1817","kouzui":"0739-34-0555","gake":"","takashio":"×","jishin":"○","tsunami":"内科小児科","kaji":"","naisui":"","kazan":""}}
,{"type":"Feature","geometry":{"type":"Point","coordinates":[135.38007,33.7354]},"properties":{"Name":"平畑医院","Jusho":"田辺市高雄一丁目5-2","kouzui":"0739-24-0770","gake":"","takashio":"×","jishin":"○","tsunami":"外科内科","kaji":"紀南病院南和歌山医療センター","naisui":"","kazan":""}}
,{"type":"Feature","geometry":{"type":"Point","coordinates":[135.33088,33.797952]},"properties":{"Name":"ひがし内科クリニック","Jusho":"和歌山県日高郡みなべ町東本庄589-1","kouzui":"0739-74-3269","gake":"","takashio":"○","jishin":"○","tsunami":"内科","kaji":"紀南病院","naisui":"","kazan":""}}
,{"type":"Feature","geometry":{"type":"Point","coordinates":[135.39236,33.73418]},"properties":{"Name":"ふくはらこどもクリニック","Jusho":"和歌山県田辺市朝日ヶ丘13-24","kouzui":"0739-33-7711","gake":"https://www.fukuhara-kodomo.com/","takashio":"①のみ可","jishin":"○","tsunami":"小児科アレルギー科","kaji":"","naisui":"","kazan":""}}
,{"type":"Feature","geometry":{"type":"Point","coordinates":[135.58429,34.21784]},"properties":{"Name":"高野山総合診療所","Jusho":"和歌山県伊都郡高野町大字高野山631番地","kouzui":"0736-56-2911","gake":"http://www.town.koya.wakayama.jp/health/hospital/","takashio":"×","jishin":"〇","tsunami":"内科","kaji":"高野山総合診療所","naisui":"","kazan":""}}
,{"type":"Feature","geometry":{"type":"Point","coordinates":[135.699093,34.26144]},"properties":{"Name":"富貴診療所","Jusho":"和歌山県伊都郡高野町西富貴46","kouzui":"0736-53-2013","gake":"","takashio":"×","jishin":"〇","tsunami":"内科","kaji":"なし","naisui":"","kazan":""}}
,{"type":"Feature","geometry":{"type":"Point","coordinates":[135.58156,34.2978]},"properties":{"Name":"医療法人せせらぎ会小林診療所","Jusho":"和歌山県橋本市学文路705","kouzui":"0736-32-0469","gake":"","takashio":"〇","jishin":"〇","tsunami":"内科循環器内科","kaji":"","naisui":"","kazan":""}}
,{"type":"Feature","geometry":{"type":"Point","coordinates":[135.29114,34.27779]},"properties":{"Name":"ふるさと内科クリニック","Jusho":"和歌山県岩出市西安上62-1","kouzui":"0736-62-2525","gake":"https://furusato-naika.com","takashio":"○","jishin":"○","tsunami":"内科","kaji":"公立那賀病院 (和歌山県紀の川市打田1282番地)日本赤十字社和歌山医療センター (和歌山県和歌山市小松原通四丁目20番地)","naisui":"","kazan":""}}
,{"type":"Feature","geometry":{"type":"Point","coordinates":[135.27943,34.26472]},"properties":{"Name":"いちご耳鼻咽喉科藤原クリニック","Jusho":"和歌山県岩出市吉田319-10","kouzui":"0736-63-0701","gake":"https://3387ichigo.com","takashio":"○","jishin":"○","tsunami":"耳鼻咽喉科","kaji":"公立那賀病院 (和歌山県紀の川市打田1282番地)和歌山県立医科大学付属病院 (和歌山県和歌山市811－1)日本赤十字社和歌山医療センター (和歌山県和歌山市小松原通四丁目20番地)","naisui":"","kazan":""}}
,{"type":"Feature","geometry":{"type":"Point","coordinates":[135.19675,34.22478]},"properties":{"Name":"土井内科胃腸科","Jusho":"和歌山市有家249-16","kouzui":"073-474-8885","gake":"","takashio":"○","jishin":"○","tsunami":"内科胃腸科","kaji":"","naisui":"","kazan":""}}
,{"type":"Feature","geometry":{"type":"Point","coordinates":[135.18959,34.23372]},"properties":{"Name":"星野胃腸クリニック","Jusho":"和歌山市友田町5丁目32","kouzui":"073-422-0007","gake":"http://www.hoshino-cl.com","takashio":"○","jishin":"○","tsunami":"内科胃腸科乳腺科","kaji":"和歌山県立医大（和歌山市紀三井寺811－1）日赤和歌山医療センター（和歌山市小松原通4－20）","naisui":"","kazan":""}}
,{"type":"Feature","geometry":{"type":"Point","coordinates":[135.18954,34.23479]},"properties":{"Name":"生馬医院","Jusho":"和歌山市吉田436","kouzui":"073-422-1458","gake":"http://www.ikomaiin.com","takashio":"○","jishin":"○","tsunami":"小児科内科","kaji":"和歌山県立医大（和歌山市紀三井寺811－1）日赤和歌山医療センター（和歌山市小松原通4－20）","naisui":"","kazan":""}}
,{"type":"Feature","geometry":{"type":"Point","coordinates":[135.16794,34.22298]},"properties":{"Name":"菱川クリニック","Jusho":"和歌山市茶屋ノ丁1‐3","kouzui":"073-423-8201","gake":"","takashio":"×","jishin":"○","tsunami":"整形外科","kaji":"医療法人　恒生会　菱川クリニック","naisui":"","kazan":""}}
,{"type":"Feature","geometry":{"type":"Point","coordinates":[135.1924,34.23291]},"properties":{"Name":"きみこクリニック胃腸肛門科","Jusho":"和歌山市黒田1-1-10","kouzui":"073-474-2111","gake":"","takashio":"","jishin":"○","tsunami":"肛門科胃腸科","kaji":"","naisui":"","kazan":""}}
,{"type":"Feature","geometry":{"type":"Point","coordinates":[135.22433,34.23235]},"properties":{"Name":"上中クリニック","Jusho":"和歌山市岩橋1583-1","kouzui":"073-475-5053","gake":"","takashio":"〇","jishin":"〇","tsunami":"内科消化器科","kaji":"","naisui":"","kazan":""}}
,{"type":"Feature","geometry":{"type":"Point","coordinates":[135.16873,34.20225]},"properties":{"Name":"榎本耳鼻咽喉科","Jusho":"和歌山市新高町3-10","kouzui":"073-445-8787","gake":"","takashio":"×","jishin":"〇","tsunami":"耳鼻咽喉科","kaji":"和歌山県立医大（和歌山市紀三井寺811－1）日赤和歌山医療センター（和歌山市小松原通4－20）","naisui":"","kazan":""}}
,{"type":"Feature","geometry":{"type":"Point","coordinates":[135.12895,34.25067]},"properties":{"Name":"宮﨑泌尿器科内科クリニック","Jusho":"和歌山市松江北6-2-22","kouzui":"073-475-0870","gake":"","takashio":"〇","jishin":"〇","tsunami":"宮﨑　善久","kaji":"","naisui":"","kazan":""}}
,{"type":"Feature","geometry":{"type":"Point","coordinates":[135.13297,34.26127]},"properties":{"Name":"こばやし内科クリニック","Jusho":"和歌山市木ノ本552-1","kouzui":"073-453-3100","gake":"","takashio":"〇","jishin":"〇","tsunami":"内科呼吸器内科循環器内科消化器内科","kaji":"和歌山ろうさい病院（和歌山市木ノ本93-1）","naisui":"","kazan":""}}
,{"type":"Feature","geometry":{"type":"Point","coordinates":[135.20728,34.24838]},"properties":{"Name":"まえだ内科クリニック","Jusho":"和歌山市加納122-12","kouzui":"073-474-0080","gake":"http://www.maeda-naika-cl.com","takashio":"×","jishin":"〇","tsunami":"内科","kaji":"和歌山県立医大（和歌山市紀三井寺811－1）日赤和歌山医療センター（和歌山市小松原通4－20）済生会和歌山病院（和歌山市十二番丁45）","naisui":"","kazan":""}}
,{"type":"Feature","geometry":{"type":"Point","coordinates":[135.18956,34.23288]},"properties":{"Name":"ひうらクリニック","Jusho":"和歌山市友田町5-43 山植ビル2F","kouzui":"073-433-7556","gake":"http://www.hiuraclinic.com/","takashio":"×","jishin":"〇","tsunami":"内科泌尿器科","kaji":"日赤和歌山医療センター（和歌山市小松原通4－20）","naisui":"","kazan":""}}
,{"type":"Feature","geometry":{"type":"Point","coordinates":[135.19319,34.23201]},"properties":{"Name":"太田医院","Jusho":"和歌山市太田1-13-10","kouzui":"073-473-0010","gake":"http://oota-iin.jp/","takashio":"","jishin":"〇","tsunami":"内科消化器内科","kaji":"和歌山県立医大（和歌山市紀三井寺811－1）日赤和歌山医療センター（和歌山市小松原通4－20）向陽病院（和歌山市津秦40）","naisui":"","kazan":""}}
,{"type":"Feature","geometry":{"type":"Point","coordinates":[135.1859,34.26202]},"properties":{"Name":"医療法人　博文会紀泉KDクリニック","Jusho":"和歌山市善明寺358-1","kouzui":"073-454-5515","gake":"http://www.hakubunkai.com","takashio":"×","jishin":"〇","tsunami":"内科","kaji":"","naisui":"","kazan":""}}
,{"type":"Feature","geometry":{"type":"Point","coordinates":[135.19788,34.24664]},"properties":{"Name":"森内科クリニック","Jusho":"和歌山市有本226-12","kouzui":"073-402-3281","gake":"","takashio":"","jishin":"〇","tsunami":"内科","kaji":"和歌山県立医大（和歌山市紀三井寺811－1）日赤和歌山医療センター（和歌山市小松原通4－20）和歌山市生協病院（和歌山市有本143－1）","naisui":"","kazan":""}}
,{"type":"Feature","geometry":{"type":"Point","coordinates":[135.18823,34.23366]},"properties":{"Name":"医療法人　殿最会みながクリニック","Jusho":"和歌山市友田町4-18","kouzui":"073-432-2666","gake":"https://minagaclinic.wixsite.com/tonomokai","takashio":"〇","jishin":"〇","tsunami":"内科循環器内科呼吸器内科糖尿病内科","kaji":"","naisui":"","kazan":""}}
,{"type":"Feature","geometry":{"type":"Point","coordinates":[135.20538,34.2151]},"properties":{"Name":"吉村消化器クリニック","Jusho":"和歌山市神前144-12 ","kouzui":"073-472-7788 ","gake":"","takashio":"〇","jishin":"〇","tsunami":"内科消化器内科外科肛門外科","kaji":"","naisui":"","kazan":""}}
,{"type":"Feature","geometry":{"type":"Point","coordinates":[135.16792,34.1989]},"properties":{"Name":"医療法人　新生会岩橋産婦人科","Jusho":"和歌山市関戸1-6-44 ","kouzui":"073-444-4060 ","gake":"https://iwahashi-sanfu.com ","takashio":"× ","jishin":"〇","tsunami":"産科婦人科産婦人科","kaji":"和歌山県立医大（和歌山市紀三井寺811－1） 日赤和歌山医療センター（和歌山市小松原通4－20） ","naisui":"","kazan":""}}
,{"type":"Feature","geometry":{"type":"Point","coordinates":[135.19681,34.21481]},"properties":{"Name":"医療法人たいようファミリークリニック","Jusho":"和歌山市新中島125-1 ","kouzui":"073-476-5171 ","gake":"www.taiyo-kodomo.com ","takashio":"〇","jishin":"〇","tsunami":"小児科","kaji":"和歌山県立医大（和歌山市紀三井寺811－1） 日赤和歌山医療センター（和歌山市小松原通4－20） 医療法人たいようファミリ－クリニック","naisui":"","kazan":""}}
,{"type":"Feature","geometry":{"type":"Point","coordinates":[135.17722,34.25305]},"properties":{"Name":"クリニックジョイ耳鼻咽喉科アレルギー科","Jusho":"和歌山市楠見中169-1 ワッセｰナ21（101号） ","kouzui":"073-480-1717 ","gake":"http://clinicjoy.p-kit.com/ ","takashio":"〇","jishin":"〇","tsunami":"耳鼻咽喉科アレルギー科","kaji":"和歌山県立医大（和歌山市紀三井寺811－1） 日赤和歌山医療センター（和歌山市小松原通4－20） 和歌山ろうさい病院（和歌山市木ノ本93-1） ","naisui":"","kazan":""}}
,{"type":"Feature","geometry":{"type":"Point","coordinates":[135.17416,34.23417]},"properties":{"Name":"公立大学法人和歌山県立医科大学サテライト診療所本町","Jusho":"和歌山市本町2丁目1　フォルテワジマ5階","kouzui":"073-488-1930 ","gake":"http://www.wakayama-med.ac.jp/med/miraic/sinryou/ ","takashio":"× ","jishin":"〇","tsunami":"内科（糖尿病、循環器、漢方、老年、禁煙外来、神経内科）リハビリテーション科　美容皮膚科　心臓血管外科　皮膚科","kaji":"","naisui":"","kazan":""}}
,{"type":"Feature","geometry":{"type":"Point","coordinates":[135.22902,34.2654]},"properties":{"Name":"会田内科","Jusho":"和歌山市府中745 ","kouzui":"073-461-1510 ","gake":"","takashio":"× ","jishin":"○ ","tsunami":"内科","kaji":"未定","naisui":"","kazan":""}}
,{"type":"Feature","geometry":{"type":"Point","coordinates":[135.17987,34.26098]},"properties":{"Name":"松谷内科","Jusho":"和歌山市善明寺755-81 ","kouzui":"073-451-1700 ","gake":"https://www.facebook.com/matsu taninaika/?mobai-admin_todo_tour ","takashio":"○ ","jishin":"○ ","tsunami":"内科","kaji":"和歌山県立医科大学附属病院（和歌山市紀三井寺811-1） 日本赤十字和歌山医療センター（和歌山市小松原通4-20） 和歌山労災病院（和歌山市木ノ本93-1） ","naisui":"","kazan":""}}
,{"type":"Feature","geometry":{"type":"Point","coordinates":[135.1675,34.20075]},"properties":{"Name":"つの小児科","Jusho":"和歌山市関戸1-4-10 ","kouzui":"073-448-3234 ","gake":"","takashio":"○ ","jishin":"○ ","tsunami":"小児科","kaji":"和歌山県立医科大学附属病院（和歌山市紀三井寺811-1） 日本赤十字和歌山医療センター（和歌山市小松原通4-20） ","naisui":"","kazan":""}}
,{"type":"Feature","geometry":{"type":"Point","coordinates":[135.19385,34.23011]},"properties":{"Name":"和田胃腸科医院","Jusho":"和歌山市太田1-4-21 ","kouzui":"073-473-5252 ","gake":"","takashio":"× ","jishin":"× ","tsunami":"胃腸科","kaji":"日本赤十字和歌山医療センター（和歌山市小松原通4-20） ","naisui":"","kazan":""}}
,{"type":"Feature","geometry":{"type":"Point","coordinates":[135.17015,34.22108]},"properties":{"Name":"なないろこどもクリニック","Jusho":"和歌山市吹上2-4-46-2F ","kouzui":"073-425-7716 ","gake":"","takashio":"× ","jishin":"○ ","tsunami":"小児科","kaji":"","naisui":"","kazan":""}}
,{"type":"Feature","geometry":{"type":"Point","coordinates":[135.17509,34.23443]},"properties":{"Name":"西川内科診療所","Jusho":"和歌山市匠町29小山ビル1F ","kouzui":"073-431-0526 ","gake":"","takashio":"○ ","jishin":"○ ","tsunami":"内科","kaji":"日本赤十字和歌山医療センター（和歌山市小松原通4丁目20番地） 和歌山労災病院（和歌山市木ノ本93-1） ","naisui":"","kazan":""}}
,{"type":"Feature","geometry":{"type":"Point","coordinates":[135.12848,34.25679]},"properties":{"Name":"榎原内科医院","Jusho":"和歌山市榎原272-27 ","kouzui":"073-454-2662 ","gake":"","takashio":"× ","jishin":"○ ","tsunami":"内科","kaji":"","naisui":"","kazan":""}}
,{"type":"Feature","geometry":{"type":"Point","coordinates":[135.17531,34.2323]},"properties":{"Name":"十一番丁てらしたクリニック","Jusho":"和歌山市十一番丁18 ","kouzui":"073-425-1123 ","gake":"http://www.kyowa.ac.jp/terashi taclinic/ ","takashio":"○ ","jishin":"○ ","tsunami":"脳神経外科外科内科","kaji":"対面診療可能","naisui":"","kazan":""}}
,{"type":"Feature","geometry":{"type":"Point","coordinates":[135.17467,34.23442]},"properties":{"Name":"医療法人伊奈胃腸科","Jusho":"和歌山市本町2丁目42番","kouzui":"073-428-1717 ","gake":"","takashio":"○ ","jishin":"○ ","tsunami":"内科胃腸科肛門科","kaji":"和歌山県立医科大学附属病院（和歌山市紀三井寺811-1） 日本赤十字和歌山医療センター（和歌山市小松原通4-20） ","naisui":"","kazan":""}}
,{"type":"Feature","geometry":{"type":"Point","coordinates":[135.24629,34.26672]},"properties":{"Name":"綿貫整形外科","Jusho":"和歌山市北野281 ","kouzui":"073-462-6200 ","gake":"http://watanuki.or.jp ","takashio":"× ","jishin":"○ ","tsunami":"整形外科","kaji":"","naisui":"","kazan":""}}
,{"type":"Feature","geometry":{"type":"Point","coordinates":[135.24741,34.26831]},"properties":{"Name":"綿貫第２クリニック","Jusho":"和歌山市北野285 ","kouzui":"073-462-6202 ","gake":"http://anju-watanuki.or.jp ","takashio":"○ ","jishin":"○ ","tsunami":"内科","kaji":"","naisui":"","kazan":""}}
,{"type":"Feature","geometry":{"type":"Point","coordinates":[135.16727,34.25517]},"properties":{"Name":"（医）裕真会下間クリニック","Jusho":"和歌山市市小路402 ","kouzui":"073-455-1718 ","gake":"","takashio":"○ ","jishin":"○ ","tsunami":"内科小児科胃腸内科外科肛門外科","kaji":"和歌山生協病院（和歌山市有本143-1） 和歌山労災病院（和歌山市木ノ本93-1） ","naisui":"","kazan":""}}
,{"type":"Feature","geometry":{"type":"Point","coordinates":[135.20537,34.20935]},"properties":{"Name":"かさの医院","Jusho":"和歌山市神前372-1 ","kouzui":"073-471-1197 ","gake":"http://www.kasanoiin.com ","takashio":"○ ","jishin":"○ ","tsunami":"産婦人科","kaji":"和歌山県立医科大学附属病院（和歌山市紀三井寺811-1） 日本赤十字和歌山医療センター（和歌山市小松原通4-20） ","naisui":"","kazan":""}}
,{"type":"Feature","geometry":{"type":"Point","coordinates":[135.16563,34.21203]},"properties":{"Name":"今福診療所","Jusho":"和歌山市今福2丁目1-16 ","kouzui":"073-494-7678 ","gake":"","takashio":"× ","jishin":"○ ","tsunami":"内科小児科","kaji":"","naisui":"","kazan":""}}
,{"type":"Feature","geometry":{"type":"Point","coordinates":[135.20509,34.26213]},"properties":{"Name":"津田小児科","Jusho":"和歌山市六十谷374-1 ","kouzui":"073-462-1015 ","gake":"","takashio":"× ","jishin":"○ ","tsunami":"小児科","kaji":"日本赤十字和歌山医療センター（和歌山市小松原通4-20） ","naisui":"","kazan":""}}
,{"type":"Feature","geometry":{"type":"Point","coordinates":[135.22841,34.23052]},"properties":{"Name":"風土記の丘診療所","Jusho":"和歌山市岩橋1271-1 ","kouzui":"073-473-6070 ","gake":"http://www.fudoki.net ","takashio":"○ ","jishin":"○ ","tsunami":"内科消化器内科","kaji":"医療法人やすだ堀口記念病院（和歌山市湊本町3-4-1） ","naisui":"","kazan":""}}
,{"type":"Feature","geometry":{"type":"Point","coordinates":[135.18991,34.22978]},"properties":{"Name":"うつのみやレディースクリニック","Jusho":"和歌山市美園町5-4-20 ","kouzui":"073-423-1987 ","gake":"http://utsunomiya-lc.com/ ","takashio":"× ","jishin":"○ ","tsunami":"婦人科","kaji":"","naisui":"","kazan":""}}
,{"type":"Feature","geometry":{"type":"Point","coordinates":[135.19547,34.16726]},"properties":{"Name":"山口医院","Jusho":"和歌山市毛見295-21 ","kouzui":"073-444-3872 ","gake":"https://yamaguchi-med.com/ ","takashio":"○ ","jishin":"○ ","tsunami":"内科小児科","kaji":"和歌山県立医科大学附属病院（和歌山市紀三井寺811-1） 日本赤十字和歌山医療センター（和歌山市小松原通4-20） 海南医療センター（和歌山県海南市日方1552－1） ","naisui":"","kazan":""}}
,{"type":"Feature","geometry":{"type":"Point","coordinates":[135.17722,34.25305]},"properties":{"Name":"三木内科","Jusho":"和歌山市楠見中169-1 ","kouzui":"073-454-8115 ","gake":"","takashio":"○ ","jishin":"○ ","tsunami":"内科","kaji":"当院","naisui":"","kazan":""}}
,{"type":"Feature","geometry":{"type":"Point","coordinates":[135.16534,34.25974]},"properties":{"Name":"河西診療所","Jusho":"和歌山市平井66-1 ","kouzui":"073-451-6177 ","gake":"https://www.w-iryoseikyo.com ","takashio":"× ","jishin":"○ ","tsunami":"内科小児科","kaji":"和歌山市生協病院（和歌山市有本143-1） ","naisui":"","kazan":""}}
,{"type":"Feature","geometry":{"type":"Point","coordinates":[135.13535,34.25374]},"properties":{"Name":"医療法人ありいクリニック","Jusho":"和歌山県和歌山市榎原84-1 ","kouzui":"073-457-9500 ","gake":"","takashio":"× ","jishin":"○ ","tsunami":"内科","kaji":"和歌山労災病院（和歌山市木ノ本93-1） 日本赤十字和歌山医療センター（和歌山市小松原通4-20） ","naisui":"","kazan":""}}
,{"type":"Feature","geometry":{"type":"Point","coordinates":[135.20471,34.23061]},"properties":{"Name":"しんどうなおこクリニック","Jusho":"和歌山市秋月275-1 ","kouzui":"073-472-0333 ","gake":"","takashio":"× ","jishin":"○ ","tsunami":"糖尿病内科内科消化器内科","kaji":"日本赤十字和歌山医療センター（和歌山市小松原通4-20） 医療法人　裕紫会　中谷病院（和歌山市鳴神123-1） ","naisui":"","kazan":""}}
,{"type":"Feature","geometry":{"type":"Point","coordinates":[135.14653,34.27301]},"properties":{"Name":"与田病院附属ふじと台クリニック","Jusho":"和歌山市中573-19 ふじと台ステｰションビル4階","kouzui":"073-499-8801 ","gake":"http://fujitodai-clinic.jp ","takashio":"○ ","jishin":"○ ","tsunami":"内科糖尿病内科内分泌内科小児科","kaji":"","naisui":"","kazan":""}}
,{"type":"Feature","geometry":{"type":"Point","coordinates":[135.20439,34.22319]},"properties":{"Name":"医療法人　西村会向陽病院","Jusho":"和歌山市津秦40 ","kouzui":"073-474-2000 ","gake":"","takashio":"× ","jishin":"○ ","tsunami":"内科循環器内科消化器内科脳神経外科外科泌尿器科","kaji":"","naisui":"","kazan":""}}
,{"type":"Feature","geometry":{"type":"Point","coordinates":[135.21289,34.22721]},"properties":{"Name":"宇都宮病院","Jusho":"和歌山県和歌山市鳴神505-4 ","kouzui":"073-471-1111 ","gake":"http://www.utsunomiya-hospital.com ","takashio":"〇","jishin":"〇","tsunami":"内科","kaji":"宇都宮病院（和歌山県和歌山市鳴神505－4） ","naisui":"","kazan":""}}
,{"type":"Feature","geometry":{"type":"Point","coordinates":[135.20743,34.23086]},"properties":{"Name":"(医）一穂会武用整形外科","Jusho":"和歌山県和歌山市鳴神1005番地","kouzui":"073-473-5000 ","gake":"https://buyo.jp ","takashio":"〇","jishin":"〇","tsunami":"整形外科","kaji":"和歌山労災病院（和歌山市木ノ本93－1） 済生会和歌山病院（和歌山市十二番丁45番地） 和歌山県立医科大学付属病院（和歌山市紀三井寺811番地1） ","naisui":"","kazan":""}}
,{"type":"Feature","geometry":{"type":"Point","coordinates":[135.17688,34.19114]},"properties":{"Name":"特定医療法人　旭会和歌浦病院","Jusho":"和歌山県和歌山市和歌浦東3丁目2番38号","kouzui":"073-444-0861 ","gake":"http://www.wakaura-hosp.net/ ","takashio":"× ","jishin":"〇","tsunami":"精神科心療内科","kaji":"","naisui":"","kazan":""}}
,{"type":"Feature","geometry":{"type":"Point","coordinates":[135.17097,34.21218]},"properties":{"Name":"医療法人　橋本病院","Jusho":"和歌山県和歌山市堀止南ノ丁4ｰ31 ","kouzui":"073-426-3388 ","gake":"http://www.hashimoto-hp.or.jp ","takashio":"× ","jishin":"〇","tsunami":"内科外科整形外科","kaji":"","naisui":"","kazan":""}}
,{"type":"Feature","geometry":{"type":"Point","coordinates":[135.1902,34.2367]},"properties":{"Name":"角谷整形外科病院","Jusho":"和歌山県和歌山市吉田337番地","kouzui":"073-433-1161 ","gake":"http://www.sumiya.or.jp ","takashio":"× ","jishin":"〇","tsunami":"整形外科","kaji":"初診患者に対し通信機器での対応不可再診患者で前回処方した薬剤の処方のみ電話再診として対応している。（対面診察が必要な時は当院で対応） 新型コロナウイルス感染症の患者に対する診療は行っていない。","naisui":"","kazan":""}}
,{"type":"Feature","geometry":{"type":"Point","coordinates":[135.19116,34.23764]},"properties":{"Name":"社会医療法人スミヤ角谷リハビリテーション病院","Jusho":"和歌山県和歌山市納定10-1","kouzui":"073-475-1230","gake":"https://www.sumiya.or.jp","takashio":"×","jishin":"〇","tsunami":"循環器内科内科リハビリテーション科脳神経外科","kaji":"","naisui":"","kazan":""}}
,{"type":"Feature","geometry":{"type":"Point","coordinates":[135.12158,34.25698]},"properties":{"Name":"独立行政法人労働者健康安全機構和歌山労災病院","Jusho":"和歌山県和歌山市木ノ本93-1","kouzui":"073-451-3181","gake":"https://www.wakayamah.johas.go.jp/","takashio":"","jishin":"〇","tsunami":"全科","kaji":"","naisui":"","kazan":""}}
,{"type":"Feature","geometry":{"type":"Point","coordinates":[135.15984,34.21852]},"properties":{"Name":"今村病院","Jusho":"和歌山県和歌山市砂山南2丁目4番21号","kouzui":"073-425-3271","gake":"https://www.imamura.or.jp","takashio":"〇","jishin":"〇","tsunami":"脳神経外科外科内科","kaji":"今村病院","naisui":"","kazan":""}}
,{"type":"Feature","geometry":{"type":"Point","coordinates":[135.17783,34.19339]},"properties":{"Name":"池田耳鼻いんこう科院","Jusho":"和歌山県和歌山市和歌川町9","kouzui":"073-446-1987","gake":"http://www.ikeda-jibika.jp","takashio":"△","jishin":"○","tsunami":"耳鼻咽喉科アレルギー科","kaji":"","naisui":"","kazan":""}}
,{"type":"Feature","geometry":{"type":"Point","coordinates":[135.1841,34.22906]},"properties":{"Name":"児玉病院","Jusho":"和歌山県和歌山市餌差町1丁目12","kouzui":"073-436-6557","gake":"http://www.hakubunkai.com/kodama/","takashio":"○","jishin":"○","tsunami":"内科","kaji":"和歌山県立医科大学附属病院（和歌山市紀三井寺811-1）日本赤十字和歌山医療センター（和歌山市小松原通4-20）済生会病院（済生会和歌山病院（和歌山市十二番丁45）","naisui":"","kazan":""}}
,{"type":"Feature","geometry":{"type":"Point","coordinates":[135.21149,34.22604]},"properties":{"Name":"中谷病院","Jusho":"和歌山県和歌山市鳴神123-1","kouzui":"073-471-3111","gake":"http://www.kikyokai.or.jp","takashio":"×","jishin":"○","tsunami":"内科","kaji":"","naisui":"","kazan":""}}
,{"type":"Feature","geometry":{"type":"Point","coordinates":[135.169596,34.225049]},"properties":{"Name":"滋野医院","Jusho":"和歌山県和歌山市真砂丁1の1","kouzui":"073-422-0781","gake":"http://www.shigenoiin.com","takashio":"×","jishin":"○","tsunami":"皮膚科アレルギー科","kaji":"","naisui":"","kazan":""}}
,{"type":"Feature","geometry":{"type":"Point","coordinates":[135.775941,33.542443]},"properties":{"Name":"古座川町国民健康保険明神診療所","Jusho":"和歌山県東牟婁郡古座川町川口254-1","kouzui":"0735-67-7113","gake":"http://www.town.kozagawa.wakayama.jp/","takashio":"×","jishin":"○","tsunami":"内科小児科","kaji":"","naisui":"","kazan":""}}
,{"type":"Feature","geometry":{"type":"Point","coordinates":[135.832598,33.516996]},"properties":{"Name":"やもとクリニック","Jusho":"和歌山県東牟婁郡串本町上野山191","kouzui":"0735-72-3388","gake":"","takashio":"×","jishin":"○","tsunami":"内科","kaji":"","naisui":"","kazan":""}}
,{"type":"Feature","geometry":{"type":"Point","coordinates":[135.7912,33.48618]},"properties":{"Name":"こしみちクリニック","Jusho":"和歌山県東牟婁郡串本町鬮野川1356-4","kouzui":"0735-67-7785","gake":"https://koshimichi-cl.com/","takashio":"×","jishin":"○","tsunami":"脳神経外科外科整形外科内科","kaji":"くしもと町立病院（和歌山県東牟婁郡串本町サンゴ台691－7）","naisui":"","kazan":""}}
,{"type":"Feature","geometry":{"type":"Point","coordinates":[135.15373,33.89559]},"properties":{"Name":"ひだか病院","Jusho":"御坊市薗116番2","kouzui":"0738-22-1111","gake":"http://www.hidakagh.gobo.wakayama.jp/","takashio":"×","jishin":"○","tsunami":"「透析・歯科口腔外科」以外の診療科(対応については診療科で個別対応)","kaji":"和歌山病院(日高郡美浜町和田1138)北出病院(御坊市湯川町財部728－4)","naisui":"","kazan":""}}
,{"type":"Feature","geometry":{"type":"Point","coordinates":[135.15556,33.89752]},"properties":{"Name":"北出病院","Jusho":"御坊市湯川町財部728の4","kouzui":"0738-22-2188","gake":"","takashio":"×","jishin":"○(慢性疾患等を有する定期受診患者のみ)","tsunami":"全診療科","kaji":"ひだか病院(御坊市薗116番地2)和歌山病院(日高郡美浜町和田1138)","naisui":"","kazan":""}}
,{"type":"Feature","geometry":{"type":"Point","coordinates":[135.15834,33.9056]},"properties":{"Name":"北裏病院","Jusho":"御坊市湯川町小松原454","kouzui":"0738-22-3352","gake":"http://www.kitaura-hp.jp/","takashio":"×","jishin":"○(投薬のみ)","tsunami":"整形外科","kaji":"ひだか病院(御坊市薗116番地2)","naisui":"","kazan":""}}
,{"type":"Feature","geometry":{"type":"Point","coordinates":[135.15216,33.89348]},"properties":{"Name":"天津医院","Jusho":"御坊市薗308-7","kouzui":"0738-22-5351","gake":"","takashio":"○","jishin":"○","tsunami":"産婦人科","kaji":"ひだか病院(御坊市薗116番地2)","naisui":"","kazan":""}}
,{"type":"Feature","geometry":{"type":"Point","coordinates":[135.15866,33.89161]},"properties":{"Name":"井本内科","Jusho":"御坊市島232-8","kouzui":"0738-22-2228","gake":"","takashio":"×","jishin":"○","tsunami":"内科","kaji":"ひだか病院(御坊市薗116番地2)和歌山病院(日高郡美浜町和田1138)北出病院(御坊市湯川町財部728－4)","naisui":"","kazan":""}}
,{"type":"Feature","geometry":{"type":"Point","coordinates":[135.16753,33.90876]},"properties":{"Name":"上田内科循環器科","Jusho":"御坊市藤田町吉田851-9","kouzui":"0738-24-1555","gake":"http://park12.wakwak.com/~ueda/","takashio":"×","jishin":"○","tsunami":"内科","kaji":"ひだか病院(御坊市薗116番地2)和歌山病院(日高郡美浜町和田1138)北出病院(御坊市湯川町財部728－4)","naisui":"","kazan":""}}
,{"type":"Feature","geometry":{"type":"Point","coordinates":[135.14998,33.90513]},"properties":{"Name":"紀伊クリニック","Jusho":"御坊市湯川町小松原615-1","kouzui":"0738-24-2222","gake":"","takashio":"×","jishin":"○(月・火・水、時間内のみ)","tsunami":"内科消化器科","kaji":"ひだか病院(御坊市薗116番地2)和歌山病院(日高郡美浜町和田1138)北出病院(御坊市湯川町財部728－4)","naisui":"","kazan":""}}
,{"type":"Feature","geometry":{"type":"Point","coordinates":[135.15515,33.89148]},"properties":{"Name":"垣内耳鼻咽喉科","Jusho":"御坊市薗255の2 HAUS255 1階","kouzui":"0738-24-3387","gake":"","takashio":"×","jishin":"○","tsunami":"耳鼻咽喉科","kaji":"ひだか病院(御坊市薗116番地2)","naisui":"","kazan":""}}
,{"type":"Feature","geometry":{"type":"Point","coordinates":[135.153032,33.900866]},"properties":{"Name":"小池内科","Jusho":"御坊市湯川町財部字能田516番3","kouzui":"0738-24-2255","gake":"","takashio":"×","jishin":"○","tsunami":"内科","kaji":"ひだか病院(御坊市薗116番地2)和歌山病院(日高郡美浜町和田1138)北出病院(御坊市湯川町財部728－4) ","naisui":"","kazan":""}}
,{"type":"Feature","geometry":{"type":"Point","coordinates":[135.16611,33.90364]},"properties":{"Name":"塩路内科胃腸科","Jusho":"御坊市藤田町吉田621","kouzui":"0738-24-0666","gake":"","takashio":"×","jishin":"○","tsunami":"内科小児科","kaji":"ひだか病院(御坊市薗116番地2)和歌山病院(日高郡美浜町和田1138)北出病院(御坊市湯川町財部728－4)","naisui":"","kazan":""}}
,{"type":"Feature","geometry":{"type":"Point","coordinates":[135.15475,33.88778]},"properties":{"Name":"高辻内科胃腸科","Jusho":"御坊市薗489-5","kouzui":"0738-24-0102","gake":"","takashio":"×","jishin":"○","tsunami":"内科","kaji":"ひだか病院(御坊市薗116番地2)和歌山病院(日高郡美浜町和田1138)北出病院(御坊市湯川町財部728－4)","naisui":"","kazan":""}}
,{"type":"Feature","geometry":{"type":"Point","coordinates":[135.14935,33.89676]},"properties":{"Name":"T-cube メディカルクリニック","Jusho":"御坊市湯川町財部646-11","kouzui":"0738-22-6428","gake":"","takashio":"○","jishin":"○","tsunami":"内科、小児科皮膚科、アレルギー科","kaji":"ひだか病院(御坊市薗116番地2)和歌山病院(日高郡美浜町和田1138)北出病院(御坊市湯川町財部728－4)","naisui":"","kazan":""}}
,{"type":"Feature","geometry":{"type":"Point","coordinates":[135.16127,33.87045]},"properties":{"Name":"もりばた医院","Jusho":"御坊市塩屋町北塩屋1087","kouzui":"0738-23-0111","gake":"","takashio":"×","jishin":"○","tsunami":"内科小児科","kaji":"ひだか病院(御坊市薗116番地2)和歌山病院(日高郡美浜町和田1138)北出病院(御坊市湯川町財部728－4)","naisui":"","kazan":""}}
,{"type":"Feature","geometry":{"type":"Point","coordinates":[135.15378,33.88603]},"properties":{"Name":"山羽胃腸科内科","Jusho":"御坊市薗652-2","kouzui":"0738-22-1968","gake":"","takashio":"○","jishin":"○","tsunami":"内科","kaji":"ひだか病院(御坊市薗116番地2)和歌山病院(日高郡美浜町和田1138)北出病院(御坊市湯川町財部728－4)","naisui":"","kazan":""}}
,{"type":"Feature","geometry":{"type":"Point","coordinates":[135.1236,33.96462]},"properties":{"Name":"玉置クリニック","Jusho":"日高郡由良町里349-1","kouzui":"0738-65-1511","gake":"","takashio":"×","jishin":"○","tsunami":"内科","kaji":"ひだか病院(御坊市薗116番地2)和歌山病院(日高郡美浜町和田1138)北出病院(御坊市湯川町財部728－4)","naisui":"","kazan":""}}
,{"type":"Feature","geometry":{"type":"Point","coordinates":[135.137885,33.892855]},"properties":{"Name":"玉置循環器科","Jusho":"日高郡美浜町和田1138-198","kouzui":"0738-22-3322","gake":"","takashio":"×","jishin":"○","tsunami":"循環器内科内科","kaji":"ひだか病院(御坊市薗116番地2)和歌山病院(日高郡美浜町和田1138)北出病院(御坊市湯川町財部728－4)","naisui":"","kazan":""}}
,{"type":"Feature","geometry":{"type":"Point","coordinates":[135.14958,33.88992]},"properties":{"Name":"橋本整形外科","Jusho":"日高郡美浜町田井400-1","kouzui":"0738-22-0036","gake":"","takashio":"×","jishin":"○","tsunami":"整形外科","kaji":"ひだか病院(御坊市薗116番地2)北裏病院(御坊市湯川町小松原454)","naisui":"","kazan":""}}
,{"type":"Feature","geometry":{"type":"Point","coordinates":[135.186074,33.912124]},"properties":{"Name":"谷本内科小児科","Jusho":"日高郡日高川町土生160-4","kouzui":"0738-24-2040","gake":"","takashio":"×","jishin":"○","tsunami":"内科小児科","kaji":"ひだか病院(御坊市薗116番地2)和歌山病院(日高郡美浜町和田1138)北出病院(御坊市湯川町財部728－4)","naisui":"","kazan":""}}
,{"type":"Feature","geometry":{"type":"Point","coordinates":[135.367085,33.98229]},"properties":{"Name":"日高川町国民健康保険川上診療所","Jusho":"日高郡日高川町川原河264番地","kouzui":"0738-56-0396","gake":"","takashio":"○","jishin":"○","tsunami":"内科小児科","kaji":"ひだか病院(御坊市薗116番地2)和歌山病院(日高郡美浜町和田1138)北出病院(御坊市湯川町財部728－4)","naisui":"","kazan":""}}
,{"type":"Feature","geometry":{"type":"Point","coordinates":[135.466635,33.957666]},"properties":{"Name":"日高川町国民健康保険寒川診療所","Jusho":"日高郡日高川町寒川293番地2","kouzui":"0738-58-0012","gake":"","takashio":"×","jishin":"〇","tsunami":"内科小児科","kaji":"ひだか病院(御坊市薗116番地2)和歌山病院(日高郡美浜町和田1138)北出病院(御坊市湯川町財部728－4)","naisui":"","kazan":""}}
,{"type":"Feature","geometry":{"type":"Point","coordinates":[135.422601,33.967693]},"properties":{"Name":"日高川町国民健康保険寒川診療所猪谷出張所","Jusho":"日高郡日高川町初湯川1587番地","kouzui":"0738-57-0411","gake":"","takashio":"×","jishin":"〇","tsunami":"内科小児科","kaji":"ひだか病院(御坊市薗116番地2)和歌山病院(日高郡美浜町和田1138)北出病院(御坊市湯川町財部728－4)","naisui":"","kazan":""}}
,{"type":"Feature","geometry":{"type":"Point","coordinates":[135.413841,33.996137]},"properties":{"Name":"日高川町国民健康保険寒川診療所上初湯川出張所","Jusho":"日高郡日高川町上初湯川83番地","kouzui":"0738-56-0539","gake":"","takashio":"×","jishin":"〇","tsunami":"内科小児科","kaji":"ひだか病院(御坊市薗116番地2)和歌山病院(日高郡美浜町和田1138)北出病院(御坊市湯川町財部728－4)","naisui":"","kazan":""}}
,{"type":"Feature","geometry":{"type":"Point","coordinates":[135.240833,33.796745]},"properties":{"Name":"小溝クリニック","Jusho":"日高郡印南町島田1163の11","kouzui":"0738-43-8000","gake":"http://www.komizoclinic.com","takashio":"○","jishin":"○","tsunami":"内科、小児科外科","kaji":"ひだか病院(御坊市薗116番地2)和歌山病院(日高郡美浜町和田1138)北出病院(御坊市湯川町財部728－4) ","naisui":"","kazan":""}}
]};